address,city,developer,district,index_date,lat,lng,name,osv,price,property,property_fee,province,tv,type,year
沙河口区华新苑10号楼4号公建,大连,大连新型房地产开发有限公司,沙河口,20190614,38.94033750532864,121.58990295130229,侯一小区,141,11324,大连新兴物业管理有限公司,0.3,辽宁,30,二手房,1989
开发区正恒园1-16,大连,大连华宇房地产开发有限公司,开发区,20190614,39.04823944344617,121.76165468797754,左岸经典,252,9016,大连豪之英物业管理有限公司,1.8,辽宁,26,二手房,2009
甘井子区宜居园10-1号房屋,大连,大连万科房地产开发有限公司,甘井子,20190614,38.99913094587405,121.52084969112292,万科魅力之城,204,14645,大连万科物业服务有限公司,1.5,辽宁,40,二手房,2012
大连经济技术开发区东城天下98-14,大连,大连乾豪集团有限公司,开发区,20190614,39.069195091289004,121.8502099927954,东城天下,356,8752,大连远洋基业物业管理有限公司,0.9,辽宁,46,二手房,2005
沙河口区沙能街101号1单元1层1号,大连,大连新型房地产开发有限公司,沙河口,20190614,38.9366316275348,121.59031205759763,侯二小区,173,11129,街道办事处（居委会）代管物业,0.1,辽宁,39,二手房,1985
大连开发区金马路169-2-8号,大连,大连亿锋房地产实业有限公司,开发区,20190614,39.057398235688176,121.78261137849105,亿锋现代城,157,10136,亿锋豪景物业管理有限公司,1.1,辽宁,28,二手房,2006
开发区湾里南12栋-16-17-18号,大连,大连金湾实业有限公司,开发区,20190614,39.070782084451,121.8506739675913,湾里南小区,372,8744,大连金湾物业管理有限公司,0.3,辽宁,36,二手房,2003
甘井子区榆林街37号-12公建,大连,大连新型房地产开发有限公司,甘井子,20190614,38.980133141940186,121.52779506952932,泡崖美林园,258,11604,大连新型物业管理有限公司,0.6,辽宁,64,二手房,2003
开发区湾里南12栋-16-17-18号,大连,大连金湾实业有限公司,开发区,20190614,39.070782084451,121.8506739675913,湾里东,199,8156,大连金湾物业管理有限公司,0.5,辽宁,28,二手房,2004
沙河口区昌黎街22号,大连,大连城市建设集团有限公司,沙河口,20190614,38.91975785098891,121.59109628369768,北昌平小区,139,12872,无物业管理服务,-,辽宁,27,二手房,1983
大连市甘井子区柳林园8-7号,大连,大连万科置业有限公司,甘井子,20190614,38.91290525308349,121.47673750074993,万科溪之谷,203,14571,大连万科物业服务有限公司,0.6,辽宁,26,二手房,2007
大连经济技术开发区时代城4-3号1-2号,大连,远洋地产有限公司,开发区,20190614,39.0992481321252,121.83007860699459,远洋时代城一期,170,9325,大连远洋基业物业管理有限公司,1.5,辽宁,28,二手房,2012
甘井子区泉水D1区37-7号,大连,大连运腾房地产开发有限公司,甘井子,20190614,39.013992871679214,121.61921940045104,锦泉源D2区,220,13209,大连嘉毅物业管理有限公司,0.5,辽宁,27,二手房,2005
甘井子区祥溢园4号1单元1层9号公建,大连,大连长鹭房屋开发有限公司,甘井子,20190614,38.92981664067587,121.54940314023253,亲亲家园,61,15377,渤海吉祥物业管理有限公司,0.5,辽宁,23,二手房,2004
甘井子区泡崖六小区6号楼1单元1层2号,大连,大连新型房地产开发有限公司,甘井子,20190614,38.98033159306754,121.55920598894072,泡崖五区,83,11390,大连新兴物业管理有限公司,0.5,辽宁,22,二手房,1990
沙河口区富民路120号4-1-1,大连,大连渤海红旗集团有限公司,沙河口,20190614,38.930937859528605,121.5647274237578,马栏小学北,91,10588,街道办事处（居委会）代管物业,0.2,辽宁,24,二手房,1994
沙河口区五一路177-1-1-1,大连,无开发商,沙河口,20190614,38.913544290955585,121.59450670056631,台山,92,11776,街道办事处（居委会）代管物业,0.5,辽宁,20,二手房,1987
金州新区先进街道渤海街7-4号1-2层、7-3号1-2层,大连,原金州纺织厂房地产公司,金州,20190614,39.09342713035472,121.74590886291374,金纺小区,180,6895,街道办事处（居委会）代管物业,0.5,辽宁,20,二手房,1985
大连市金州区站前街道生辉第一城14-3号1-2层,大连,大连新希望家园房地产有限公司,金州,20190614,39.0569681786798,121.74773530665969,新希望家园,198,8772,大连新希望物业服务有限公司,1.2,辽宁,19,二手房,2009
甘井子区红旗花园23号楼19-24轴公建,大连,大连红旗兴达房地产开发有限公司,甘井子,20190614,38.93108029984587,121.54902145022133,兴达花园,86,12802,大连万泰物业管理有限公司,0.3,辽宁,20,二手房,2000
沙河口区马栏北街186号,大连,大连渤海红旗集团有限公司,甘井子,20190614,38.913544290955585,121.59450670056631,马栏北街,42,11381,大连辽南物业管理有限公司,0.2,辽宁,20,二手房,1993
甘井子区玉丽街2号楼1单元4号公建,大连,大连新型房地产开发总公司,甘井子,20190614,38.98705071699301,121.55513043130172,泡崖康顺园,142,11178,大连新兴物业管理有限公司,0.5,辽宁,21,二手房,2007
甘井子区祥龙街2号楼1单元1楼1号,大连,大连恒新房地产开发有限公司,甘井子,20190614,38.988045874482445,121.60439401971377,华东人家,42,14405,大连福佳物业管理有限公司,1,辽宁,20,二手房,2007
沙河口区新生路万客园3-7,大连,大连绿波房屋开发集团有限公司,沙河口,20190614,38.94412875710208,121.57006756704837,绿波小区,148,10999,大连绿波建设发展有限公司,0.2,辽宁,22,二手房,1998
开发区兴城路29-81层,大连,大连亿锋房地产实业有限公司,开发区,20190614,39.050214252167194,121.75835946441768,亿锋广场一期,78,14632,大连广恒物业管理有限公司,2.5,辽宁,21,二手房,2013
甘井子区静林街34号4单元1层2,大连,大连祥盛房屋开发有限公司,甘井子,20190614,38.98321485010885,121.58185179833856,千山心城,127,14577,大连百特物业管理有限公司,0.5,辽宁,22,二手房,2003
金州区鹏程家园53#-8,大连,大连光伸房地产开发有限公司,开发区,20190614,39.03523987258615,121.80826248065051,绿洲半岛北岸,125,9292,大连经济技术开发区光伸物业服务有限公司,1.2,辽宁,21,二手房,2007
甘井子区宜居园10-1号房屋,大连,大连万科房地产开发有限公司,甘井子,20190614,38.99913094587405,121.52084969112292,万科朗润园,103,15030,大连万科物业服务有限公司,1.5,辽宁,25,二手房,2010
甘井子区玉湖街25号2单元1层3号,大连,大连新型房地产开发有限公司,甘井子,20190614,38.97626265183615,121.54617349027997,泡崖四区,177,10648,大连新型物业管理有限公司,0.5,辽宁,26,二手房,2002
沙河口区西南路643号,大连,无开发商,沙河口,20190614,38.943483429804665,121.5833555851182,北甸街,42,11663,无物业管理服务,-,辽宁,19,二手房,1983
金州区金润花园B区47号1单元1层1号2号,大连,大连辽大房地产开发有限公司,金州,20190614,39.10434716151341,121.74517862677146,金润小区B区,192,8370,大连新兴物业管理有限公司,0.4,辽宁,25,二手房,2005
无门店信息,大连,无开发商,甘井子,20190614,34.52713835999158,118.76812980670795,石油六闾,66,9327,街道办事处（居委会）代管物业,0.5,辽宁,19,二手房,1989
沙河口区西南路643号,大连,无开发商,沙河口,20190614,38.943483429804665,121.5833555851182,交通大学,81,12804,无物业管理服务,-,辽宁,19,二手房,1955
无门店信息,大连,大连益宁房地产开发有限公司,开发区,20190614,34.52713835999158,118.76812980670795,岭湾峰尚一期,127,8654,大连鸿达物业管理有限公司,1.3,辽宁,18,二手房,2010
甘井子区华北路花锦园28号23-3-1-2建筑物,大连,大连东特房地产开发有限公司,甘井子,20190614,38.951627958411166,121.5739439799003,东特新天地,50,16530,大连瑞祥物业管理有限公司,0.5,辽宁,19,二手房,2003
无门店信息,大连,大连金湾实业有限公司,开发区,20190614,34.52713835999158,118.76812980670795,金湾山城,145,9344,大连金湾物业管理有限公司,0.5,辽宁,14,二手房,2009
沙河口区恒利园42号-8,大连,大连新华房屋开发有限公司,沙河口,20190614,38.93357562498634,121.57914091532649,新华同仁轩,42,17714,大连新华物业管理有限公司,0.6,辽宁,14,二手房,2000
无门店信息,大连,大连航逸房地产开发有限公司,甘井子,20190614,34.52713835999158,118.76812980670795,中航华府,47,15212,中航物业管理有限公司大连分公司,2.5,辽宁,14,二手房,2016
开发区安盛里5栋-4,大连,大连盛铭资产管理有限公司,开发区,20190614,23.112106678834838,113.27801046214822,安盛花园,81,9311,大连经济技术开发区海青物业有限公司,1.1,辽宁,14,二手房,2003
沙河口区长江路946号-9,大连,大连机车商业城有限公司,沙河口,20190614,38.913544290955585,121.59450670056631,兴工街,66,13185,街道办事处（居委会）代管物业,0.2,辽宁,14,二手房,1985
大连市开发区左岸经典正恒园1-17,大连,大连神洲众益集团有限公司,开发区,20190614,39.049057070649155,121.76187404250511,万国宫馆一期,122,13132,加拿大高力国际物业服务有限公司,2.4,辽宁,14,二手房,2009
沙河口区前程街46号4—1—2号,大连,大连银地置业发展有限公司,沙河口,20190614,38.913544290955585,121.59450670056631,观山满庭芳,91,17920,大连新展物业管理有限公司,1,辽宁,15,二手房,2008
沙河口区红凌路137号,大连,大连大实企业集团房屋开发有限公司,甘井子,20190614,38.922699288974506,121.54713601744747,叠翠山庄,36,11113,大连弘实物业管理有限公司,0.4,辽宁,15,二手房,2000
甘井子区红凌路109号,大连,大连锦联地产集团有限公司,甘井子,20190614,38.923388478439314,121.54860212120927,锦绣暖山,78,15298,大连锦明物业服务有限公司,1.2,辽宁,15,二手房,2007
开发区润海园中区62-9,大连,华润（大连）房地产有限公司,开发区,20190614,39.04047273176333,121.76392358042445,华润海中国四期,120,14074,华润物业（大连）有限公司,3.1,辽宁,15,二手房,2014
开发区润海园中区30-1,大连,华润（大连）房地产有限公司,开发区,20190614,39.04047273176333,121.76392358042445,华润海中国三期,164,14383,华润物业（大连）有限公司,3.1,辽宁,15,二手房,2011
甘井子区泉水D6区51号,大连,大连锦丰和源祥房地产开发有限公司,甘井子,20190614,39.00897610161069,121.61789300655198,泉水家年华,103,13695,街道办事处（居委会）代管物业,0.9,辽宁,15,二手房,2009
金州区金润小区B区861单元102,大连,大连辽大房地产开发有限公司,金州,20190614,39.10615165380565,121.74639264534615,金润小区A区,146,8618,大连新兴物业管理有限公司,0.4,辽宁,15,二手房,2005
经济技术开发区城润万家62-8公建,大连,大连海汇房地产开发有限公司,开发区,20190614,39.06883436780937,117.72669530355309,城润万家,114,9543,大连正源物业服务有限公司,1,辽宁,16,二手房,2007
甘井子区玉丽街2号楼1单元4号公建,大连,大连新型房地产开发有限公司,甘井子,20190614,38.98705071699301,121.55513043130172,泡崖七区,118,10916,大连新兴物业管理有限公司,0.3,辽宁,16,二手房,1999
大连市甘井子区七贤路8-3号,大连,大连万达商业地产有限公司,高新园区,20190614,38.86602612116956,121.53842265737707,万达海景公寓,126,11933,大连万达物业管理有限公司,2.9,辽宁,15,二手房,2013
甘井子区汇仁街22号,大连,远洋地产有限公司,甘井子,20190614,38.99712640764999,121.58834420439493,远洋广场,184,17473,大连远洋基业物业管理有限公司,1.4,辽宁,16,二手房,2010
开发区松苑街23号,大连,大连盛和房地产开发有限公司,开发区,20190614,22.52087435807652,113.40156105086167,北欧假日,129,12001,大连鸿达物业管理有限公司,1.1,辽宁,12,二手房,2005
甘井子区泉水H3区15号3单元1层2号,大连,大连新型房地产开发有限公司,甘井子,20190614,39.00158439075201,121.62616882572375,龙畔金泉四期,70,13072,大连新型物业管理有限公司,0.4,辽宁,12,二手房,2005
甘井子区泉水D6区51号,大连,大连锦丰和源祥房地产开发有限公司,甘井子,20190614,39.00897610161069,121.61789300655198,泉水人家幸福里,129,13936,大连泽霖物业管理有限公司,0.9,辽宁,11,二手房,2009
沙河口区富民路120号4-1-1,大连,大连渤海红旗集团有限公司,沙河口,20190614,38.930937859528605,121.5647274237578,马栏小学南,63,11202,大连辽南物业管理有限公司,0.2,辽宁,11,二手房,1995
甘井子区泉水D1区37-7号,大连,大连运腾房地产开发有限公司,甘井子,20190614,39.013992871679214,121.61921940045104,锦泉源D3区,65,12450,大连南虹物业管理有限公司,0.5,辽宁,11,二手房,2007
大连市开发区左岸经典正恒园1-17,大连,大连神洲众益集团有限公司,开发区,20190614,39.049057070649155,121.76187404250511,万国宫馆二期,124,14134,加拿大高力国际物业服务有限公司,2.4,辽宁,12,二手房,2009
开发区润海园中区30-1,大连,暂无信息,开发区,20190614,39.04047273176333,121.76392358042445,华润海中国七期,65,16265,华润物业（大连）有限公司开发区分公司,3.1,辽宁,11,二手房,2016
大连市开发区左岸经典正恒园1-17,大连,大连众益神州地产开发有限公司,开发区,20190614,39.049057070649155,121.76187404250511,万国宫馆三期,113,14321,大连万佳物业管理有限公司,2,辽宁,12,二手房,2011
沙河口区富静街26号1单元1层5号,大连,大连正源房地产开发有限公司,沙河口,20190614,38.908727606250466,121.58667844684369,幸福e家五期,193,37811,大连正源物业服务有限公司,1.8,辽宁,12,二手房,2008
西岗区平等街21号1层2号,大连,无开发商,西岗,20190614,38.92251066253164,121.63236845125735,实验小学同庆街,85,22691,无物业管理服务,-,辽宁,12,二手房,1990
大连经济技术开发区时代城4-3号1-2号,大连,远洋地产有限公司,开发区,20190614,39.0992481321252,121.83007860699459,远洋时代城三期,88,8712,大连远洋基业物业管理有限公司,1.5,辽宁,12,二手房,2012
金州新区站前街道生辉第一城5号楼1-2层4号,大连,大连新希望家园房地产有限公司,金州,20190614,39.05819721414208,121.74650438736514,新希望乐城,67,10251,大连新希望物业服务有限公司,1.6,辽宁,12,二手房,2013
沙河口区联合路133号,大连,无开发商,沙河口,20190614,38.91608561262676,121.60480987310456,79中永平,102,26911,无物业管理服务,-,辽宁,12,二手房,1994
金州新区先进街道渤海街7-4号1-2层、7-3号1-2层,大连,大连九鼎置地有限公司,金州,20190614,39.09342713035472,121.74590886291374,万科城,81,11147,大连万科物业服务有限公司,2.2,辽宁,12,二手房,2015
大连市开发区湾里东5-6号,大连,大连宏港房地产开发有限公司,开发区,20190614,39.07275772231556,121.85888789351343,都悦里,218,6846,大连宏港物业管理有限公司,0.3,辽宁,12,二手房,1992
沙河口区五一路219-1,大连,大连亿达房地产股份有限公司,沙河口,20190614,38.913544290955585,121.59450670056631,桃山小区,80,9846,街道办事处（居委会）代管物业,0.5,辽宁,12,二手房,1998
沙河口区敦煌路357号10-11轴公建,大连,无开发商,沙河口,20190614,38.93891619583455,121.59150694046835,车家村,36,10492,街道办事处（居委会）代管物业,0.5,辽宁,12,二手房,1989
甘井子金地艺境博艺西园2-1号,大连,大连恒昇房地产开发有限公司,甘井子,20190614,39.04402110608829,121.665484498555,福佳新城一期,62,9191,暂无信息,0.9,辽宁,12,二手房,2010
开发区黄海西路54号,大连,开发区城建局,开发区,20190614,39.047714586087785,121.76688238228269,青松北里,54,8416,大连经济技术开发区中强物业管理有限公司,0.2,辽宁,13,二手房,1996
西岗区香炉礁24号1-1,大连,无开发商,西岗,20190614,38.92047268927287,121.61862512554262,工人村,55,10449,街道办事处（居委会）代管物业,0.5,辽宁,10,二手房,1980
甘井子区泉水D1区37-7号,大连,大连运腾房地产开发有限公司,甘井子,20190614,39.013992871679214,121.61921940045104,锦泉源D1区,78,14112,大连嘉合物业管理有限公司,0.5,辽宁,13,二手房,2005
金州区金润小区B区861单元102,大连,大连新型房地产开发有限公司,金州,20190614,39.10615165380565,121.74639264534615,糖果小区,72,9013,大连新兴物业管理有限公司,0.5,辽宁,10,二手房,2011
无门店信息,大连,大连乐启房地产开发有限公司,甘井子,20190614,34.52713835999158,118.76812980670795,三寰融创城南园,67,13040,融创物业,2.2,辽宁,10,二手房,2015
甘井子区红旗西路104-23,大连,大连万科房地产开发有限公司,甘井子,20190614,38.94013845868325,121.5282577714263,万科假日风景,75,16797,大连万科物业服务有限公司,1,辽宁,10,二手房,2007
沙河口区星海广场B3区20—3号,大连,大连飞通房地产开发有限公司,沙河口,20190614,38.88782715536473,121.5869168319735,东方星海,126,17879,大连兆恒物业管理有限公司,2.9,辽宁,10,二手房,2009
沙河口区南沙街36号台二2号1-1-37,大连,大连康加立置业有限公司,沙河口,20190614,38.90741410359388,121.57685699961822,台四小区,37,13110,大连弘达物业管理有限公司,-,辽宁,10,二手房,1996
金州新区润海园中区18#2号,大连,华润置地（大连）有限公司,开发区,20190614,39.04047273176333,121.76392358042445,华润海中国二期,167,14210,华润物业（大连）有限公司,2.8,辽宁,10,二手房,2011
中山区华乐街107-115号,大连,大连海昌房地产开发有限公司,中山,20190614,38.92093821499401,121.68879267531725,海昌欣城,99,17186,大连海昌欣城物业管理有限公司,1.2,辽宁,10,二手房,2002
开发区润海园中区30-1,大连,华润置地（大连）开发有限公司,开发区,20190614,39.04047273176333,121.76392358042445,华润海中国一期,151,16198,华润物业（大连）有限公司,1.8,辽宁,10,二手房,2009
无门店信息,大连,大连万德房地产集团有限公司,开发区,20190614,34.52713835999158,118.76812980670795,万德悦城,108,8321,大连万德物业管理有限公司,1.5,辽宁,10,二手房,2010
沙河口区黑石礁街3号1层1-1号,大连,无开发商,沙河口,20190614,38.880058010307856,121.56313403908827,浪花街,42,11752,无物业管理服务,-,辽宁,10,二手房,1991
中山区解放路604号,大连,无开发商,西岗,20190614,38.89026319122045,121.66407876092346,桃源小学,22,15653,无物业管理服务,-,辽宁,10,二手房,1990
无门店信息,大连,大连环宇置业有限公司,开发区,20190614,34.52713835999158,118.76812980670795,环宇品阁,81,6208,大连环宇物业管理有限公司,1.5,辽宁,10,二手房,2010
开发区红梅小区19栋-2-1-1号,大连,香港北海集团,开发区,20190614,29.906498897603264,121.5913630631805,君悦豪庭,65,11706,街道办事处（居委会）代管物业,1.2,辽宁,10,二手房,2004
开发区安盛里5栋-4,大连,大连汽贸房屋开发有限公司,开发区,20190614,23.112106678834838,113.27801046214822,东北明珠,61,12335,大连汽贸物业管理有限公司,1.5,辽宁,10,二手房,2007
甘井子区甘井子路32号楼1单元1楼9号,大连,无开发商,甘井子,20190614,38.982488275116516,121.63345389253514,松江小区,40,10174,街道办事处（居委会）代管物业,0.5,辽宁,10,二手房,1990
高新园区海苑街30号1单元1号公建,大连,大连大有文园房屋开发有限公司,高新园区,20190614,20.06392317589085,110.32302599457326,大有文园,52,17012,大连大有恬园物业管理有限公司,2,辽宁,10,二手房,2012
沙河口区锦江园30号1层公建,大连,大连锦绣房地产开发有限公司,沙河口,20190614,38.949985113183935,121.56560955976859,锦江园,95,10672,大连锦绣物业管理有限公司,0.3,辽宁,11,二手房,1983
甘井子区虹韵路114号,大连,大连亿达美加房地产开发有限公司,甘井子,20190614,38.95653310483457,121.5329869995972,第五郡五号地,85,27348,亿达物业管理有限公司,2,辽宁,11,二手房,2009
大连市高新园区软件园路1A-3号,大连,亿达房地产开发有限公司,高新园区,20190614,38.89360013642285,121.54653763548625,软件园小区,56,14655,业主自筹物业,0.2,辽宁,11,二手房,1995
沙河口区锦石路8号,大连,大连锦绣房地产开发有限公司,沙河口,20190614,38.94771288948481,121.56110903658733,锦泉中园,36,12233,大连锦绣物业管理有限公司,0.3,辽宁,9,二手房,1996
甘井子区哲林北园17-6号,大连,大连恒德房屋开发有限公司,甘井子,20190614,38.9600267109581,121.53876726228256,恒德橄榄季,60,22012,大连恒德物业服务有限公司,1.4,辽宁,9,二手房,2009
沙河口区绿波路34号楼5单元1楼3号,大连,大连东北房屋开发有限公司,沙河口,20190614,38.94049893962156,121.57316620632874,帝欧花园,30,17658,大连绿波建设发展有限公司,0.6,辽宁,9,二手房,2005
莲花山路89-3号,大连,大连胜利路拓宽改造工程建设有限公司,沙河口,20190614,38.902848261803356,121.6041720815823,星海融汇,111,21588,大连星海湾商务区物业管理有限公司,1.5,辽宁,9,二手房,2014
金州区金湾路132-2号,大连,大连金新房地产开发有限公司,金州,20190614,39.10269111644727,121.72221060686516,金州福佳新天地广场,109,8386,大连福佳物业管理有限公司,1.8,辽宁,9,二手房,2011
甘井子区新兴路36号3-1-3,大连,大连新型房地产开发有限公司,甘井子,20190614,38.95800216293212,121.53151895549547,泡崖一区,107,10693,大连新兴物业管理有限公司,0.5,辽宁,9,二手房,1992
沙河口区兰田街33号,大连,无开发商,沙河口,20190614,38.926138912221084,121.56486022834609,辽师,46,12217,无物业管理服务,-,辽宁,9,二手房,1970
开发区鹏程家园66#-6、66#-7公建,大连,大连海富花园开发有限公司,开发区,20190614,37.92440451755906,112.59861436589645,海富经典,124,10078,大连银帆物业管理有限公司,1.2,辽宁,9,二手房,2009
甘井子区泉水K2区1号-7,大连,大连新型房地产开发有限公司,甘井子,20190614,39.01148211821007,121.63131997900962,龙畔金泉五期K4区,132,12540,大连新兴物业管理有限公司,0.5,辽宁,9,二手房,2008
甘井子区泉水H3区15号3单元1层2号,大连,大连新型房地产开发有限公司,甘井子,20190614,39.00158439075201,121.62616882572375,龙畔金泉二期,92,12902,大连新型物业管理有限公司,0.5,辽宁,9,二手房,2004
大连市甘井子区辛如街35号1单元1层1号,大连,大连新星房地产开发有限公司,甘井子,20190614,38.96862607066881,121.52294869064194,新星绿城五期,69,14004,大连生生物业有限公司,0.8,辽宁,9,二手房,2009
无门店信息,大连,大连聚达房地产开发有限公司,旅顺口,20190614,34.52713835999158,118.76812980670795,海尚明珠,162,9831,大连合生物业管理有限公司,1.5,辽宁,9,二手房,2012
沙河口区锦霞南园13号4单元1层3号,大连,大连锦绣房地产开发有限公司,沙河口,20190614,38.947634390493555,121.5510543155904,锦华中园,55,12261,大连锦绣物业管理有限公司,0.5,辽宁,9,二手房,2001
无门店信息,大连,大连万科房地产开发有限公司,旅顺口,20190614,34.52713835999158,118.76812980670795,万科樱花园三期,36,12874,大连万科物业服务有限公司,2.4,辽宁,9,二手房,2014
金州区金润花园B区47号1单元1层1号2号,大连,暂无信息,金州,20190614,39.10434716151341,121.74517862677146,民馨小区,77,7156,无物业管理服务,0.3,辽宁,9,二手房,2008
沙河口区西南路161号,大连,无开发商,沙河口,20190614,38.89269676588945,121.56639953951542,孙家沟,84,12329,无物业管理服务,-,辽宁,9,二手房,1990
甘井子区锦城西园4#3-1-1,大连,大连锦绣房地产开发有限公司,沙河口,20190614,38.95286223185571,121.55129044777,锦霞北园,105,11785,大连锦绣物业管理有限公司,0.3,辽宁,9,二手房,1998
甘井子区美域盛景A2区10-6,大连,大连泉水园房屋开发有限公司,甘井子,20190614,39.006221362805846,121.61022278003976,骏腾名苑,70,13962,大连衡德物业管理有限公司,0.5,辽宁,9,二手房,2006
大连市甘井子区泉水R2区33-4号第8幢1单元1跃2层9号,大连,大连天意房地产开发有限公司,甘井子,20190614,39.00961080610692,121.63892035059047,金地檀溪,91,17684,大连金地物业管理有限公司,2.6,辽宁,9,二手房,2014
金州新区先进街道五一路350-1号1-2层,大连,暂无信息,金州,20190614,39.078667146419825,121.77094423323935,聚鑫小区三期,63,7058,大连新生活物业管理有限公司,0.5,辽宁,8,二手房,2008
大连市甘井子区丰收路3-5号,大连,无开发商,甘井子,20190614,38.965377255081755,121.58288415324094,王家桥,71,15672,大连铁路物业管理有限公司,0.1,辽宁,8,二手房,1989
开发区润海园中区65-7号1-2号,大连,华润（大连）房地产有限公司,开发区,20190614,39.04047273176333,121.76392358042445,华润海中国五期,105,14592,华润物业（大连）有限公司,3.1,辽宁,8,二手房,2015
甘井子区促进路30号2-1-1,大连,福佳集团有限公司,甘井子,20190614,38.954133128707575,121.58355746311207,府佳名都,49,18138,大连富佳物业管理有限公司,0.5,辽宁,8,二手房,2002
甘井子区祥龙街2号楼1单元1楼1号,大连,大连美辰房地产开发有限公司,甘井子,20190614,38.988045874482445,121.60439401971377,美辰香醒,49,15565,大连众和物业管理有限公司,1.4,辽宁,8,二手房,2012
沙河口区星海广场B3区20—3号,大连,大连亿达房地产股份有限公司,沙河口,20190614,38.88782715536473,121.5869168319735,亿达杰特,123,19776,亿达物业管理有限公司,3.8,辽宁,8,二手房,2005
沙河口区西南路643号,大连,无开发商,沙河口,20190614,38.943483429804665,121.5833555851182,西关街,41,11228,无物业管理服务,-,辽宁,8,二手房,1995
开发区红梅小区19栋-2-1-1号,大连,无开发商,开发区,20190614,29.906498897603264,121.5913630631805,古耕国际酒店公寓,68,10800,街道办事处（居委会）代管物业,3,辽宁,8,二手房,2010
大连市经济技术开发区东城园98-14,大连,大连金湾实业有限公司,开发区,20190614,39.06925526014871,121.8505146710752,裕民新苑,51,8367,大连金湾物业管理有限公司,0.3,辽宁,8,二手房,2006
大连市甘井子区钻石湾和信园13-5,大连,远洋地产有限公司,甘井子,20190614,38.958699272665584,121.61903564217761,远洋钻石湾三期,69,21109,远洋亿家物业服务股份有限公司大连分公司,1.5,辽宁,8,二手房,2014
甘井子辛吉街150号-7号,大连,大连新星房地产开发有限公司,甘井子,20190614,38.96368508446978,121.52671221254214,新星帕尔美娜,44,15915,大连生生物业有限公司,1,辽宁,8,二手房,2009
甘井子区红旗西路104-7,大连,大连盛达基业房地产开发有限公司,甘井子,20190614,38.940335495502666,121.52722586363274,依山云水,23,14555,大连盛新物业管理有限公司,0.4,辽宁,8,二手房,2004
无门店信息,大连,大连乾豪集团有限公司,开发区,20190614,34.52713835999158,118.76812980670795,格林小镇,185,8134,沈阳瑞码阁物业管理有限公司大连分公司,0.6,辽宁,8,二手房,2002
无门店信息,大连,无开发商,甘井子,20190614,34.52713835999158,118.76812980670795,五二三厂,45,8437,无物业管理服务,0.5,辽宁,8,二手房,1950
沙河口区西南路643号,大连,大连泰安房地产开发有限公司,沙河口,20190614,38.943483429804665,121.5833555851182,幸福小区(沙河口),27,12494,大连三宝物业发展有限公司,0.3,辽宁,8,二手房,1998
经济技术开发区城润万家4-5号公建,大连,大连山河永好置业有限公司,开发区,20190614,39.05716325096989,121.75946281983826,山河秀景,56,10016,大连山河物业管理有限公司,1.5,辽宁,8,二手房,2010
中山区民运巷 47号1层2号,大连,无开发商,中山,20190614,38.905955122300846,121.64798148011702,民运巷,16,11081,无物业管理服务,-,辽宁,8,二手房,1996
甘井子区华龙南园12-4-3-1-3,大连,大连长鹭房屋开发有限公司,甘井子,20190614,38.98528794231248,121.61028969481718,晶品枫林,48,13577,北京房修一物业管理有限公司,0.5,辽宁,8,二手房,2008
开发区小孤山西里3栋-11号,大连,大连九龙汇房地产开发有限公司,开发区,20190614,39.02715282297674,121.80682183666346,九龙汇,54,8910,大连宏亮红物业管理有限公司,1.9,辽宁,8,二手房,2009
高新园区硅谷假日小区25号楼地下室,大连,大连志恒房地产开发有限公司,高新园区,20190614,38.86467854992112,121.53720784613759,菁英汇,55,15524,大连海创物业管理有限公司,1.2,辽宁,8,二手房,2007
沙河口区富国街34-3,大连,大连万达房地产开发有限公司,沙河口,20190614,38.90159716600704,121.58930603357904,星海人家,68,27323,大连万景物业管理有限公司,1.2,辽宁,7,二手房,2001
沙河口区华新苑10号楼4号公建,大连,大连祥盛房屋开发有限公司,沙河口,20190614,38.94033750532864,121.58990295130229,香洲心城,27,18770,大连百特物业管理有限公司,1,辽宁,7,二手房,2011
中山区东港龙湖水晶郦湾7-102,大连,大连保利东港房地产开发有限公司,中山,20190614,38.924700620463895,121.70344398518496,保利天禧,56,24933,保利物业服务有限公司,4.8,辽宁,7,二手房,2017
沙河口区富民路120号4-1-1,大连,大连银地置业发展有限公司,沙河口,20190614,38.930937859528605,121.5647274237578,观山蝶恋花,41,14867,大连新展物业管理有限公司,1,辽宁,7,二手房,2011
开发区红梅小区19栋-2-1-1号,大连,开发区城建局,开发区,20190614,29.906498897603264,121.5913630631805,红梅小区,44,12683,街道办事处（居委会）代管物业,0.3,辽宁,7,二手房,1995
沙河口区前程街46号4—1—2号,大连,大连渤海红旗集团有限公司,甘井子,20190614,38.913544290955585,121.59450670056631,兰丰巷,20,10791,大连辽南物业管理有限公司,0.2,辽宁,7,二手房,1992
甘井子区惠泽南园3-4号,大连,大连鹏德房屋开发有限公司,甘井子,20190614,38.939326611323615,121.52337842113351,西山逸林,36,15084,大连三和住邦物业管理有限公司,1.3,辽宁,7,二手房,2009
中山区清溪南街11号,大连,无开发商,中山,20190614,38.88919604283904,121.66466481004835,桃仙小区,22,13333,街道办事处（居委会）代管物业,0.5,辽宁,7,二手房,1992
西岗区长红街4号1号公建,大连,无开发商,西岗,20190614,38.91377414665191,121.6302525225721,34中林荫巷,12,26101,无物业管理服务,-,辽宁,7,二手房,1997
中山区共建巷61号,大连,无开发商,中山,20190614,38.91828093658718,121.66259221532148,39中共建巷,25,26628,街道办事处（居委会）代管物业,0.5,辽宁,7,二手房,1990
甘井子区红旗中路143号1层4号,大连,大连保利红旗房地产开发有限公司,甘井子,20190614,38.93169566676921,121.5426632438217,保利西山林语,79,20566,保利物业服务有限公司,1.5,辽宁,8,二手房,2014
甘井子区山东路315号14栋1单元1跃2层13号,大连,华润置地（大连）开发有限公司,甘井子,20190614,39.00206212579579,121.59357231641214,华润置地广场一期,51,19886,华润物业（大连）有限公司,2.8,辽宁,8,二手房,2013
开发区黄海西路54号,大连,大连凯伦房地产开发股份有限公司,开发区,20190614,39.047714586087785,121.76688238228269,凯伦凯悦,100,8722,大连凯悦物业管理有限公司,3.1,辽宁,8,二手房,2008
开发区黄海西路54号,大连,开发区城建局,开发区,20190614,39.047714586087785,121.76688238228269,青松南里,88,8021,大连经济技术开发区中强物业管理有限公司,0.5,辽宁,8,二手房,2003
高新园区火炬路18号,大连,大连海脉房地产开发有限公司,高新园区,20190614,38.937738080520404,117.39340752036043,MINI印象,137,15151,大连豪斯威物业管理有限公司,2.2,辽宁,8,二手房,2012
甘井子区虹城路503号1-1号,大连,大连易和房地产集团有限公司,甘井子,20190614,38.981193588625004,121.49964051837122,岭秀滨城悦和东园,71,15331,大连易兴物业服务有限公司,1.3,辽宁,8,二手房,2010
沙河口区五一路326号,大连,大连亿达房地产股份有限公司,高新园区,20190614,38.913544290955585,121.59450670056631,亿达学清园,26,22982,大连软件园物业管理有限公司,0.5,辽宁,8,二手房,2001
金州区先进街道陶然居公建2-2号1层,大连,大连金信集团房地产有限公司,金州,20190614,39.08283372756215,121.76170982507143,桃园小区,208,6906,街道办事处（居委会）代管物业,3,辽宁,8,二手房,1992
西岗区九三街64号,大连,润德集团有限公司,西岗,20190614,38.92047268927287,121.61862512554262,润德广场,61,15357,大连润德物业管理有限公司,3.8,辽宁,7,二手房,2011
金州区小平岛B组团4号楼3号商铺,大连,大连圣岛房地产开发有限公司,高新园区,20190614,39.05643299166072,121.78943558267059,小平岛海悦山,71,20166,大连凯尔富物业管理有限公司,1.3,辽宁,7,二手房,2011
开发区大开高吉里33栋6号,大连,无开发商,开发区,20190614,39.07355836059941,121.8280439450145,高泰里,15,6227,无物业管理服务,-,辽宁,6,二手房,1998
甘井子区促进路30号2-1-1,大连,大连谷和房屋开发有限公司,甘井子,20190614,38.954133128707575,121.58355746311207,谷和温馨苑,26,17650,大连谷和物业管理有限公司,0.6,辽宁,6,二手房,2002
金州新区先进街道五一路350-1号1-2层,大连,大连市金州区育才房地产开发有限公司,金州,20190614,39.078667146419825,121.77094423323935,康居小区,56,7647,街道办事处（居委会）代管物业,-,辽宁,6,二手房,1998
中山区东港龙湖水晶郦湾7-102,大连,大连龙湖东港房地产有限公司,中山,20190614,38.924700620463895,121.70344398518496,龙湖水晶郦湾,73,28174,大连龙湖物业服务有限公司,4.5,辽宁,7,二手房,2015
甘井子区红南东街7-7号,大连,大连大实企业集团房屋开发有限公司,甘井子,20190614,38.92880462247992,121.54144910207062,泊林和山,33,11487,大连弘实物业管理有限公司,0.6,辽宁,6,二手房,2007
无门店信息,大连,大连亿达房地产股份有限公司,高新园区,20190614,34.52713835999158,118.76812980670795,亿达悦龙居,15,14509,亿达物业管理有限公司,2.8,辽宁,6,二手房,2015
无门店信息,大连,无开发商,金州,20190614,34.52713835999158,118.76812980670795,滨海丰园,117,8242,街道办事处（居委会）代管物业,0.5,辽宁,7,二手房,2011
开发区兴城路29-81层,大连,大连兆佳房地产开发有限公司,开发区,20190614,39.050214252167194,121.75835946441768,自由向,58,14424,大连华安物业管理有限公司,2.4,辽宁,7,二手房,2008
开发区润海园中区18#2号,大连,大连布鲁科房地产开发有限公司,开发区,20190614,39.04047273176333,121.76392358042445,热岛黄金海岸,186,11120,大连戴德梁行物业管理有限公司,1.6,辽宁,7,二手房,2010
大连市金州新区中长街道碧海尚城5-4号1-2层,大连,无开发商,金州,20190614,39.100290954587514,121.7304796052032,碧海尚城,128,8256,街道办事处（居委会）代管物业,0.8,辽宁,7,二手房,2007
西岗区黄河路90号公建部分,大连,暂无信息,西岗,20190614,38.92234529815978,121.62829331825485,实验小学市场街,61,22443,无物业管理服务,-,辽宁,7,二手房,1990
金州区先进街道陶然居公建2-2号1层,大连,大连金信集团房地产有限公司,金州,20190614,39.08283372756215,121.76170982507143,金信陶然居,76,9454,北京瑞思特物业管理有限公司,0.5,辽宁,7,二手房,2007
金州区先进街道渤海街1-4号1-2层,大连,无开发商,金州,20190614,39.09512910553563,121.74578812616167,金元小区,64,7095,街道办事处（居委会）代管物业,0.1,辽宁,7,二手房,1993
中山区爱华街13号,大连,大连一方地产有限公司,中山,20190614,38.92541607518685,121.6535728031028,大连国际酒店,22,23041,大连一方物业管理有限公司,3.0,辽宁,7,二手房,2006
甘井子区甘井子街3号公建,大连,无开发商,甘井子,20190614,38.982086281836246,121.63426694995971,北山小区,24,8869,无物业管理服务,0.2,辽宁,7,二手房,1988
大连市甘井子区泉水N2区3-13号,大连,大连金广地产集团有限公司,甘井子,20190614,39.021116079001885,121.64659997607325,泉水N3区,87,10743,无物业管理服务,0.7,辽宁,7,二手房,2000
金州新区先进街道五一路350-1号1-2层,大连,大连中连房地产开发有限公司,金州,20190614,39.078667146419825,121.77094423323935,聚鑫小区二期,31,7866,大连新生活物业管理有限公司,0.5,辽宁,7,二手房,2008
红星海A区126-4,大连,远洋地产有限公司,开发区,20190614,39.027851194371685,121.80327394132297,红星海一期城市别馆,108,13753,大连远洋基业物业管理有限公司,2,辽宁,7,二手房,2010
无门店信息,大连,大连海脉房地产开发有限公司,金州,20190614,34.52713835999158,118.76812980670795,海脉未来城,28,8179,大连豪斯威物业管理有限公司,1,辽宁,7,二手房,2013
高新园区书香街1A#1-1-2,大连,大连金弘基房地产开发有限公司,高新园区,20190614,38.880372108393104,121.55218773010999,弘基三期,54,20271,大连金弘基物业管理有限公司,0.5,辽宁,7,二手房,2005
无门店信息,大连,大连馨悦房地产开发有限公司,金州,20190614,34.52713835999158,118.76812980670795,悦泰山里,86,10417,大连百安物业管理有限公司,0.5,辽宁,7,二手房,2009
沙河口区西南路161号,大连,无开发商,沙河口,20190614,38.89269676588945,121.56639953951542,大医物业,6,13544,街道办事处（居委会）代管物业,0.5,辽宁,6,二手房,1990
甘井子区玉丽街39号楼3号公建,大连,大连新型房地产开发有限公司,甘井子,20190614,38.98706755029984,121.55605471197089,玉浓街,47,10504,大连新兴物业管理有限公司,0.2,辽宁,6,二手房,2002
金州区站前街道盛滨花园B区13号楼2号公建,大连,大连和嘉房地产开发有限公司,金州,20190614,39.09609011892329,121.7335816409767,和嘉佳园,80,6950,街道办事处（居委会）代管物业,0.5,辽宁,6,二手房,2009
甘井子区祥龙街2号楼1单元1楼1号,大连,大连市大钢集团,甘井子,20190614,38.988045874482445,121.60439401971377,华南沃尔玛六一路,26,11691,街道办事处（居委会）代管物业,0.5,辽宁,6,二手房,1990
无门店信息,大连,大连中海新城置业有限公司,甘井子,20190614,34.52713835999158,118.76812980670795,中海凤凰熙岸,67,13817,大连中海物业管理有限公司,2.3,辽宁,6,二手房,2016
沙河口区黄浦路18号—5号公建,大连,大连良运房地产开发有限公司,高新园区,20190614,38.8771225143479,121.54427480390662,翰林观海公寓,23,18255,大连良运物业管理有限公司,0.8,辽宁,6,二手房,2003
大连市甘井子区融田西园52-11,大连,大连圣安房地产开发有限公司,甘井子,20190614,38.95800216293212,121.53151895549547,亿达春田晴湾,70,17119,亿达物业管理有限公司,2.2,辽宁,6,二手房,2013
沙河口区红旗东路18-22号2单元1楼3号,大连,无开发商,甘井子,20190614,38.913544290955585,121.59450670056631,天泉山庄,16,12713,大连铁龙安居物业管理有限公司,0.5,辽宁,6,二手房,2000
甘井子区玉丽街2号楼1单元4号公建,大连,大连新型房地产开发有限公司,甘井子,20190614,38.98705071699301,121.55513043130172,泡崖康居园,49,10479,大连新兴物业管理有限公司,0.5,辽宁,6,二手房,2000
沙河口区恒利园42号-8,大连,大连新型房地产开发有限公司,沙河口,20190614,38.93357562498634,121.57914091532649,中铁十三局,15,13117,大连新兴物业管理有限公司,0.3,辽宁,6,二手房,1993
无门店信息,大连,大连宏港房地产开发有限公司,开发区,20190614,34.52713835999158,118.76812980670795,港湾观海,73,8750,大连宏港物业管理有限公司,0.5,辽宁,6,二手房,2013
甘井子区玉云路27-3-1-3,大连,大连新型房地产开发有限公司,甘井子,20190614,38.97896234099927,121.55865563488358,泡崖三区,74,11011,大连新兴物业管理有限公司,0.5,辽宁,6,二手房,1995
甘井子区西南路979-7号公建,大连,暂无信息,甘井子,20190614,38.96275592929325,121.5958698791777,八十中红咀街,137,15657,街道办事处（居委会）代管物业,0.2,辽宁,6,二手房,1988
无门店信息,大连,大连鹏玥房地产开发有限公司,开发区,20190614,34.52713835999158,118.76812980670795,中环城市广场,26,9177,大连鹏玥物业公司,1.5,辽宁,6,二手房,2015
中山区高尚路28-1号,大连,无开发商,中山,20190614,38.892673425111305,121.67148833870213,高洁巷,32,11127,街道办事处（居委会）代管物业,0.5,辽宁,6,二手房,1993
中山区杏林街66—5号,大连,嘉和房地产集团有限公司,中山,20190614,38.92572771377599,121.66490555592502,嘉和花样年华三期,50,24046,大连嘉和物业管理有限公司,3.5,辽宁,6,二手房,2007
高新园区硅谷假日小区25号楼地下室,大连,大连鑫亿房屋开发有限公司,高新园区,20190614,38.86467854992112,121.53720784613759,硅谷假日,56,19918,大连斌弘物业管理有限公司,0.8,辽宁,6,二手房,2005
甘井子区西南路979-7号公建,大连,大连祥盛房屋开发有限公司,甘井子,20190614,38.96275592929325,121.5958698791777,金盛家园,48,17137,大连宏华物业管理有限公司,0.5,辽宁,6,二手房,2001
开发区正恒园1-16,大连,暂无信息,开发区,20190614,39.04823944344617,121.76165468797754,正泰园B区,35,11860,无物业管理服务,-,辽宁,6,二手房,2000
中山区碧浪园4号-3号,大连,大连万达房地产开发有限公司,中山,20190614,38.89147289460474,121.69329560326236,虎滩路,46,12972,大连虎滩置业物业管理有限公司,0.2,辽宁,6,二手房,1995
大连市甘井子区宜居园10-1号房屋,大连,大连万科置业有限公司,甘井子,20190614,38.99913094587405,121.52084969112292,万科现在城,21,15061,大连万科物业服务有限公司,2.2,辽宁,6,二手房,2015
大连市甘井子区泉水N2区3-13号,大连,暂无信息,甘井子,20190614,39.021116079001885,121.64659997607325,泉水N2区,50,10870,无物业管理服务,0.7,辽宁,6,二手房,2009
沙河口区新生路万客园3-7,大连,大连万科锦绣花城开发有限公司,沙河口,20190614,38.94412875710208,121.57006756704837,万科城市花园,49,20419,大连万科物业服务有限公司,1.5,辽宁,6,二手房,2005
开发区鹏程家园66#-6、66#-7公建,大连,大连新天润企业集团有限公司,开发区,20190614,37.92440451755906,112.59861436589645,水御兰庭,35,9781,大连港力物业管理有限公司,1.1,辽宁,6,二手房,2007
沙河口区黄河路562号,大连,大连新型房地产开发有限公司,沙河口,20190614,38.9167961764482,121.60352063132478,79中科学家公寓,45,21076,大连新兴物业管理有限公司,0.8,辽宁,6,二手房,1995
沙河口区红旗东路18-22号2单元1楼3号,大连,大连益嘉房屋开发有限公司,沙河口,20190614,38.913544290955585,121.59450670056631,益嘉广场,49,17023,大连益嘉物业管理有限公司,1.8,辽宁,6,二手房,2012
甘井子区山东路315号14栋1单元1跃2层13号,大连,华润置地（大连）有限公司,甘井子,20190614,39.00206212579579,121.59357231641214,华润置地广场二期,46,20315,华润物业（大连）有限公司,2.9,辽宁,6,二手房,2013
开发区杏树里10栋-14,大连,大连名城房地产开发有限公司,开发区,20190614,39.08113818354046,121.78505742127606,名城和顺人家,84,9308,大连君悦天下物业管理中心,0.5,辽宁,6,二手房,2010
甘井子区山东路398号,大连,大连盛铭资产管理有限公司,甘井子,20190614,38.99821826443242,121.59274974973462,亿合城,74,18504,大连盛安物业管理有限公司,1.5,辽宁,6,二手房,2013
西岗区平等街21号1层2号,大连,无开发商,西岗,20190614,38.92251066253164,121.63236845125735,香榭里,52,10280,大连金地物业管理有限公司,3.6,辽宁,6,二手房,2010
甘井子区圣林南园3-3号,大连,大连广泰房屋开发有限公司,甘井子,20190614,38.95191781681833,121.54394961192217,美树日记,79,22490,大连华安物业管理有限公司,1.6,辽宁,6,二手房,2009
金州区南棉路310号,大连,大连金连房地产开发有限公司,金州,20190614,39.09939229372624,121.72414976100345,金连福地,29,8141,街道办事处（居委会）代管物业,0.5,辽宁,6,二手房,2010
甘井子区泉水D1区10-2#1-1-7,大连,大连运达房地产集团有限公司,甘井子,20190614,39.01504676175047,121.61751269364314,锦泉源B4区,63,11256,大连佳泰物业管理有限公司,0.5,辽宁,6,二手房,2002
金州区小平岛B组团4号楼3号商铺,大连,大连圣岛房地产开发有限公司,高新园区,20190614,39.05643299166072,121.78943558267059,小平岛海角七号,47,21435,大连凯尔富物业管理有限公司,1.7,辽宁,6,二手房,2011
甘井子区山东路137号,大连,大连华南房地产开发有限公司,甘井子,20190614,38.99129404608926,121.59172125999353,名贵山庄青年公寓,5,14997,大连弘益达物业管理有限公司,0.5,辽宁,6,二手房,2004
甘井子区芳韵街31号,大连,大连亿达房地产股份有限公司,甘井子,20190614,38.95628814568166,121.59125586946814,唯美品格,97,30094,亿达物业管理有限公司,1.5,辽宁,6,二手房,2009
甘井子区汇仁街22号,大连,中铁建（大连）置业有限公司,甘井子,20190614,38.99712640764999,121.58834420439493,动力院景三期汇善园,47,15398,大连铁龙安居物业管理有限公司,0.9,辽宁,6,二手房,2007
开发区安盛里5栋-4,大连,大连华宇房地产开发有限公司,开发区,20190614,23.112106678834838,113.27801046214822,叠翠花香,32,9468,大连经济技术开发区永嘉物业管理有限公司,0.5,辽宁,6,二手房,2000
甘井子区华龙南园12-4-3-1-3,大连,大连鹏德房屋开发有限公司,甘井子,20190614,38.98528794231248,121.61028969481718,乐活源,66,12952,大连三和住邦物业管理有限公司,0.5,辽宁,6,二手房,2009
高新园区海苑街30号1单元1号公建,大连,大连大有房屋开发有限公司,高新园区,20190614,20.06392317589085,110.32302599457326,大有恬园二期,40,17496,大连家园物业有限公司,1.2,辽宁,6,二手房,2010
沙河口区恒利园42号-8,大连,大连天河房地产开发集团有限公司,沙河口,20190614,38.93357562498634,121.57914091532649,天河新苑,41,13071,大连天河物业管理有限公司,0.4,辽宁,6,二手房,2000
大连市金州新区友谊街道和平路59-10号1-2层公建,大连,无开发商,金州,20190614,39.112168401852266,121.72006917947859,和平小区,23,8162,街道办事处（居委会）代管物业,0.1,辽宁,5,二手房,1996
开发区金源南里14栋-11号一层部分，14号-12号一层部分,大连,无开发商,开发区,20190614,39.06148862675436,121.82503941311765,金源南里,83,8865,嘉兴物业管理有限公司,0.3,辽宁,6,二手房,2001
甘井子区甘井子街3号公建,大连,无开发商,甘井子,20190614,38.982086281836246,121.63426694995971,甘泉小区,18,11713,街道办事处（居委会）代管物业,0.5,辽宁,5,二手房,2000
甘井子区红旗中路143号1层4号,大连,大连红旗兴达房地产开发有限公司,甘井子,20190614,38.93169566676921,121.5426632438217,兴达依山居,36,14013,大连金诚物业管理有限公司,0.3,辽宁,5,二手房,2004
高新园区海苑街36号1单元2号公建,大连,大连大有房屋开发有限公司,高新园区,20190614,20.06392317589085,110.32302599457326,大有恬园,44,17874,大连家园物业有限公司,0.5,辽宁,5,二手房,2003
无门店信息,大连,大连长鹭房屋开发有限公司,甘井子,20190614,34.52713835999158,118.76812980670795,晶品森岚,12,15948,大连旺宇物业有限公司,1.3,辽宁,5,二手房,2009
中山区碧浪园4号-3号,大连,无开发商,中山,20190614,38.89147289460474,121.69329560326236,碧海园,22,17875,大连远洋基业物业管理有限公司,0.5,辽宁,5,二手房,2000
大连市甘井子区丰收路3-5号,大连,大连万鼎置业有限公司,甘井子,20190614,38.965377255081755,121.58288415324094,万科蓝山,27,26032,大连万科物业服务有限公司,2.9,辽宁,5,二手房,2015
高新园区海苑街36号1单元2号公建,大连,大连金华兴房地产开发有限公司,高新园区,20190614,20.06392317589085,110.32302599457326,华兴山庄,14,15622,大连华兴物业管理有限公司,0.5,辽宁,5,二手房,2004
甘井子区祥龙街2号楼1单元1楼1号,大连,大连世隆房地产开发有限公司,甘井子,20190614,38.988045874482445,121.60439401971377,玉树临居,15,13833,北京房修一物业管理有限公司,1.3,辽宁,5,二手房,2009
金州区胜利西小区44号楼,大连,大连金宸集团,金州,20190614,39.10507689383061,121.71536524220103,连大文润金宸一二期,49,10758,大连四通物业管理有限公司,0.9,辽宁,5,二手房,2010
沙河口区黑石礁街5号1层1号,大连,无开发商,沙河口,20190614,38.879813345473714,121.56313742300513,黑石礁,10,12014,无物业管理服务,-,辽宁,5,二手房,1990
大连市甘井子区椒房街24号楼2-104链家地产,大连,中铁建（大连）置业有限公司,甘井子,20190614,38.985363789837166,121.61034055597686,青秀蓝湾一期,30,20130,中国铁建地产集团物业公司,1.5,辽宁,5,二手房,2016
开发区高新里6栋-8,大连,无开发商,开发区,20190614,39.0710895068195,121.82860134358343,高民里,69,6767,街道办事处（居委会）代管物业,0.2,辽宁,5,二手房,1996
沙河口区黄河路883号,大连,无开发商,沙河口,20190614,38.919826721475204,121.57749657966676,沙区医院,28,13135,无物业管理服务,-,辽宁,5,二手房,1990
中山区杏林街66—5号,大连,大连开建集团有限公司,中山,20190614,38.92572771377599,121.66490555592502,花香维也纳,49,23325,大连开利物业管理有限公司,0.5,辽宁,5,二手房,2003
西岗区长春路334号,大连,大连新型房地产开发总公司,西岗,20190614,38.89807766522607,121.63221082858387,林茂小区,37,10332,大连新型物业管理有限公司,0.2,辽宁,5,二手房,1995
甘井子区华北路花锦园28号23-3-1-2建筑物,大连,大连市中联房地产开发有限公司,甘井子,20190614,38.951627958411166,121.5739439799003,香周路（甘）,22,17072,街道办事处（居委会）代管物业,0.1,辽宁,5,二手房,1987
甘井子区促进路200号,大连,大连航宇房屋开发有限公司,甘井子,20190614,38.95810188892782,121.58530036264898,促进小区,28,12160,大连顺达物业服务有限公司,0.2,辽宁,5,二手房,1997
甘井子区新兴路36号3-1-3,大连,大连新型房地产开发有限公司,甘井子,20190614,38.95800216293212,121.53151895549547,泡崖二区,95,10588,大连新兴物业管理有限公司,0.5,辽宁,5,二手房,1997
甘井子区汇达园26号,大连,北亚实业集团股份有限公司大连开发区分公司,甘井子,20190614,38.99704654604941,121.59758808878767,北府花园,77,17072,大连优豪斯物业管理有限公司,0.5,辽宁,5,二手房,2006
无门店信息,大连,大连唐银盛兴置业有限公司,开发区,20190614,34.52713835999158,118.76812980670795,钻石9座,43,10045,大连佳家物业管理有限公司,1.5,辽宁,5,二手房,2014
沙河口区五一路270-274号,大连,无开发商,高新园区,20190614,38.913544290955585,121.59450670056631,由家村,29,12755,无物业管理服务,-,辽宁,5,二手房,1990
西岗区香炉礁24号1-1,大连,大连新型房地产开发有限公司,西岗,20190614,38.92047268927287,121.61862512554262,金海花园西园,46,12034,无物业管理服务,0.5,辽宁,5,二手房,2001
无门店信息,大连,开发区城建局,开发区,20190614,34.52713835999158,118.76812980670795,东居里,131,7018,大连经济技术开发区海青物业有限公司,0.2,辽宁,5,二手房,1996
无门店信息,大连,大华集团大连置业有限公司,高新园区,20190614,34.52713835999158,118.76812980670795,大华锦绣华城四期,41,22583,大连大华物业管理有限公司,2.5,辽宁,5,二手房,2015
甘井子区金家街17-7号,大连,大连嘉兴房地产开发有限公司,甘井子,20190614,38.97493697764367,121.60110987128529,青林美地,39,21153,大连嘉盛物业管理有限公司,0.5,辽宁,5,二手房,2003
甘井子区辛寨子街道中冶蓝城辛虹园39-7号公建,大连,大连中冶京诚置业有限公司,甘井子,20190614,38.98155611421408,121.49259383356096,中冶蓝城E区,40,14973,大连添翼物业服务有限公司,2,辽宁,5,二手房,2010
甘井子区玉湖街18号1单元1-1,大连,大连新型房地产开发有限公司,甘井子,20190614,38.97554522550266,121.54552721066896,书香府第二期,23,11339,大连新型物业管理有限公司,0.5,辽宁,5,二手房,2002
金州区金湾路132-2号,大连,无开发商,金州,20190614,39.10269111644727,121.72221060686516,胜利西小区,103,7586,街道办事处（居委会）代管物业,0.5,辽宁,5,二手房,1992
沙河口区黑石礁街5号1层1号,大连,无开发商,沙河口,20190614,38.879813345473714,121.56313742300513,黑石礁广场,26,13546,无物业管理服务,-,辽宁,5,二手房,1992
甘井子区汇仁街22号,大连,大连永高房屋开发有限公司,甘井子,20190614,38.99712640764999,121.58834420439493,加州洋房,79,14932,大连怡和物业服务有限公司,0.9,辽宁,5,二手房,2008
开发区鹏程家园66#-6、66#-7公建,大连,大连神洲众益集团有限公司,开发区,20190614,37.92440451755906,112.59861436589645,众益阳光海岸,95,10575,大连万佳物业管理有限公司,1.2,辽宁,5,二手房,2005
沙河口区兰田街33号,大连,无开发商,沙河口,20190614,38.926138912221084,121.56486022834609,兰玉街,24,11910,街道办事处（居委会）代管物业,0.4,辽宁,5,二手房,1990
甘井子区红旗西路104-7,大连,大连盛华房地产开发有限公司,甘井子,20190614,38.940335495502666,121.52722586363274,水映西山,55,15943,大连长青物业管理中心,0.9,辽宁,5,二手房,2007
甘井子区泉水B2区19-1号,大连,大连运达房地产集团有限公司,甘井子,20190614,39.0101309886317,121.60812584213187,锦泉源B1区,62,13480,大连佳泰物业管理有限公司,0.5,辽宁,5,二手房,2001
甘井子区泉水H1区54号3单元1层1号,大连,暂无信息,甘井子,20190614,39.0074937564393,121.62382856020916,龙畔金泉五期K1区,33,13476,大连新兴物业管理有限公司,0.5,辽宁,5,二手房,2008
沙河口区红凌路137号,大连,大连大实企业集团房屋开发有限公司,甘井子,20190614,38.922699288974506,121.54713601744747,泊林映山,33,12500,大连弘实物业管理有限公司,1.2,辽宁,5,二手房,2011
沙河口区绿清街12号,大连,大连中海新城置业有限公司,沙河口,20190614,38.93851335419565,121.57334844377094,中海英伦观邸,56,22665,大连中海物业管理有限公司,1.8,辽宁,5,二手房,2009
中山区中青街87号一单元107,大连,大连亿达房地产股份有限公司,中山,20190614,38.90213494248529,121.65806522267005,青云林海,48,21472,亿达物业管理有限公司,1,辽宁,5,二手房,2001
开发区杏树里10栋-14,大连,无开发商,开发区,20190614,39.08113818354046,121.78505742127606,松苑山庄,79,5933,大连市金州区先进物业管理中心,0.5,辽宁,5,二手房,1999
"西岗区泰公街20号2层7号 西岗区久寿街22号1层14号""",大连,无开发商,西岗,20190614,38.92600196862723,121.62141976476381,北京街南,55,14219,大连长青物业管理中心,0.2,辽宁,5,二手房,1975
高新园区黄浦路600-602号,大连,大连鑫亿房屋开发有限公司,高新园区,20190614,38.86342472318123,121.53493189660259,新科花园,36,18283,大连鑫晟物业管理有限公司,0.6,辽宁,5,二手房,2003
"西岗区泰公街20号2层7号 西岗区久寿街22号1层14号""",大连,大连润德君城房地产开发有限公司,西岗,20190614,38.92600196862723,121.62141976476381,北京公园,42,24158,大连润德物业管理有限公司,2.2,辽宁,5,二手房,2010
甘井子金地艺境博艺西园2-1号,大连,大连天意房地产开发有限公司,甘井子,20190614,39.04402110608829,121.665484498555,金地艺境,148,14948,大连金地物业管理有限公司,0.5,辽宁,5,二手房,2011
金州区光明街道育才街42-6号1-2层,大连,大连市金州区育才房地产开发有限公司,金州,20190614,39.109080894078986,121.7182584929096,职高小区,46,8615,大连金州育才物业管理有限公司,0.5,辽宁,5,二手房,1996
金州区同济路44号,大连,大连峰景房地产开发有限公司,金州,20190614,39.10476859984152,121.71234684495865,峰景西海岸,53,9020,大连峰景物业有限公司,0.8,辽宁,5,二手房,2009
大连市甘井子区燕南园50号,大连,大连软件园发展有限公司,高新园区,20190614,38.90172480153224,121.5363466289672,东方圣克拉二期,55,27501,亿达物业管理有限公司,2.6,辽宁,5,二手房,2011
沙河口区红旗东路18-22号2单元1楼3号,大连,大连渤海红旗集团有限公司,甘井子,20190614,38.913544290955585,121.59450670056631,红旗东路,45,11784,渤海吉祥物业管理有限公司,0.4,辽宁,5,二手房,1992
甘井子区金家街17-7号,大连,暂无信息,甘井子,20190614,38.97493697764367,121.60110987128529,金二街,43,19658,无物业管理服务,-,辽宁,5,二手房,1970
甘井子区中华路泉水A1区86号4单元1层1号,大连,大连科技园房地产开发有限公司,甘井子,20190614,39.0040531092963,121.60742125620513,奥林园,45,14161,大连衡德物业管理有限公司,0.5,辽宁,5,二手房,2004
西岗区平等街21号1层2号,大连,暂无信息,西岗,20190614,38.92251066253164,121.63236845125735,实验小学英华街,92,21479,无物业管理服务,0.6,辽宁,5,二手房,1989
开发区黄海西路201号107公建,大连,无开发商,开发区,20190614,39.04942604506828,121.80126318235419,岗松里小区,109,7132,大连经济技术开发区海青物业有限公司,0.5,辽宁,5,二手房,1999
中山区同心街72号1楼公建,大连,大连泰宸房地产开发有限责任公司,中山,20190614,38.91979245940674,121.64769198230202,伊景华园,67,25974,街道办事处（居委会）代管物业,2.2,辽宁,5,二手房,2006
西岗区八一路196号1-3,大连,大连三环置业有限公司,西岗,20190614,38.92047268927287,121.61862512554262,桃花源小区,46,10159,大连三寰物业管理有限公司,0.5,辽宁,5,二手房,1996
中山区中南路店212号门头房,大连,无开发商,中山,20190614,38.91149759691359,121.67700561077149,中南路,56,12826,街道办事处（居委会）代管物业,-,辽宁,5,二手房,1989
沙河口区锦霞南园1号1层公建,大连,大连锦绣房地产开发有限公司,沙河口,20190614,38.947367114450536,121.55342584213675,锦虹北园,17,11855,大连锦绣物业管理有限公司,0.3,辽宁,5,二手房,1998
西岗区黄河路82号,大连,大连民兴房地产开发有限公司,西岗,20190614,38.92243503020161,121.6287927913896,前城国际二期,34,23184,大连前城花园物业管理有限公司,1.5,辽宁,5,二手房,2000
甘井子区泉水B5区27-9,大连,大连运达房地产集团有限公司,甘井子,20190614,39.01477152073682,121.60970286326823,锦泉源B5区,74,12776,政治物业管理有限公司,0.1,辽宁,5,二手房,1999
大连市甘井子区辛如街35号1单元1层1号,大连,大连新星房地产开发有限公司,甘井子,20190614,38.96862607066881,121.52294869064194,新星绿城六期,39,15153,大连生生物业管理有限公司,1,辽宁,5,二手房,2008
沙河口区华北路448号楼1-4公建,大连,无开发商,甘井子,20190614,38.903224944733765,121.56809734950556,周山街,25,16362,街道办事处（居委会）代管物业,0.5,辽宁,4,二手房,1989
沙河口区黄河路535号,大连,大连建园房地产开发有限公司,沙河口,20190614,38.91773777159567,121.60217159922856,79中城市公元,49,27820,大连斌弘物业管理有限公司,2.6,辽宁,4,二手房,2009
高新园区红凌路732-4号,大连,大华集团大连置业有限公司,高新园区,20190614,38.90204708664442,121.53244406374695,大华锦绣华城二期,46,26060,大连大华物业管理有限公司,2.5,辽宁,4,二手房,2013
甘井子区华龙南园34-5号34-库4号34-5号,大连,大连钧卫达房地产开发有限公司,甘井子,20190614,38.98270467597865,121.6117222765123,亲亲美境,24,12535,大连三和住邦物业管理有限公司,0.9,辽宁,4,二手房,2008
沙河口区恒利园42号-8,大连,无开发商,沙河口,20190614,38.93357562498634,121.57914091532649,新建小区,3,11528,无物业管理服务,-,辽宁,4,二手房,1980
中山区鲁迅路204号百盛新药特药商店一楼西侧部分,大连,无开发商,中山,20190614,38.9258993614899,121.6768880001226,鲁迅路（寺儿沟商圈）,13,11945,无物业管理服务,-,辽宁,4,二手房,1990
开发区红梅小区19栋-2-1-1号,大连,大连开发区世元房地产开发有限公司,开发区,20190614,29.906498897603264,121.5913630631805,世元国际公寓,39,11232,大连世元物业管理有限公司,2,辽宁,4,二手房,2009
甘井子区柳树南街45-10号,大连,中体产业集团大连乐百年置业有限公司,甘井子,20190614,38.92567666296449,121.4841330254372,水木清华,29,13468,大连辰谊物业管理有限公司,1.2,辽宁,4,二手房,2009
西岗区大同街125号,大连,大连新型房地产开发有限公司,西岗,20190614,38.920458602340894,121.61445835429899,银寰花园,26,11224,街道办事处（居委会）代管物业,0.3,辽宁,4,二手房,1995
开发区东北三街94号1层,大连,大连港连房地产开发有限公司,开发区,20190614,39.05723508011585,121.80570768630555,海航YOHO湾,38,10420,海航物业管理有限公司大连分公司,1.8,辽宁,4,二手房,2014
中山区鲁迅路184号1层B—A,大连,大连环海房地产开发有限公司,中山,20190614,38.92590875965419,121.67594393403164,环海公寓,15,11031,大连富民物业管理有限公司,0.5,辽宁,4,二手房,2002
中山区高尚路28-1号,大连,无开发商,中山,20190614,38.892673425111305,121.67148833870213,宪卫里,20,10443,无物业管理服务,0.5,辽宁,4,二手房,1994
大连市高新园区软件园路1A-3号,大连,大连软景房地产开发有限公司,高新园区,20190614,38.89360013642285,121.54653763548625,亿达软景中心,15,21465,亿达物业管理有限公司,3.5,辽宁,4,二手房,2014
无门店信息,大连,大连中政房地产开发有限公司,中山,20190614,34.52713835999158,118.76812980670795,中政小区,16,12280,大连中政物业管理有限公司,0.3,辽宁,4,二手房,1996
甘井子区惠泽南园3-4号,大连,大连九衡房地产开发有限公司,甘井子,20190614,38.939326611323615,121.52337842113351,易和熙园,26,19995,大连易兴物业服务有限公司,2.3,辽宁,4,二手房,2013
中山区清溪南街11号,大连,大连锦绣房地产开发有限公司,中山,20190614,38.88919604283904,121.66466481004835,秀月广场,31,12494,无物业管理服务,0.5,辽宁,4,二手房,1994
"西岗区泰公街20号2层7号 西岗区久寿街22号1层14号""",大连,大连万达房地产开发有限公司,西岗,20190614,38.92600196862723,121.62141976476381,万达高层,16,11606,大连白云物业管理公司,0.3,辽宁,4,二手房,1995
中山区山屏街116号1-1,大连,大连中信海港投资有限公司,中山,20190614,38.90729438486833,121.68598159980013,山峦街,13,11831,无物业管理服务,-,辽宁,4,二手房,1990
沙河口区黄河路535号,大连,大连城市建设集团有限公司,沙河口,20190614,38.91773777159567,121.60217159922856,79中金光小区,40,25464,无物业管理服务,-,辽宁,4,二手房,1993
沙河口区黄河路883号,大连,大连正源房地产开发有限公司,沙河口,20190614,38.919826721475204,121.57749657966676,幸福e家四期,66,33208,大连正源物业服务有限公司,1.2,辽宁,4,二手房,2007
中山区高尚路28-1号,大连,无开发商,中山,20190614,38.892673425111305,121.67148833870213,高尚路,25,10187,无物业管理服务,0.5,辽宁,4,二手房,1993
甘井子区促进路30号2-1-1,大连,大连天河房地产开发集团有限公司,甘井子,20190614,38.954133128707575,121.58355746311207,促进路,14,12062,无物业管理服务,0.1,辽宁,4,二手房,1982
西岗区绕山路31号公建一层东侧,大连,无开发商,西岗,20190614,38.90257514466717,121.61412736644739,和云巷,18,10147,无物业管理服务,-,辽宁,4,二手房,1990
金州新区先进街道渤海街7-4号1-2层、7-3号1-2层,大连,大连海洋房地产开发有限公司,金州,20190614,39.09342713035472,121.74590886291374,金海嘉园,19,8285,大连辽渔物业管理有限公司,0.8,辽宁,4,二手房,2007
大连市甘井子区丰收路3-5号,大连,大连智和房地产开发有限公司,甘井子,20190614,38.965377255081755,121.58288415324094,华锦铭苑,43,18725,大连东昌物业管理有限公司,1.3,辽宁,4,二手房,2009
甘井子区华东路22号公建,大连,大连凯祥房地产开发有限公司,甘井子,20190614,38.97736184953593,121.5935814234334,环馨山庄,23,13262,大连凯祥物业管理有限公司,0.5,辽宁,4,二手房,2000
大连市甘井子区丰收路3-5号,大连,无开发商,甘井子,20190614,38.965377255081755,121.58288415324094,顺发路,26,12586,街道办事处（居委会）代管物业,0.2,辽宁,4,二手房,1993
甘井子区泉水D6区51号,大连,大连时代房地产开发有限公司,甘井子,20190614,39.00897610161069,121.61789300655198,富士庄园,62,15942,大连佳泰物业管理有限公司,1.2,辽宁,4,二手房,2006
无门店信息,大连,大连安邦房地产开发有限公司,甘井子,20190614,34.52713835999158,118.76812980670795,安邦阳光润城,41,13106,无物业管理服务,-,辽宁,4,二手房,2011
无门店信息,大连,大连万科房地产开发有限公司,旅顺口,20190614,34.52713835999158,118.76812980670795,万科樱花园,55,12784,大连万科物业服务有限公司,2.4,辽宁,4,二手房,2014
中山区三八广场5号,大连,无开发商,中山,20190614,38.92540000551715,121.6642911149562,良运四季汇,57,22056,大连良运物业管理有限公司,0.8,辽宁,4,二手房,2010
金州区站前街道盛滨花园B区13号楼2号公建,大连,大连阿尔滨集团房地产开发有限公司,金州,20190614,39.09609011892329,121.7335816409767,现代雅筑,44,6672,大连阿尔滨集团物业管理有限公司,0.5,辽宁,4,二手房,2009
沙河口区兰田街33号,大连,无开发商,沙河口,20190614,38.926138912221084,121.56486022834609,马栏广场东,18,11193,大连辽南物业管理有限公司,0.2,辽宁,4,二手房,1995
甘井子区辛寨子街道中冶蓝城辛虹园39-7号公建,大连,大连中冶京诚置业有限公司,甘井子,20190614,38.98155611421408,121.49259383356096,中冶蓝城D区,38,15572,大连添翼物业服务有限公司,2,辽宁,4,二手房,2011
沙河口区黄河路535号,大连,大连首星房地产开发有限公司,沙河口,20190614,38.91773777159567,121.60217159922856,金色年华公馆,44,26387,大连首星物业管理有限公司,2.8,辽宁,4,二手房,2011
甘井子辛吉街150号-7号,大连,大连金马房屋开发有限公司,甘井子,20190614,38.96368508446978,121.52671221254214,金马圣隆,35,13235,大连金马圣隆物业管理有限公司,0.5,辽宁,4,二手房,2006
沙河口区鞍山路65号美都园7号1单元1层4号公建,大连,大连美辰房地产开发有限公司,沙河口,20190614,38.92755211283745,121.60306664748275,丽景春天,29,18887,大连远洋基业物业管理有限公司,0.8,辽宁,4,二手房,2003
甘井子区山东路398号,大连,华润置地（大连）开发有限公司,甘井子,20190614,38.99821826443242,121.59274974973462,华润置地广场三期,53,22769,华润物业（大连）有限公司,2.9,辽宁,4,二手房,2016
大连市金州区站前街道生辉第一城14-3号1-2层,大连,大连新天润企业集团有限公司,开发区,20190614,39.0569681786798,121.74773530665969,凯旋国际,116,7138,第一东方(大连)物业服务有限公司,2.3,辽宁,4,二手房,2008
大连市甘井子区泉水N2区3-13号,大连,暂无信息,甘井子,20190614,39.021116079001885,121.64659997607325,泉水N1区,99,9850,无物业管理服务,0.7,辽宁,4,二手房,2008
无门店信息,大连,暂无信息,旅顺口,20190614,34.52713835999158,118.76812980670795,龙王塘一号,57,8660,街道办事处（居委会）代管物业,1.2,辽宁,4,二手房,-
高新园区红凌路732-4号,大连,大连亿达房地产股份有限公司,高新园区,20190614,38.90204708664442,121.53244406374695,亿达峦翠园,40,20399,亿达物业管理有限公司,1.3,辽宁,4,二手房,2009
无门店信息,大连,昕德（大连）房地产开发有限公司,金州,20190614,34.52713835999158,118.76812980670795,伟桥金北嘉园,65,7417,街道办事处（居委会）代管物业,0.5,辽宁,4,二手房,2012
沙河口区前程街46号4—1—2号,大连,大连欧兰房地产开发有限公司,甘井子,20190614,38.913544290955585,121.59450670056631,耕海山尚,27,16971,大连耕海物业管理有限公司,1.5,辽宁,4,二手房,2010
甘井子区山东路127-2号,大连,大连市大钢集团,甘井子,20190614,38.99065559549029,121.59126483545545,苍山路,41,12531,街道办事处（居委会）代管物业,0.4,辽宁,4,二手房,1989
甘井子区泉水D1区10-2#1-1-7,大连,大连春达房屋开发有限公司,甘井子,20190614,39.01504676175047,121.61751269364314,景富铭苑,18,12362,庄河金城物业管理有限公司,0.5,辽宁,4,二手房,2004
开发区高新里6栋-8,大连,无开发商,开发区,20190614,39.0710895068195,121.82860134358343,高志里小区,39,6710,街道办事处（居委会）代管物业,0.3,辽宁,4,二手房,1993
沙河口区长江路738号,大连,勋业（大连）置业有限公司,西岗,20190614,38.913544290955585,121.59450670056631,远洋风景,59,23558,大连远洋风景物业服务中心,1.9,辽宁,4,二手房,2007
大连市甘井子区泉水N2区3-13号,大连,大连半岛集团有限公司,甘井子,20190614,39.021116079001885,121.64659997607325,半岛泉水欣座,34,14928,大连半岛物业管理有限公司,1.5,辽宁,4,二手房,2010
大连市沙河口区西南路875号1层21号,大连,大连新型房地产开发有限公司,沙河口,20190614,38.94485969061231,121.58418648447764,春晖巷,5,10736,无物业管理服务,-,辽宁,4,二手房,1990
开发区杏树里10栋-14,大连,大连华宇房地产开发有限公司,开发区,20190614,39.08113818354046,121.78505742127606,华宇凤凰城,75,8357,大连华宇物业管理有限公司,1,辽宁,4,二手房,2007
沙河口区知心园10号公建,大连,大连软件园开发有限公司,高新园区,20190614,38.893977135945136,121.55667141994431,亿达国际新城,46,22509,亿达物业管理有限公司,1,辽宁,4,二手房,2004
甘井子区玉云路27-3-1-3,大连,暂无信息,甘井子,20190614,38.97896234099927,121.55865563488358,泡崖新六区,39,11329,大连新型物业管理有限公司,0.3,辽宁,4,二手房,2003
金州区光明街道育才街42-6号1-2层,大连,无开发商,金州,20190614,39.109080894078986,121.7182584929096,职高西小区,21,8648,街道办事处（居委会）代管物业,0.5,辽宁,4,二手房,1989
沙河口区西南路40号楼,大连,无开发商,沙河口,20190614,38.94143337232082,121.58616557598133,黑石礁景山,18,12122,无物业管理服务,-,辽宁,4,二手房,1990
甘井子区亿家缘虹韵路205,大连,大连亿达美加房地产开发有限公司,甘井子,20190614,38.95647848453699,121.53130152244339,第五郡四号地,48,27972,亿达物业管理有限公司,2,辽宁,4,二手房,2010
大连经济技术开发区时代城4-3号1-2号,大连,暂无信息,开发区,20190614,39.0992481321252,121.83007860699459,摩宿公寓,73,7467,大连远洋基业物业管理有限公司,1.5,辽宁,4,二手房,2012
沙河口区锦石园24-7号第A2-13幢1单元1层1号,大连,大连锦绣房地产开发有限公司,沙河口,20190614,38.913544290955585,121.59450670056631,锦城园C区,29,15322,大连锦绣物业管理有限公司,0.6,辽宁,4,二手房,2006
甘井子区华龙南园34-5号34-库4号34-5号,大连,大连运达房地产集团有限公司,甘井子,20190614,38.98270467597865,121.6117222765123,泊岭紫郡,32,13498,大连怡和物业服务有限公司,0.9,辽宁,4,二手房,2009
金州区南棉路310号,大连,无开发商,金州,20190614,39.09939229372624,121.72414976100345,劳动局小区,117,8054,无物业管理服务,0.1,辽宁,4,二手房,1990
沙河口区长江路738号,大连,无开发商,西岗,20190614,38.913544290955585,121.59450670056631,21中五一广场,27,20550,无物业管理服务,-,辽宁,4,二手房,1976
甘井子辛吉街150号-7号,大连,大连新星房地产开发有限公司,甘井子,20190614,38.96368508446978,121.52671221254214,新星绿城三期,69,12827,大连生生物业管理有限公司,0.5,辽宁,4,二手房,2006
无门店信息,大连,大连软件园瑞安发展有限公司,高新园区,20190614,34.52713835999158,118.76812980670795,大连天地悦翠台,97,15261,大连万科物业服务有限公司,1,辽宁,4,二手房,2012
甘井子区绿洲园60号,大连,大连友谊合升房地产开发有限公司,甘井子,20190614,38.95390300214936,121.59409785747448,壹品天城,122,28942,大连富丽华物业管理有限公司,0.5,辽宁,4,二手房,2011
开发区东北三街94号1层,大连,大连同济房地产开发有限公司,开发区,20190614,39.05723508011585,121.80570768630555,新东方公寓三期,86,6638,大连同济物业管理有限公司,1.5,辽宁,4,二手房,2007
西岗区平等街21号1层2号,大连,辽宁宁安房地产开发有限公司,西岗,20190614,38.92251066253164,121.63236845125735,赛维利大厦,24,20044,大连良玖物业管理有限责任公司,1.5,辽宁,4,二手房,2004
金州区同济路44号,大连,大连金宸集团,金州,20190614,39.10476859984152,121.71234684495865,连大文润金宸三期,53,11266,大连四通物业管理有限公司,1,辽宁,4,二手房,2010
沙河口区锦石路8号,大连,大连运腾房地产开发有限公司,沙河口,20190614,38.94771288948481,121.56110903658733,锦云南园,66,10159,大连锦绣物业管理有限公司,0.3,辽宁,4,二手房,1996
甘井子区虹港路16号楼1层公建,大连,无开发商,甘井子,20190614,38.9645939333502,121.553851837474,迎客路（机场商圈）,35,12122,街道办事处（居委会）代管物业,0.2,辽宁,4,二手房,1990
甘井子区泉水B2区19-1号,大连,大连金广集团,甘井子,20190614,39.0101309886317,121.60812584213187,金色阳光家园,55,13790,大连金广物业服务有限公司,0.5,辽宁,4,二手房,2002
甘井子区玉丽街2号楼1单元4号公建,大连,大连新型房地产开发有限公司,甘井子,20190614,38.98705071699301,121.55513043130172,泡崖康馨园,35,10505,大连新兴物业管理有限公司,0.2,辽宁,4,二手房,2004
甘井子区红旗西路104-7,大连,大连盛达实业总公司,甘井子,20190614,38.940335495502666,121.52722586363274,盛新园,31,11896,大连盛新物业管理有限公司,0.3,辽宁,4,二手房,2000
沙河口区知心园10号公建,大连,暂无信息,高新园区,20190614,38.893977135945136,121.55667141994431,亿达康派公寓,21,16907,亿达物业管理有限公司,2.2,辽宁,3,二手房,2006
甘井子区虹城路503号1-1号,大连,大连易和房地产集团有限公司,甘井子,20190614,38.981193588625004,121.49964051837122,岭秀滨城悦和西园,26,14072,大连易兴物业服务有限公司,1.3,辽宁,4,二手房,2013
开发区翠竹小区33栋4-1-1号,大连,暂无信息,开发区,20190614,30.635492106460237,119.69169575745704,翠竹中区,26,10107,嘉兴物业管理有限公司,0.3,辽宁,3,二手房,1996
西岗区长春路334号,大连,大连万达房地产开发有限公司,西岗,20190614,38.89807766522607,121.63221082858387,石松小区,13,11006,大连白云物业管理有限公司,0.5,辽宁,3,二手房,1999
中山区鲁迅路204号百盛新药特药商店一楼西侧部分,大连,大连港连房地产开发有限公司,中山,20190614,38.9258993614899,121.6768880001226,海港公寓（寺儿沟商圈）,15,12757,大连仁安物业管理有限公司,0.2,辽宁,3,二手房,1996
甘井子区泉水B5区27-9,大连,大连运达房地产集团有限公司,甘井子,20190614,39.01477152073682,121.60970286326823,锦泉源B6区,20,14309,政治物业管理有限公司,0.5,辽宁,3,二手房,2012
沙河口区民权街324号,大连,大连城市建设集团有限公司,沙河口,20190614,38.92064616208148,121.59777611850379,天兴新家园,11,28472,大连天兴物业管理有限公司,0.5,辽宁,3,二手房,1999
中山区杏林街66—5号,大连,无开发商,中山,20190614,38.92572771377599,121.66490555592502,39中民生里,12,28082,街道办事处（居委会）代管物业,0.5,辽宁,3,二手房,1990
沙河口区绿清街12号,大连,大连绿波房屋开发集团有限公司,沙河口,20190614,38.93851335419565,121.57334844377094,绿香花园,19,13325,大连大伟物业管理有限公司,0.4,辽宁,3,二手房,2001
中山区职工街96号1-3层公建,大连,无开发商,中山,20190614,38.92565613737007,121.66193575790903,39中三八广场,4,19893,无物业管理服务,-,辽宁,3,二手房,1992
西岗区长春路334号,大连,无开发商,西岗,20190614,38.89807766522607,121.63221082858387,星火小区,15,9390,大连自然物业管理中心,0.5,辽宁,3,二手房,1999
无门店信息,大连,大连腾达房地产开发有限公司,中山,20190614,34.52713835999158,118.76812980670795,紫竹轩,8,16845,大连市晟阳物业管理有限公司,1,辽宁,3,二手房,2003
金州区光明街道育才街42-6号1-2层,大连,无开发商,金州,20190614,39.109080894078986,121.7182584929096,光明小区(金州),12,8676,无物业管理服务,0.5,辽宁,3,二手房,1995
沙河口区西南路643号,大连,大连海昌房屋开发有限公司,沙河口,20190614,38.943483429804665,121.5833555851182,兴港花园,5,12443,大连永佳物业管理有限公司,0.3,辽宁,3,二手房,1999
中山区中南路店212号门头房,大连,无开发商,中山,20190614,38.91149759691359,121.67700561077149,中纬巷,4,12100,无物业管理服务,-,辽宁,3,二手房,1995
沙河口区西南路851号3单元1层3号,大连,暂无信息,沙河口,20190614,38.94344210837944,121.58246796944378,凌山三街,3,11170,无物业管理服务,-,辽宁,3,二手房,-
中山区益民街16号1层1号,大连,无开发商,中山,20190614,38.93092761298906,121.66470740073377,益民街（三八广场）,8,14101,无物业管理服务,-,辽宁,3,二手房,1992
甘井子区甘井子街3号公建,大连,无开发商,甘井子,20190614,38.982086281836246,121.63426694995971,新街,17,9707,无物业管理服务,-,辽宁,3,二手房,1988
甘井子区玉湖街25号2单元1层3号,大连,大连新型房地产开发有限公司,甘井子,20190614,38.97626265183615,121.54617349027997,书香府第一期,12,12076,大连新兴物业管理有限公司,0.5,辽宁,3,二手房,2002
沙河口区昌黎街22号,大连,大连城市建设集团有限公司,沙河口,20190614,38.91975785098891,121.59109628369768,天兴罗斯福,51,16215,大连天兴物业管理有限公司,1.6,辽宁,3,二手房,2004
沙河口区锦石园24-7号第A2-13幢1单元1层1号,大连,大连鼎新美地置业有限公司,甘井子,20190614,38.913544290955585,121.59450670056631,鼎新鼎润四季,27,20700,大连中原物业代理有限公司,1.2,辽宁,3,二手房,2010
西岗区长春路334号,大连,无开发商,西岗,20190614,38.89807766522607,121.63221082858387,石峰街,17,11356,大连大众物业管理有限公司,0.3,辽宁,3,二手房,1995
开发区黄海西路201号107公建,大连,无开发商,开发区,20190614,39.04942604506828,121.80126318235419,自由港,45,6804,大连安洁物业管理服务有限公司,0.5,辽宁,3,二手房,2006
中山区民建街10号1单元1号,大连,无开发商,中山,20190614,38.925444479476894,121.66915026954452,39中明阳街,37,19848,无物业管理服务,-,辽宁,3,二手房,1993
大连市甘井子区融田西园52-11,大连,亿达集团大连科技城发展有限公司,甘井子,20190614,38.95800216293212,121.53151895549547,亿达春田馥园,62,19814,亿达物业管理有限公司,2.2,辽宁,3,二手房,2011
中山区益民街16号1层1号,大连,无开发商,中山,20190614,38.93092761298906,121.66470740073377,兴盛里（三八广场）,13,13645,无物业管理服务,-,辽宁,3,二手房,1993
西岗区鞍山路29号龙畔锦城东门,大连,无开发商,西岗,20190614,38.92763470697088,121.61498923399098,铁路西站,25,12058,无物业管理服务,-,辽宁,3,二手房,1981
开发区小孤山西里3栋-11号,大连,大连广隆房地产开发有限公司,开发区,20190614,39.02715282297674,121.80682183666346,文华园,40,10056,大连广隆物业管理有限公司,1.1,辽宁,3,二手房,2007
甘井子区华北路花锦园28号23-3-1-2建筑物,大连,大连东特房地产开发有限公司,沙河口,20190614,38.951627958411166,121.5739439799003,东特新居,16,12054,大连东特祥禾物业管理有限公司,0.5,辽宁,3,二手房,2000
甘井子区知音园20号3单元1层1号,大连,大连诚信万奕房地产开发有限公司,高新园区,20190614,38.95800216293212,121.53151895549547,万奕学院派,22,27211,大连空港物业管理有限公司,1.2,辽宁,3,二手房,2010
高新园敬贤街23-11号,大连,中海东丰地产（大连）有限公司,高新园区,20190614,38.869456648212356,121.53023725049893,中海华庭,67,20331,大连中海物业管理有限公司,2,辽宁,3,二手房,2009
金州区站前街道盛滨花园B区13号楼2号公建,大连,大连连铁房地产开发有限公司,金州,20190614,39.09609011892329,121.7335816409767,金舍嘉苑,22,8226,街道办事处（居委会）代管物业,0.5,辽宁,3,二手房,2008
开发区红梅小区19栋-2-1-1号,大连,大开中和祥房地产开发有限公司,开发区,20190614,29.906498897603264,121.5913630631805,金丰大厦,52,9978,新加坡物业管理有限公司,1.9,辽宁,3,二手房,2012
沙河口区五一路270-274号,大连,大连誉园房地产开发有限公司,高新园区,20190614,38.913544290955585,121.59450670056631,斯坦福院落,23,21362,第一太平戴维斯物业顾问（北京）有限公司大连分公司,1.2,辽宁,3,二手房,2008
开发区红星海-B区89-1号,大连,远洋地产有限公司,开发区,20190614,39.027851194371685,121.80327394132297,红星海三期视界,45,15106,大连远洋基业物业管理有限公司,2.2,辽宁,3,二手房,2012
中山区华乐街71号公建,大连,暂无信息,中山,20190614,38.923187679200566,121.6843197903016,东港印象DE区,15,14513,大连众和物业管理有限公司,1.2,辽宁,3,二手房,2008
西岗区八一路196号2-1-12号,大连,无开发商,西岗,20190614,38.92047268927287,121.61862512554262,八一路（八一路商圈）,21,10865,无物业管理服务,-,辽宁,3,二手房,1990
开发区高新里6栋-8,大连,无开发商,开发区,20190614,39.0710895068195,121.82860134358343,怡海花园二期,20,7839,街道办事处（居委会）代管物业,0.2,辽宁,3,二手房,2002
高新园区硅谷假日小区25号楼地下室,大连,暂无信息,高新园区,20190614,38.86467854992112,121.53720784613759,硅谷假日公寓,17,14876,大连斌弘物业管理有限公司,1.5,辽宁,3,二手房,2005
中山区东港龙湖水晶郦湾7-102,大连,大连金广地产集团有限公司,中山,20190614,38.924700620463895,121.70344398518496,金广东海岸,80,23576,大连金广物业有限公司,2.2,辽宁,3,二手房,2009
甘井子区虹港路16号楼1层公建,大连,大连建园房地产开发有限公司,甘井子,20190614,38.9645939333502,121.553851837474,城市印象,52,15403,大连天兴物业管理有限公司,1.8,辽宁,3,二手房,2011
无门店信息,大连,暂无信息,甘井子,20190614,34.52713835999158,118.76812980670795,海禄苑小区,20,9665,无物业管理服务,0.9,辽宁,3,二手房,2000
中山区金城街26号一楼,大连,辽宁远大房屋开发有限公司,中山,20190614,38.922282529515634,121.65214466263014,远大大厦,43,10033,街道办事处（居委会）代管物业,2.5,辽宁,3,二手房,2000
大连市甘井子区银田北园14号,大连,暂无信息,甘井子,20190614,38.9742441034389,121.47189841879823,亿达春田银杏园,62,18497,亿达物业管理有限公司,2.2,辽宁,3,二手房,2011
沙河口区前程街46号4—1—2号,大连,大连渤海红旗集团有限公司,甘井子,20190614,38.913544290955585,121.59450670056631,里程巷,18,9511,大连台安物业管理中心,0.4,辽宁,3,二手房,1990
甘井子区泉水D1区37-7号,大连,大连运腾房地产开发有限公司,甘井子,20190614,39.013992871679214,121.61921940045104,锦泉源D4区,29,14023,大连嘉和物业管理有限公司,0.5,辽宁,3,二手房,2007
开发区景和园1-7,大连,无开发商,开发区,20190614,30.41892168817929,120.30896459202738,古耕景和园,41,9428,街道办事处（居委会）代管物业,0.5,辽宁,3,二手房,2008
无门店信息,大连,无开发商,金州,20190614,34.52713835999158,118.76812980670795,永安四季,37,7236,无物业管理服务,0.5,辽宁,3,二手房,2012
甘井子区汇仁街19号12号楼1单元102室,大连,大连凯祥房地产开发有限公司,甘井子,20190614,38.99746297497168,121.58917714380617,名贵山庄亲情园,21,14174,大连弘益达物业管理有限公司,0.5,辽宁,3,二手房,2002
甘井子区甘井子路32号楼1单元1楼9号,大连,无开发商,甘井子,20190614,38.982488275116516,121.63345389253514,杨柳街,15,10258,街道办事处（居委会）代管物业,0.5,辽宁,3,二手房,1990
中山区同心街72号1楼公建,大连,无开发商,中山,20190614,38.91979245940674,121.64769198230202,南山里,16,18653,无物业管理服务,-,辽宁,3,二手房,1990
无门店信息,大连,大连君悦房地产开发有限公司,甘井子,20190614,34.52713835999158,118.76812980670795,君悦晟景,22,12668,大连弘实物业有限公司,1.2,辽宁,3,二手房,2011
甘井子区佳林北园2-7号,大连,大连瑞泰祥房地产开发有限公司,甘井子,20190614,38.96331610956877,121.52802328494242,缇香漫城,54,20855,大连瑞泰祥物业服务有限公司,2,辽宁,3,二手房,2013
无门店信息,大连,大连航宇房屋开发有限公司,甘井子,20190614,34.52713835999158,118.76812980670795,西郊棠梨园,10,12059,渤海吉祥物业管理有限公司,0.5,辽宁,3,二手房,2007
中山区南山路59号1层4号,大连,大连铁路房地产开发有限责任公司,中山,20190614,38.91992239075882,121.6479206962747,延安小区,17,20780,大连铁路物业管理有限公司,0.5,辽宁,3,二手房,1995
甘井子区华龙南园12-4-3-1-3,大连,大连瑞祥房地产开发有限公司,甘井子,20190614,38.98528794231248,121.61028969481718,今都小区,48,12186,大连泰安物业管理有限公司,0.2,辽宁,3,二手房,1996
红星海A区126-4,大连,暂无信息,开发区,20190614,39.027851194371685,121.80327394132297,红星海一期艺墅,52,16683,大连远洋基业物业管理有限公司,0.5,辽宁,3,二手房,2009
中山区民运巷 47号1层2号,大连,无开发商,中山,20190614,38.905955122300846,121.64798148011702,西山巷,33,10242,无物业管理服务,0.3,辽宁,3,二手房,1992
西岗区黄河路362号公建,大连,大连万佳房地产开发有限公司,西岗,20190614,38.91819905243802,121.61365779430986,优豪斯,12,25347,大连万佳物业管理有限公司,1.2,辽宁,3,二手房,2003
甘井子区红旗花园23号楼19-24轴公建,大连,大连银泰房地产有限公司,甘井子,20190614,38.93108029984587,121.54902145022133,祥和园,20,14376,无物业管理服务,0.5,辽宁,3,二手房,2002
中山区职工街96号1-3层公建,大连,大连泛华房屋开发有限公司,中山,20190614,38.92565613737007,121.66193575790903,泛华领城,35,13485,无物业管理服务,3.2,辽宁,3,二手房,2012
开发区杏花里13#楼-7号,大连,无开发商,开发区,20190614,31.31075067906954,120.63127837058457,杏花里,67,6775,大连经济技术开发区杏林物业管理有限公司,0.3,辽宁,3,二手房,1993
中山区职工街96号1-3层公建,大连,大连名仕房地产开发有限公司,中山,20190614,38.92565613737007,121.66193575790903,名仕国际公寓,24,10883,大连名流物业有限公司,3.8,辽宁,3,二手房,2004
开发区黄海西路201号107公建,大连,无开发商,开发区,20190614,39.04942604506828,121.80126318235419,岗盛里小区,109,6927,街道办事处（居委会）代管物业,0.5,辽宁,3,二手房,1995
无门店信息,大连,大连顺迈房地产开发有限公司,沙河口,20190614,34.52713835999158,118.76812980670795,星海国宝,58,20333,长城物业集团股份有限大连分公司,3,辽宁,3,二手房,2003
金州新区八一路金都嘉园1号楼1号公建,大连,大连元新房地产开发有限公司,金州,20190614,39.05525210261778,121.74865634199398,华夏金城,65,9936,大连元新物业管理有限公司,1.2,辽宁,3,二手房,2008
沙河口区华北路404号,大连,暂无信息,沙河口,20190614,38.8862815932937,121.59082948696123,柳华街,27,11123,无物业管理服务,0.1,辽宁,3,二手房,1985
无门店信息,大连,大连九城房地产开发有限公司,开发区,20190614,34.52713835999158,118.76812980670795,新城丽景,16,10355,大连恒瑞物业管理有限公司,1.2,辽宁,3,二手房,2015
甘井子区红旗花园23号楼19-24轴公建,大连,大连科宏房屋开发有限公司,甘井子,20190614,38.93108029984587,121.54902145022133,海港楼,19,9063,大连科海物业有限公司,0.2,辽宁,3,二手房,1996
甘井子区华北路花锦园28号23-3-1-2建筑物,大连,无开发商,甘井子,20190614,38.951627958411166,121.5739439799003,华北路（甘）,30,16530,街道办事处（居委会）代管物业,0.1,辽宁,3,二手房,1989
无门店信息,大连,暂无信息,旅顺口,20190614,34.52713835999158,118.76812980670795,荷塘悦色,31,8935,街道办事处（居委会）代管物业,-,辽宁,3,二手房,-
金州新区八一路金都嘉园1号楼1号公建,大连,大连市金州区房屋开发公司,金州,20190614,39.05525210261778,121.74865634199398,古城丁区,177,7360,街道办事处（居委会）代管物业,0.1,辽宁,3,二手房,1993
西岗区胜利路33号,大连,暂无信息,西岗,20190614,38.91309771954841,121.62500886627636,34中纪念街,60,25185,无物业管理服务,-,辽宁,3,二手房,1990
中山区民建街10号1单元1号,大连,无开发商,中山,20190614,38.925444479476894,121.66915026954452,39中和阳街,17,18874,无物业管理服务,-,辽宁,3,二手房,1990
西岗区华北路100号1层5号,大连,大连双振房屋开发有限公司,沙河口,20190614,38.92047268927287,121.61862512554262,香茗苑,4,15861,大连双振物业有限公司,0.5,辽宁,3,二手房,2003
甘井子区甘井子路32号楼1单元1楼9号,大连,大连市建设控股有限公司,甘井子,20190614,38.982488275116516,121.63345389253514,胜景家园,13,12647,街道办事处（居委会）代管物业,0.9,辽宁,3,二手房,2009
西岗区八一路102号,大连,大连澳南房屋开发有限公司,中山,20190614,38.92047268927287,121.61862512554262,明秀山庄A区,54,34387,绿城物业服务集团有限公司大连分公司,1.9,辽宁,3,二手房,2008
甘井子区华东路22号公建,大连,无开发商,甘井子,20190614,38.97736184953593,121.5935814234334,秀山路,28,12110,街道办事处（居委会）代管物业,0.5,辽宁,3,二手房,1986
甘井子区华北路花锦园28号23-3-1-2建筑物,大连,大连东特房地产开发有限公司,甘井子,20190614,38.951627958411166,121.5739439799003,东特星中环,24,16502,大连东特祥禾物业管理有限公司,0.8,辽宁,3,二手房,2006
甘井子区柳树南街45-11号,大连,大连顺达房屋开发有限公司,甘井子,20190614,38.92567666296449,121.4841330254372,顺达温泉花园二期,22,11776,大连顺达物业服务有限公司,0.6,辽宁,3,二手房,2004
无门店信息,大连,大连软件园世通开发有限公司,高新园区,20190614,34.52713835999158,118.76812980670795,亿达普罗旺斯二期,83,20731,亿达物业管理有限公司,2.6,辽宁,3,二手房,2014
无门店信息,大连,大连新兴海韵房地产开发有限公司,金州,20190614,34.52713835999158,118.76812980670795,通用阳光丽景,83,7081,街道办事处（居委会）代管物业,1.4,辽宁,3,二手房,2013
沙河口区南沙街36号台二2号1-1-37,大连,大连鹏生房地产开发有限公司,沙河口,20190614,38.90741410359388,121.57685699961822,鹏顺园,51,25271,大连新型物业管理有限公司,0.5,辽宁,3,二手房,2001
中山区鲁迅路204号百盛新药特药商店一楼西侧部分,大连,无开发商,中山,20190614,38.9258993614899,121.6768880001226,春港街,3,11840,无物业管理服务,-,辽宁,3,二手房,1999
西岗区华北路100号1层5号,大连,大连万达房地产开发有限公司,西岗,20190614,38.92047268927287,121.61862512554262,香海花园,20,16447,大连万达物业管理有限公司,0.8,辽宁,3,二手房,1999
无门店信息,大连,大连祥和房屋开发有限公司,甘井子,20190614,34.52713835999158,118.76812980670795,祥和花园,43,12172,大连市大北物业管理有限公司,0.4,辽宁,3,二手房,2007
中山区爱华街13号,大连,无开发商,中山,20190614,38.92541607518685,121.6535728031028,九中安民街,27,37550,无物业管理服务,-,辽宁,3,二手房,1995
甘井子区哲林北园17-6号,大连,大连科宏房屋开发有限公司,甘井子,20190614,38.9600267109581,121.53876726228256,虹港新居,27,13498,大连空港物业管理有限公司,0.4,辽宁,3,二手房,1996
无门店信息,大连,大连百年港湾商业开发有限公司,西岗,20190614,34.52713835999158,118.76812980670795,百年港湾,55,17846,大连百年城物业管理有限公司,3.5,辽宁,3,二手房,2014
大连市金州新区友谊街道和平路59-10号1-2层公建,大连,无开发商,金州,20190614,39.112168401852266,121.72006917947859,古城乙区,193,7507,无物业管理服务,-,辽宁,3,二手房,1992
中山区益民街16号1层1号,大连,中海地产,中山,20190614,38.93092761298906,121.66470740073377,中海海港城,76,19417,中海物业,4.2,辽宁,3,二手房,2015
中山区武昌街武昌公寓6号公建,大连,暂无信息,中山,20190614,38.912280913445784,121.64921130527547,学府林居,24,10283,暂无信息,1,辽宁,3,二手房,2000
开发区湾里南12栋-16-17-18号,大连,大连金湾实业有限公司,开发区,20190614,39.070782084451,121.8506739675913,湾里西,68,7688,广宜物业有限公司,0.2,辽宁,3,二手房,2003
中山区爱华街13号,大连,无开发商,中山,20190614,38.92541607518685,121.6535728031028,九中安乐街,45,36686,无物业管理服务,-,辽宁,3,二手房,1990
甘井子区玉丽街39号楼3号公建,大连,大连润置房地产有限公司,甘井子,20190614,38.98706755029984,121.55605471197089,华润二十四城,22,19316,华润物业（大连）有限公司,3.1,辽宁,3,二手房,2018
甘井子区华东路33-5号,大连,暂无信息,甘井子,20190614,38.97497080220593,121.59479866243332,巾帼小区,23,11856,大连新华物业管理有限公司,-,辽宁,3,二手房,1993
甘井子区华东路33-5号,大连,无开发商,甘井子,20190614,38.97497080220593,121.59479866243332,秀水小区,15,11168,大连广宇物业有限责任公司,0.5,辽宁,3,二手房,1994
甘井子区泉水H3区15号3单元1层2号,大连,大连新型房地产开发有限公司,甘井子,20190614,39.00158439075201,121.62616882572375,龙畔金泉三期,52,13333,大连新型物业管理有限公司,0.5,辽宁,3,二手房,2004
甘井子区红韵路114号,大连,大连亿达美加房地产开发有限公司,甘井子,20190614,38.95800216293212,121.53151895549547,第五郡六号地,40,29997,亿达物业管理有限公司,3,辽宁,3,二手房,2009
开发区黄海西路201号107公建,大连,开发区城建局,开发区,20190614,39.04942604506828,121.80126318235419,东阁里,56,6981,大连经济技术开发区海青物业有限公司,0.4,辽宁,3,二手房,1994
中山区岭前街53-5,大连,暂无信息,中山,20190614,38.89487069426055,121.65795959631497,胜鼎桃源,23,21302,暂无信息,1.8,辽宁,3,二手房,2015
无门店信息,大连,北方沿海房地产开发（大连）有限公司,沙河口,20190614,34.52713835999158,118.76812980670795,星海大观,219,17428,北京世邦魏理仕物业管理服务有限公司大连分公司,4.4,辽宁,3,二手房,2008
无门店信息,大连,大连晨阳房地产开发有限公司,金州,20190614,34.52713835999158,118.76812980670795,金科理想城,30,9463,金科物业服务集团有限公司,1.6,辽宁,3,二手房,2014
无门店信息,大连,大连市中联房地产开发有限公司,金州,20190614,34.52713835999158,118.76812980670795,卧龙园,25,6707,大连健龙物业管理有限公司,0.5,辽宁,3,二手房,2009
甘井子区红旗中路143号1层4号,大连,大连长鹭房屋开发有限公司,甘井子,20190614,38.93169566676921,121.5426632438217,西街晶品,25,18928,大连万泰物业管理有限公司,0.8,辽宁,3,二手房,2006
高新园区海苑街36号1单元2号公建,大连,大连海苑房屋开发有限公司,高新园区,20190614,20.06392317589085,110.32302599457326,海苑花园,27,14586,大连家园物业有限公司,0.3,辽宁,3,二手房,2000
高新园区黄浦路901S号1单元1层3号,大连,大连金真源集团房地产开发有限公司,高新园区,20190614,38.85845801548294,121.51687109601923,山海一家一期,51,14416,大连龙海物业管理有限公司,0.6,辽宁,3,二手房,2005
中山区共建巷61号,大连,无开发商,中山,20190614,38.91828093658718,121.66259221532148,39中中化街,1,24155,街道办事处（居委会）代管物业,0.5,辽宁,2,二手房,1995
中山区职工街96号1-3层公建,大连,大连嘉和房地产集团有限公司,中山,20190614,38.92565613737007,121.66193575790903,嘉和广场,114,19096,大连华安物业管理有限公司,3.8,辽宁,3,二手房,2014
甘井子区华龙南园12-4-3-1-3,大连,大连融汇置业有限公司,甘井子,20190614,38.98528794231248,121.61028969481718,格林翠庭,8,14859,北京房修一物业管理有限公司,1.3,辽宁,2,二手房,2009
中山区南山路59号1层4号,大连,无开发商,中山,20190614,38.91992239075882,121.6479206962747,祝胜街（昆明街）,3,17195,无物业管理服务,-,辽宁,2,二手房,1988
沙河口区星海广场B3区14-9,大连,大连友谊合升房地产开发有限公司,沙河口,20190614,38.88708614275256,121.58732027085938,壹品星海三期,49,23793,大连友谊物业服务有限公司,1.2,辽宁,3,二手房,2007
无门店信息,大连,大连树源世嘉房地产开发有限公司,金州,20190614,34.52713835999158,118.76812980670795,龙山小区,30,6479,民盛集团物业管理有限公司,0.5,辽宁,2,二手房,2000
西岗区胜利路33号,大连,暂无信息,西岗,20190614,38.91309771954841,121.62500886627636,34中新开路,2,32310,无物业管理服务,-,辽宁,2,二手房,1995
甘井子区泉水P3区35-2号,大连,暂无信息,甘井子,20190614,39.01530162252779,121.63546089163083,泉水P2区,7,11389,暂无信息,1.2,辽宁,2,二手房,2014
莲花山路89-3号,大连,无开发商,沙河口,20190614,38.902848261803356,121.6041720815823,拥民巷,4,11067,无物业管理服务,-,辽宁,2,二手房,2000
无门店信息,大连,大连金石文化旅游投资有限公司,金州,20190614,34.52713835999158,118.76812980670795,大连金石天成,40,8610,大连万达物业管理有限公司,1.8,辽宁,2,二手房,2009
沙河口区五四路207-1-9号,大连,中航国际中航地产,沙河口,20190614,38.913544290955585,121.59450670056631,中航国际广场,25,21392,中航物业管理有限公司大连分公司,3.6,辽宁,2,二手房,2016
中山区解放路471-22号,大连,无开发商,中山,20190614,38.901309943567504,121.65419095766659,友爱街,9,12972,无物业管理服务,-,辽宁,2,二手房,1990
金州新区八一路金都嘉园1号楼1号公建,大连,大连天程置业有限公司,金州,20190614,39.05525210261778,121.74865634199398,御河壹號,13,10001,大连天程置业有限公司,1.2,辽宁,2,二手房,2015
西岗区绕山路31号公建一层东侧,大连,无开发商,西岗,20190614,38.90257514466717,121.61412736644739,康庄街,6,10074,无物业管理服务,-,辽宁,2,二手房,1991
中山区解放路471-22号,大连,无开发商,中山,20190614,38.901309943567504,121.65419095766659,解放路（青云街商圈）,8,12043,街道办事处（居委会）代管物业,0.6,辽宁,2,二手房,1997
沙河口区五四路207-1-9号,大连,无开发商,沙河口,20190614,38.913544290955585,121.59450670056631,集贤北街,2,14315,无物业管理服务,0.5,辽宁,2,二手房,1995
沙河口区敦煌路357号10-11轴公建,大连,大连银泰房地产有限公司,沙河口,20190614,38.93891619583455,121.59150694046835,敦煌大厦,5,9936,大连银泰物业管理有限公司,0.5,辽宁,2,二手房,1999
大连市高新园区软件园路1A-3号,大连,无开发商,高新园区,20190614,38.89360013642285,121.54653763548625,中辰国际公寓,4,16515,大连阿尔滨汇城物业服务有限公司,2.5,辽宁,2,二手房,2008
沙河口区黄河路883号,大连,无开发商,沙河口,20190614,38.919826721475204,121.57749657966676,黄河路（辽师商圈）,3,11804,大连辽南物业管理有限公司,0.5,辽宁,2,二手房,1970
中山区武昌街武昌公寓6号公建,大连,大连武昌房地产开发有限公司,中山,20190614,38.912280913445784,121.64921130527547,部居逸阁,25,13419,大连宜佳物业管理有限公司,1,辽宁,2,二手房,2005
甘井子区金家街17-7号,大连,暂无信息,甘井子,20190614,38.97493697764367,121.60110987128529,金源花园,9,19504,无物业管理服务,-,辽宁,2,二手房,2000
沙河口区连山街10号2-1-2,大连,无开发商,沙河口,20190614,38.89637522563413,121.57143690983219,桃山电业楼,5,13053,无物业管理服务,-,辽宁,2,二手房,1998
西岗区长春路334号,大连,无开发商,西岗,20190614,38.89807766522607,121.63221082858387,花园巷,2,10027,无物业管理服务,-,辽宁,2,二手房,1990
中山区中南路226号,大连,大连大业房屋开发有限公司,中山,20190614,38.90029610333926,121.68178899957817,阳光花园二期,6,13847,大连全得利物业管理有限公司,0.5,辽宁,2,二手房,1997
中山区中南路店212号门头房,大连,无开发商,中山,20190614,38.91149759691359,121.67700561077149,转山小区,18,12757,大连怡和物业服务有限公司,0.3,辽宁,2,二手房,1990
甘井子区山东路商业街D区12号公建,大连,大连市大钢集团,甘井子,20190614,39.001060021502965,121.58883960371418,梅山路,11,12335,街道办事处（居委会）代管物业,0.5,辽宁,2,二手房,1982
中山区虎滩路176号4-1-2,大连,大连国泰房地产开发有限公司,中山,20190614,38.890884710033156,121.69257379232747,帝柏湾,19,21664,加拿大高力国际物业服务有限公司,2,辽宁,2,二手房,2007
中山区中南路226号,大连,大连澳南房屋开发有限公司,中山,20190614,38.90029610333926,121.68178899957817,伊顿山庄,10,24198,大连澳南物业管理有限公司,0.8,辽宁,2,二手房,2005
甘井子区泉水P3区35-2号,大连,暂无信息,甘井子,20190614,39.01530162252779,121.63546089163083,泉水P1区,8,10905,暂无信息,1.2,辽宁,2,二手房,2014
沙河口区长江路946号-9,大连,无开发商,沙河口,20190614,38.913544290955585,121.59450670056631,机车商厦,7,13943,街道办事处（居委会）代管物业,0.3,辽宁,2,二手房,1997
中山区虎滩路176号4-1-2,大连,大连万达房地产开发有限公司,中山,20190614,38.890884710033156,121.69257379232747,碧涛南园,8,16192,大连虎滩置业物业管理有限公司,0.2,辽宁,2,二手房,1998
高新园区敬贤街25-9,大连,大连东盛房地产开发有限公司,高新园区,20190614,38.86879447142154,121.53007349209936,东盛启城,35,17550,大连东盛物业管理有限公司,2.3,辽宁,2,二手房,2012
中山区清溪南街11号,大连,大连澳南房屋开发有限公司,中山,20190614,38.88919604283904,121.66466481004835,明秀嘉园,7,24705,大连澳南物业管理有限公司,1.2,辽宁,2,二手房,2007
中山区中南路226号,大连,大连亿成房屋开发有限公司,中山,20190614,38.90029610333926,121.68178899957817,亿成花园,4,14852,大连维尔利物业管理有限公司,0.8,辽宁,2,二手房,2000
沙河口区华北路404号,大连,大连元泰房屋开发有限公司,沙河口,20190614,38.8862815932937,121.59082948696123,福居家园,8,14423,渤海吉祥物业管理有限公司,0.5,辽宁,2,二手房,2003
沙河口区锦云北园9号2单元1层2号,大连,大连锦绣房地产开发有限公司,沙河口,20190614,38.94836395772248,121.55744845421044,锦云北园,26,10255,大连锦绣物业管理有限公司,0.3,辽宁,2,二手房,1996
中山区民运巷 47号1层2号,大连,大连新型房地产开发总公司,中山,20190614,38.905955122300846,121.64798148011702,葵英小区,8,12925,街道办事处（居委会）代管物业,0.3,辽宁,2,二手房,1999
开发区红梅小区19栋-2-1-1号,大连,无开发商,开发区,20190614,29.906498897603264,121.5913630631805,金玛海景,6,11941,街道办事处（居委会）代管物业,1,辽宁,2,二手房,2007
西岗区长春路334号,大连,大连源通房地产开发有限公司,西岗,20190614,38.89807766522607,121.63221082858387,南石源居,3,17584,大连源通物业管理有限公司,1.3,辽宁,2,二手房,2009
无门店信息,大连,大连招源房地产有限公司,甘井子,20190614,34.52713835999158,118.76812980670795,招商海德公园,20,17704,招商局物业管理有限公司大连分公司,2.6,辽宁,2,二手房,2018
沙河口区沙能街101号1单元1层1号,大连,大连大力置业有限公司,沙河口,20190614,38.9366316275348,121.59031205759763,机车佳苑,6,15500,大连大力物业管理有限公司,1.5,辽宁,2,二手房,2009
中山区益民街16号1层1号,大连,大连三鑫房地产开发有限公司,中山,20190614,38.93092761298906,121.66470740073377,金和苑,17,22600,大连报业物业管理有限公司三鑫分公司,3.5,辽宁,2,二手房,2004
中山区东港龙湖水晶郦湾7-102,大连,大连创富房地产开发有限公司,中山,20190614,38.924700620463895,121.70344398518496,中国铁建国滨苑,29,24860,北京国贸物业,4.3,辽宁,2,二手房,2015
西岗区新田巷27号1-2,大连,无开发商,西岗,20190614,38.893215932589385,121.64103065169111,新河街,14,10675,无物业管理服务,-,辽宁,2,二手房,1995
西岗区中山路158号唐山街市场外14号,大连,暂无信息,西岗,20190614,38.91688106727098,121.63201298398174,34中松花街,19,27035,无物业管理服务,-,辽宁,2,二手房,1980
无门店信息,大连,大连光洋龙驰置业有限公司,开发区,20190614,34.52713835999158,118.76812980670795,泽林苑,15,11883,大连光洋龙驰置业物业有限公司,1.6,辽宁,2,二手房,2015
中山区职工街96号1-3层公建,大连,无开发商,中山,20190614,38.92565613737007,121.66193575790903,警后大院（三八广场）,19,15001,无物业管理服务,-,辽宁,2,二手房,1993
甘井子区玉湖街25号2单元1层3号,大连,暂无信息,甘井子,20190614,38.97626265183615,121.54617349027997,玉水街,3,9531,无物业管理服务,-,辽宁,2,二手房,1988
西岗区绕山路31号公建一层东侧,大连,无开发商,西岗,20190614,38.90257514466717,121.61412736644739,山庄北三街,8,10303,无物业管理服务,-,辽宁,2,二手房,1990
开发区松苑街23号,大连,无开发商,开发区,20190614,22.52087435807652,113.40156105086167,松林里小区,6,12928,街道办事处（居委会）代管物业,0.5,辽宁,2,二手房,1996
中山区民建街10号1单元1号,大连,无开发商,中山,20190614,38.925444479476894,121.66915026954452,39中顺阳街,38,20264,无物业管理服务,-,辽宁,2,二手房,1995
沙河口区富国街14号1-1-2,大连,无开发商,沙河口,20190614,38.901027106600836,121.59047734850638,星月街,8,11754,街道办事处（居委会）代管物业,0.5,辽宁,2,二手房,-
中山区清溪南街11号,大连,大连澳南房屋开发有限公司,中山,20190614,38.88919604283904,121.66466481004835,明秀山庄B区,34,35494,绿城物业服务集团有限公司大连分公司,1.9,辽宁,2,二手房,2008
无门店信息,大连,大连振富房屋开发有限公司,西岗,20190614,34.52713835999158,118.76812980670795,振富公寓（胜利桥北商圈）,39,8978,大连中海振富物业管理有限公司,1.1,辽宁,2,二手房,2002
大连市金州新区中长街道碧海尚城5-4号1-2层,大连,大连微软房地产开发有限公司,金州,20190614,39.100290954587514,121.7304796052032,冠军大厦,12,7552,街道办事处（居委会）代管物业,1,辽宁,2,二手房,2002
中山区解放路471-22号,大连,大连青云天下房地产有限公司,中山,20190614,38.901309943567504,121.65419095766659,青云天下,12,24701,大连青云天下物业服务有限公司,4.3,辽宁,2,二手房,2018
沙河口区五一路109-4号,大连,大连正源房地产开发有限公司,沙河口,20190614,38.913544290955585,121.59450670056631,幸福e家一期,25,31353,大连正源物业服务有限公司,0.8,辽宁,2,二手房,2002
中山区北斗街53号1层1号,大连,大连大森房地产开发有限公司,中山,20190614,38.92727355733075,121.67002970974048,东港林苑,21,17244,大连美心物业管理有限公司,2.8,辽宁,2,二手房,2013
开发区高新里6栋-8,大连,无开发商,开发区,20190614,39.0710895068195,121.82860134358343,怡海花园一期,22,7380,街道办事处（居委会）代管物业,0.2,辽宁,2,二手房,2001
大连市沙河口区知邻街50号,大连,无开发商,沙河口,20190614,38.913544290955585,121.59450670056631,玉门街,20,11777,无物业管理服务,-,辽宁,2,二手房,1993
沙河口区五一路110-4号,大连,大连亿达房地产股份有限公司,沙河口,20190614,38.913544290955585,121.59450670056631,兰亭山水,37,21252,亿达物业管理有限公司,0.6,辽宁,2,二手房,2003
金州区光明街道育才街42-6号1-2层,大连,暂无信息,金州,20190614,39.109080894078986,121.7182584929096,芙蓉花园（金州）,30,9723,大连金州新区建房物业管理中心,0.6,辽宁,2,二手房,2007
甘井子区金北路17号,大连,暂无信息,甘井子,20190614,38.97553393692831,121.59969720502335,金二小学南,39,20393,无物业管理服务,-,辽宁,2,二手房,1976
西岗区康平街2号（5号楼3-1-3号）,大连,无开发商,西岗,20190614,38.91044414697888,121.61980769264477,长太巷,7,11351,无物业管理服务,-,辽宁,2,二手房,1990
甘井子区柳树南街45-10号,大连,大连顺达房屋开发有限公司,甘井子,20190614,38.92567666296449,121.4841330254372,顺达温泉花园三期,39,11863,大连顺达物业服务有限公司,0.6,辽宁,2,二手房,2007
无门店信息,大连,大连新兴海韵房地产开发有限公司,开发区,20190614,34.52713835999158,118.76812980670795,山海家园,17,15670,大连经济技术开发区通讯物业有限公司,0.5,辽宁,2,二手房,2004
沙河口区黑石礁街3号1层1-1号,大连,无开发商,沙河口,20190614,38.880058010307856,121.56313403908827,东财烛光园,7,18285,无物业管理服务,-,辽宁,2,二手房,1988
西岗区新田巷27号1-2,大连,无开发商,西岗,20190614,38.893215932589385,121.64103065169111,新昌街,20,10161,无物业管理服务,-,辽宁,2,二手房,1996
沙河口区鞍山路65号美都园7号1单元1层4号公建,大连,大连良运房地产开发有限公司,沙河口,20190614,38.92755211283745,121.60306664748275,良运缤纷四季,36,21769,大连良运物业管理有限公司,0.8,辽宁,2,二手房,2006
大连经济技术开发区同和里7栋-9号,大连,无开发商,开发区,20190614,39.04901984220615,121.7885236929847,新星里,41,8095,大连广谊物业管理有限公司,0.3,辽宁,2,二手房,2003
甘井子区金北街17号,大连,暂无信息,甘井子,20190614,38.95800216293212,121.53151895549547,山宝花园,20,20955,无物业管理服务,-,辽宁,2,二手房,1970
西岗区鞍山路29号龙畔锦城东门,大连,无开发商,西岗,20190614,38.92763470697088,121.61498923399098,北京街北,44,12802,无物业管理服务,-,辽宁,2,二手房,1981
西岗区鞍山路29号龙畔锦城东门,大连,大连铁路房地产开发有限责任公司,西岗,20190614,38.92763470697088,121.61498923399098,龙畔锦城,42,19890,大连亚航物业管理有限公司,1.2,辽宁,2,二手房,2009
甘井子区华东路22号公建,大连,大连金广地产集团有限公司,甘井子,20190614,38.97736184953593,121.5935814234334,华东路（山东路商圈）,23,11597,大连嘉和物业管理有限公司,0.5,辽宁,2,二手房,1990
甘井子区红旗中路143号1层4号,大连,大连红旗兴达房地产开发有限公司,甘井子,20190614,38.93169566676921,121.5426632438217,吉祥街,5,11309,大连金诚物业管理有限公司,0.2,辽宁,2,二手房,1996
无门店信息,大连,大连光伸房地产开发有限公司,开发区,20190614,34.52713835999158,118.76812980670795,光伸卧龙港湾,20,9065,大连经济技术开发区光伸物业服务有限公司,1.5,辽宁,2,二手房,2015
沙河口区中山路417A-4号,大连,无开发商,沙河口,20190614,38.90740323140171,121.59484801084653,连华街,14,15981,无物业管理服务,-,辽宁,2,二手房,1995
西岗区绕山路31号公建一层东侧,大连,无开发商,西岗,20190614,38.90257514466717,121.61412736644739,槐花大厦,11,9299,无物业管理服务,-,辽宁,2,二手房,1997
甘井子区汇仁街19号12号楼1单元102室,大连,大连华南房地产开发有限公司,甘井子,20190614,38.99746297497168,121.58917714380617,名贵山庄华夏园,8,13919,大连弘益达物业管理有限公司,0.5,辽宁,2,二手房,2004
开发区东北三街94号1层,大连,大连同济房地产开发有限公司,开发区,20190614,39.05723508011585,121.80570768630555,新东方公寓二期,49,5641,大连同济物业管理有限公司,1.5,辽宁,2,二手房,2007
无门店信息,大连,大连泰达新城建设发展有限公司,甘井子,20190614,34.52713835999158,118.76812980670795,泰达青筑,25,11628,大连三和住邦物业管理有限公司,2.2,辽宁,2,二手房,2015
中山区华乐街71号公建,大连,暂无信息,中山,20190614,38.923187679200566,121.6843197903016,东港印象A区,15,19499,大连众和物业管理有限公司,1.2,辽宁,2,二手房,2008
甘井子区鹏辉新世纪1幢1单元1-3号房屋（海口路99号）,大连,暂无信息,甘井子,20190614,38.96077365187575,121.60514653016222,鹏辉新世纪三期北园,25,16659,大连鹏辉物业管理有限公司,0.6,辽宁,2,二手房,2003
中山区武昌街武昌公寓6号公建,大连,无开发商,中山,20190614,38.912280913445784,121.64921130527547,气象街,20,21720,街道办事处（居委会）代管物业,0.5,辽宁,2,二手房,1989
甘井子区华北路花锦园28号23-3-1-2建筑物,大连,无开发商,甘井子,20190614,38.951627958411166,121.5739439799003,久胜街,19,16358,街道办事处（居委会）代管物业,0.1,辽宁,2,二手房,1989
金州区拥政街道733号-8号1-2层,大连,大连千川房地产有限公司,金州,20190614,39.11690610445662,121.73030803603723,湖畔嘉园,21,10761,大连千川物业管理有限公司,3.8,辽宁,2,二手房,2007
无门店信息,大连,大连融和房地产开发有限公司,开发区,20190614,34.52713835999158,118.76812980670795,岚山著作,34,9632,大连昌和物业管理有限公司,1.3,辽宁,2,二手房,2014
甘井子区榆水街6-9号公建,大连,大连弘润置业有限公司,甘井子,20190614,38.97957540063716,121.52458567456938,万科城市之光,56,21922,大连万科物业服务有限公司,2.8,辽宁,2,二手房,2015
金州区拥政街道733号-8号1-2层,大连,无开发商,金州,20190614,39.11690610445662,121.73030803603723,古城甲区,121,7633,街道办事处（居委会）代管物业,0.5,辽宁,2,二手房,1990
甘井子辛吉街150号-7号,大连,大连新星房地产开发有限公司,甘井子,20190614,38.96368508446978,121.52671221254214,新星绿城一期,33,12082,大连生生物业管理有限公司,0.5,辽宁,2,二手房,2003
沙河口区五四路207-1-9号,大连,无开发商,沙河口,20190614,38.913544290955585,121.59450670056631,五四路,15,12261,无物业管理服务,-,辽宁,2,二手房,1992
金州区凤翔路220号,大连,大连经济技术开发区银海开发置业有限公司,金州,20190614,39.08410553937731,121.77700083356399,达赫山庄,21,12175,街道办事处（居委会）代管物业,0.5,辽宁,2,二手房,2009
开发区东北三街94号1层,大连,开发区城建局,开发区,20190614,39.05723508011585,121.80570768630555,倚园里小区,58,7628,大连佳兴物业管理有限公司,0.3,辽宁,2,二手房,1999
大连市金州新区友谊街道和平路59-10号1-2层公建,大连,大连金连房地产开发有限公司,金州,20190614,39.112168401852266,121.72006917947859,金连佳地,20,11125,街道办事处（居委会）代管物业,1.5,辽宁,2,二手房,2010
西岗区胜利路33号,大连,大连恒盛房屋开发有限公司,西岗,20190614,38.91309771954841,121.62500886627636,盛阳山庄,9,11298,大连佳捷物业管理有限公司,0.5,辽宁,2,二手房,1999
中山区华乐街107-115号,大连,大连复城置业有限公司,中山,20190614,38.92093821499401,121.68879267531725,星光耀广场,15,23549,上海复瑞物业管理有限公司大连分公司,4.8,辽宁,2,二手房,2015
中山区南山路59号1层4号,大连,无开发商,中山,20190614,38.91992239075882,121.6479206962747,同心街（昆明街）,8,15779,无物业管理服务,-,辽宁,2,二手房,1991
中山区高尚路28-1号,大连,无开发商,中山,20190614,38.892673425111305,121.67148833870213,高原街,25,10259,街道办事处（居委会）代管物业,0.5,辽宁,2,二手房,1996
金州区南棉路310号,大连,暂无信息,金州,20190614,39.09939229372624,121.72414976100345,环保小区,18,7219,街道办事处（居委会）代管物业,0.5,辽宁,2,二手房,1990
高新园区书香街1A#1-1-2,大连,大连金弘基房地产开发有限公司,高新园区,20190614,38.880372108393104,121.55218773010999,弘基一期,23,20826,大连金弘基物业管理有限公司,0.6,辽宁,2,二手房,2001
甘井子区红旗中路143号1层4号,大连,亿海房地产开发有限公司,甘井子,20190614,38.93169566676921,121.5426632438217,水苑居,12,16340,大连万泰物业管理有限公司,0.6,辽宁,2,二手房,2003
无门店信息,大连,暂无信息,开发区,20190614,34.52713835999158,118.76812980670795,十里岗小区,56,5870,大连经济技术开发区盛辉物业服务有限公司,0.5,辽宁,2,二手房,1996
高新园区火炬路18号,大连,大连海创房地产开发有限公司,高新园区,20190614,38.937738080520404,117.39340752036043,芝麻街,58,14115,大连海创物业管理有限公司,2.4,辽宁,2,二手房,2010
甘井子区华龙南园34-5号34-库4号34-5号,大连,中信集团大连中信房地产开发公司,甘井子,20190614,38.98270467597865,121.6117222765123,惠丰小区,26,10001,大连中信物业管理有限公司,0.2,辽宁,2,二手房,1989
沙河口区长江路738号,大连,大连大和中盛房地产有限公司,西岗,20190614,38.913544290955585,121.59450670056631,颐和香榭,44,29065,大连颐和物业管理有限公司,2.5,辽宁,2,二手房,2008
甘井子区华北路花锦园28号23-3-1-2建筑物,大连,大连东特房地产开发有限公司,甘井子,20190614,38.951627958411166,121.5739439799003,东特金星公馆,32,16191,大连东特祥禾物业管理有限公司,1.2,辽宁,2,二手房,2009
大连市开发区湾里东5-6号,大连,大连德玉隆房地产开发有限公司,开发区,20190614,39.07275772231556,121.85888789351343,康馨壹品,46,11066,大连亚航物业管理有限公司,1,辽宁,2,二手房,2014
甘井子区虹港路391号第五幢1单元1跃2层3号,大连,暂无信息,甘井子,20190614,38.96606635942528,121.53201387432493,商务学院,14,12830,亿达物业管理有限公司,0.5,辽宁,2,二手房,1996
甘井子辛吉街150号-7号,大连,大连新星房地产开发有限公司,甘井子,20190614,38.96368508446978,121.52671221254214,新星绿城二期,21,13097,大连生生物业管理有限公司,0.5,辽宁,2,二手房,2005
开发区东北三街94号1层,大连,鑫鸿房地产开发公司,开发区,20190614,39.05723508011585,121.80570768630555,雍景国际,38,6430,街道办事处（居委会）代管物业,1.2,辽宁,2,二手房,2002
高新园区火炬路18号,大连,大连千业房地产开发有限公司,高新园区,20190614,38.937738080520404,117.39340752036043,第8区,37,17585,大连大管家物业管理有限公司,1.9,辽宁,2,二手房,2012
开发区小孤山西里3栋-11号,大连,大连开发区世元房地产开发有限公司,开发区,20190614,39.02715282297674,121.80682183666346,东庭印象,29,10062,大连经济技术开发区鹏达物业管理有限公司,1.2,辽宁,2,二手房,2007
西岗区八一路102号,大连,无开发商,西岗,20190614,38.92047268927287,121.61862512554262,智勇西二巷,11,9988,无物业管理服务,-,辽宁,2,二手房,1993
沙河口区西南路643号,大连,大连澳南房屋开发公司,沙河口,20190614,38.943483429804665,121.5833555851182,金福小区,13,11240,无物业管理服务,-,辽宁,2,二手房,2000
甘井子区祥龙街2号楼1单元1楼1号,大连,大连源隆房地产开发有限公司,甘井子,20190614,38.988045874482445,121.60439401971377,鑫汇茗苑,12,16899,大连佳和物业管理有限公司,1.6,辽宁,2,二手房,2011
中山区共建巷61号,大连,无开发商,中山,20190614,38.91828093658718,121.66259221532148,39中望海街,12,25842,街道办事处（居委会）代管物业,0.5,辽宁,2,二手房,1995
甘井子区柳树南街45-11号,大连,中海新海汇（大连）置业有限公司,甘井子,20190614,38.92567666296449,121.4841330254372,中海御湖熙谷,71,15124,大连中海物业管理有限公司,2.2,辽宁,2,二手房,2014
高新园区海苑街36号1单元2号公建,大连,千汇德（大连）置业有限公司,高新园区,20190614,20.06392317589085,110.32302599457326,哈佛映像,17,18842,大连千汇德物业管理有限公司,1.2,辽宁,2,二手房,2009
金州新区八一路金都嘉园1号楼1号公建,大连,大连友谊合升房地产开发有限公司,金州,20190614,39.05525210261778,121.74865634199398,宏意小区,57,7289,大连天河物业管理有限公司,0.4,辽宁,2,二手房,2009
中山区共建巷61号,大连,无开发商,中山,20190614,38.91828093658718,121.66259221532148,39中明泽街,16,23422,无物业管理服务,-,辽宁,2,二手房,1993
中山区岭前街53-5,大连,大连铭泰房地产开发有限公司,中山,20190614,38.89487069426055,121.65795959631497,锦府桃源,19,24150,大连豪之英物业管理有限公司,1.2,辽宁,2,二手房,2009
中山区山屏街116号1-1,大连,无开发商,中山,20190614,38.90729438486833,121.68598159980013,山屏东街,16,11759,无物业管理服务,-,辽宁,2,二手房,1990
高新园区聚贤路36号5幢1单元1层1号,大连,大连海创房地产开发有限公司,高新园区,20190614,32.31472011562832,119.46141263909165,海创半山壹号,60,17215,大连海创物业管理有限公司,1.8,辽宁,2,二手房,2011
沙河口区新生路万客园3-7,大连,暂无信息,沙河口,20190614,38.94412875710208,121.57006756704837,中海天赋山二期,21,19730,大连中海物业管理有限公司,2.8,辽宁,2,二手房,2017
大连市金州新区中长街道碧海尚城5-4号1-2层,大连,无开发商,金州,20190614,39.100290954587514,121.7304796052032,于洼小区,68,7267,街道办事处（居委会）代管物业,0.1,辽宁,2,二手房,1990
无门店信息,大连,大连金州金德房地产开发有限公司,金州,20190614,34.52713835999158,118.76812980670795,新辉小区,63,7196,大连市金州金德物业管理有限公司,0.5,辽宁,2,二手房,2005
大连市甘井子区逸林南园1-1号,大连,暂无信息,甘井子,20190614,38.95800216293212,121.53151895549547,三鼎春天B区,43,27791,瑞联德（大连）物业管理有限公司,3.2,辽宁,2,二手房,2015
金州区同济路44号,大连,大连新界置业有限公司,金州,20190614,39.10476859984152,121.71234684495865,新青年印象,68,7784,大连新青年物业管理有限公司,1.3,辽宁,2,二手房,2014
西岗区黄河路82号,大连,大连富泰房地产开发有限公司,西岗,20190614,38.92243503020161,121.6287927913896,悦泰福里,27,21987,大连百安物业管理有限公司,2.8,辽宁,2,二手房,2014
沙河口区联合路133号,大连,大连新型房地产开发有限公司,沙河口,20190614,38.91608561262676,121.60480987310456,21中联德小区,5,21601,大连新型物业管理有限公司,0.5,辽宁,2,二手房,1998
无门店信息,大连,大连安邦房地产开发有限公司,甘井子,20190614,34.52713835999158,118.76812980670795,西郊闲庭,22,12586,大连龙城物业服务有限公司,1,辽宁,2,二手房,2010
中山区武昌街武昌公寓6号公建,大连,大连中盛集团有限公司,中山,20190614,38.912280913445784,121.64921130527547,武昌花园,10,12956,无物业管理服务,0.3,辽宁,2,二手房,1990
沙河口区华北路404号,大连,无开发商,沙河口,20190614,38.8862815932937,121.59082948696123,华北路（春柳商圈）,11,10744,街道办事处（居委会）代管物业,0.1,辽宁,2,二手房,1981
高新园区黄浦路901S号1单元1层3号,大连,大连金真源集团房地产开发有限公司,高新园区,20190614,38.85845801548294,121.51687109601923,山海一家二期,28,14032,大连龙海物业管理有限公司,0.8,辽宁,2,二手房,2005
无门店信息,大连,暂无信息,旅顺口,20190614,34.52713835999158,118.76812980670795,熙龙山庄,86,8404,大连市辰馨物业服务有限公司,1,辽宁,2,二手房,2005
沙河口区五一路110-4号,大连,大连大重房屋开发有限公司,沙河口,20190614,38.913544290955585,121.59450670056631,星台花园一期,33,16088,大连大重房屋开发公司物业管理中心,-,辽宁,2,二手房,1998
金州区光明街道育才街42-6号1-2层,大连,无开发商,金州,20190614,39.109080894078986,121.7182584929096,味食小区,22,7967,大连大众物业管理有限公司,0.5,辽宁,2,二手房,1988
甘井子区虹港路16号楼1层公建,大连,大连祥盛房屋开发有限公司,甘井子,20190614,38.9645939333502,121.553851837474,祥和新家园,14,15187,大连东特祥禾物业管理有限公司,0.5,辽宁,2,二手房,2002
中山区爱华街13号,大连,大连华鹏房地产有限公司,中山,20190614,38.92541607518685,121.6535728031028,海派优座,14,15901,第一东方（大连）物业服务有限公司,2.5,辽宁,2,二手房,2008
开发区润海园中区62-9,大连,暂无信息,开发区,20190614,39.04047273176333,121.76392358042445,大连海湾城二期,44,13370,大连金广物业服务有限公司,2.6,辽宁,2,二手房,2012
沙河口区连山街10号2-1-2,大连,大连城市建设集团有限公司,沙河口,20190614,38.89637522563413,121.57143690983219,莱州街,35,11051,无物业管理服务,-,辽宁,2,二手房,1990
西岗区香炉礁24号1-1,大连,中瑞置业（大连）有限公司,西岗,20190614,38.92047268927287,121.61862512554262,香周首府,75,19426,中融物业管理有限公司,3,辽宁,2,二手房,2014
甘井子区甘井子路32号楼1单元1楼9号,大连,大连和华房地产开发有限公司,甘井子,20190614,38.982488275116516,121.63345389253514,万成御园,12,14423,大连银力物业管理有限公司,1.3,辽宁,2,二手房,2015
甘井子区华北路花锦园28号23-3-1-2建筑物,大连,大连东特房地产开发有限公司,甘井子,20190614,38.951627958411166,121.5739439799003,星加坡花园,23,18206,大连东特祥禾物业管理有限公司,0.6,辽宁,2,二手房,2004
西岗区九三街64号,大连,大连金福星房地产开发有限公司,西岗,20190614,38.92047268927287,121.61862512554262,金福星大厦,7,8612,大连金星物业管理中心,2.2,辽宁,2,二手房,2001
西岗区长红街4号1号公建,大连,暂无信息,西岗,20190614,38.91377414665191,121.6302525225721,34中长红街,28,24633,无物业管理服务,-,辽宁,2,二手房,1990
无门店信息,大连,大连北方工业房屋开发公司,西岗,20190614,34.52713835999158,118.76812980670795,温馨花园（胜利桥北商圈）,3,10960,北方物业开发有限公司,0.5,辽宁,2,二手房,2000
大连市甘井子中华路街道汇畅街48号,大连,大连嘉盈置业有限公司,甘井子,20190614,39.0059299196697,121.59621871231741,宏都熙景,35,22355,大连宏都物业管理有限公司,2.3,辽宁,2,二手房,2016
甘井子区锦城西园4#3-1-1,大连,大连锦绣房地产开发有限公司,沙河口,20190614,38.95286223185571,121.55129044777,锦华北园,81,14038,大连锦绣物业管理有限公司,0.6,辽宁,2,二手房,2002
沙河口区连山街10号2-1-2,大连,无开发商,沙河口,20190614,38.89637522563413,121.57143690983219,连山街,8,14382,街道办事处（居委会）代管物业,0.5,辽宁,2,二手房,1993
大连市金州区友谊街道南金华城25号1-2层1号,大连,大连金华房地产开发有限公司,金州,20190614,39.128677228885614,121.71356109978767,金华小区二期,39,8216,大连金华兴物业有限公司,0.5,辽宁,2,二手房,2006
沙河口区黄浦路18号—5号公建,大连,大连良运房地产开发有限公司,高新园区,20190614,38.8771225143479,121.54427480390662,翰林观海,27,22733,大连良运物业管理有限公司,0.8,辽宁,2,二手房,2003
中山区华乐街71号公建,大连,大连环海房地产开发有限公司,中山,20190614,38.923187679200566,121.6843197903016,华乐小区,17,14448,大连景和物业管理有限公司,0.5,辽宁,2,二手房,2000
无门店信息,大连,大连鲁能置业有限公司,金州,20190614,34.52713835999158,118.76812980670795,鲁能优山美地,87,11325,长城物业集团股份有限大连分公司,1.9,辽宁,2,二手房,2013
中山区华乐街71号公建,大连,大连中银房地产开发有限公司,中山,20190614,38.923187679200566,121.6843197903016,澳景园,35,17752,大连衡德物业管理有限公司,1,辽宁,2,二手房,2003
沙河口区昌黎街77号楼第1层公建,大连,大连城市建设集团有限公司,沙河口,20190614,38.91974518366595,121.5902918379551,79中君安公寓,10,18039,大连广安物业有限公司,1.2,辽宁,2,二手房,1998
沙河口区星海广场B3区14-2号1层,大连,大连友谊合升房地产开发有限公司,沙河口,20190614,38.88693148294673,121.58735631267305,壹品星海一期,56,23338,大连友谊物业服务有限公司,1.3,辽宁,2,二手房,2005
西岗区新田巷27号1-2,大连,无开发商,西岗,20190614,38.893215932589385,121.64103065169111,新秀街（新起屯商圈）,9,10576,无物业管理服务,-,辽宁,2,二手房,1992
西岗区康平街2号（5号楼3-1-3号）,大连,暂无信息,西岗,20190614,38.91044414697888,121.61980769264477,34中民众街,19,28505,无物业管理服务,-,辽宁,2,二手房,1990
沙河口区星海广场B3区14-2号1层,大连,大连万达房地产开发有限公司,沙河口,20190614,38.88693148294673,121.58735631267305,大连明珠,72,26727,大连万象美物业管理有限公司,3.5,辽宁,2,二手房,2008
甘井子区山东路137号,大连,大连新型房地产开发有限公司,甘井子,20190614,38.99129404608926,121.59172125999353,华南花园,31,13429,大连天洋物业管理有限公司,0.3,辽宁,2,二手房,1990
高新园区火炬路18号,大连,大连奥泰房地产开发有限公司,高新园区,20190614,38.937738080520404,117.39340752036043,因特摩尔,55,17990,大连奥泰物业服务有限公司,2.6,辽宁,2,二手房,2011
沙河口区红凌路137号,大连,大连大实企业集团房屋开发有限公司,甘井子,20190614,38.922699288974506,121.54713601744747,叠翠骏景,15,12418,大连弘实物业管理有限公司,0.4,辽宁,2,二手房,2004
无门店信息,大连,无开发商,金州,20190614,34.52713835999158,118.76812980670795,金山名苑,17,9639,大连金山物业管理有限公司,0.5,辽宁,2,二手房,2009
沙河口区西南路40号楼,大连,无开发商,沙河口,20190614,38.94143337232082,121.58616557598133,杭州街,17,12209,无物业管理服务,-,辽宁,2,二手房,1990
西岗区平等街21号1层2号,大连,辽宁宁安房地产开发有限公司,西岗,20190614,38.92251066253164,121.63236845125735,良玖国际,34,16244,大连良玖物业管理有限责任公司,3.7,辽宁,2,二手房,2005
金州区同济路44号,大连,大连永乐房地产开发有限公司,金州,20190614,39.10476859984152,121.71234684495865,永乐金庭,36,9955,大连天河物业管理有限公司,0.8,辽宁,2,二手房,2006
经济技术开发区城润万家4-5号公建,大连,诠盛置业（大连）有限公司,开发区,20190614,39.05716325096989,121.75946281983826,清都记忆,45,12327,金科物业服务集团有限公司,0.5,辽宁,2,二手房,2013
无门店信息,大连,大连宝泰华置业发展有限公司,金州,20190614,34.52713835999158,118.76812980670795,海天富地,36,12799,大连戴德梁行物业管理有限公司,1.6,辽宁,2,二手房,2012
甘井子区芳韵街31号,大连,亿达集团大连房地产开发有限公司,甘井子,20190614,38.95628814568166,121.59125586946814,亿达世纪城,57,24372,亿达物业管理有限公司,0.9,辽宁,2,二手房,2002
中山区东港龙湖水晶郦湾7-102,大连,大连德威佳业投资有限公司,中山,20190614,38.924700620463895,121.70344398518496,东港天鹅湾,97,27783,哈尔滨德润物业管理有限公司大连分公司,4.8,辽宁,2,二手房,2018
甘井子区凌秀路37号-1链家地产,大连,无开发商,高新园区,20190614,38.883794285403965,121.52361997548515,海事附小,11,13435,街道办事处（居委会）代管物业,0.5,辽宁,2,二手房,1990
沙河口区连山街44-2号半地下一层（地上一层部分）,大连,大连宏都房地产开发有限公司,沙河口,20190614,38.892991456958086,121.57299542767161,宏都筑景Ⅱ期,9,26233,东方百瑞物业有限公司,1.8,辽宁,2,二手房,2012
沙河口区黑石礁街5号1层1号,大连,大连鹏生房地产开发有限公司,沙河口,20190614,38.879813345473714,121.56313742300513,鹏莱花园,13,14874,大连新兴物业管理有限公司,0.3,辽宁,2,二手房,1998
天河路173-2号 华润考拉22号公建,大连,大连华南房地产开发有限公司,甘井子,20190614,23.14720645345518,113.3277414923158,名贵山庄华丽园,17,13581,大连弘益达物业管理有限公司,0.5,辽宁,2,二手房,2002
西岗区新田巷27号1-2,大连,无开发商,西岗,20190614,38.893215932589385,121.64103065169111,新丽街,14,9651,无物业管理服务,-,辽宁,2,二手房,1992
开发区黄海西路201号107公建,大连,大连中信海港投资有限公司,开发区,20190614,39.04942604506828,121.80126318235419,润泽园小区,57,9676,大连新华物业管理有限公司,1.2,辽宁,2,二手房,2010
中山区中青街87号一单元107,大连,无开发商,中山,20190614,38.90213494248529,121.65806522267005,中青街,4,15676,无物业管理服务,-,辽宁,1,二手房,1996
金州区拥政街道733号-8号1-2层,大连,无开发商,金州,20190614,39.11690610445662,121.73030803603723,花园小区,23,8285,大连四通物业管理有限公司,0.1,辽宁,2,二手房,1993
中山区北斗街53号1层1号,大连,暂无信息,中山,20190614,38.92727355733075,121.67002970974048,温州城,0,8748,暂无信息,-,辽宁,1,二手房,-
沙河口区西南路851号3单元1层3号,大连,暂无信息,沙河口,20190614,38.94344210837944,121.58246796944378,学工街,4,9541,大连新兴物业管理有限公司,0.3,辽宁,1,二手房,1993
中山区同心街72号1楼公建,大连,无开发商,中山,20190614,38.91979245940674,121.64769198230202,胜利东路,0,15082,无物业管理服务,-,辽宁,1,二手房,1988
中山区中青街87号一单元107,大连,无开发商,中山,20190614,38.90213494248529,121.65806522267005,光华巷,4,10943,无物业管理服务,-,辽宁,1,二手房,1990
中山区解放路471-22号,大连,无开发商,中山,20190614,38.901309943567504,121.65419095766659,广兴巷,5,12442,街道办事处（居委会）代管物业,-,辽宁,1,二手房,1990
沙河口区锦江园30号1层公建,大连,暂无信息,沙河口,20190614,38.949985113183935,121.56560955976859,锦江园南松路,4,11591,绿城物业服务集团有限公司大连分公司,0.2,辽宁,1,二手房,2001
中山区武昌街武昌公寓6号公建,大连,无开发商,中山,20190614,38.912280913445784,121.64921130527547,绿山巷,1,15488,无物业管理服务,-,辽宁,1,二手房,1986
中山区共建巷61号,大连,大连东帝房地产开发有限公司,中山,20190614,38.91828093658718,121.66259221532148,南山2009,1,28171,无物业管理服务,-,辽宁,1,二手房,2010
中山区三八广场5号,大连,大连宏正房地产开发有限公司,中山,20190614,38.92540000551715,121.6642911149562,宏都嘉园,1,22368,大连宏进物业管理有限公司,1.5,辽宁,1,二手房,2002
中山区爱华街13号,大连,无开发商,中山,20190614,38.92541607518685,121.6535728031028,邮电公寓,4,10578,无物业管理服务,-,辽宁,1,二手房,1999
沙河口区联合路133号,大连,亿达集团大连房地产开发有限公司,沙河口,20190614,38.91608561262676,121.60480987310456,21中亿达广场,2,21518,亿达物业管理有限公司,1.2,辽宁,1,二手房,1999
沙河口区五四路207-1-9号,大连,暂无信息,沙河口,20190614,38.913544290955585,121.59450670056631,海印长城,1,24981,暂无信息,-,辽宁,1,二手房,2010
中山区南山路59号1层4号,大连,无开发商,中山,20190614,38.91992239075882,121.6479206962747,南山路（昆明街商圈）,0,18889,无物业管理服务,-,辽宁,1,二手房,1982
大连市沙河口区西南路875号1层21号,大连,暂无信息,沙河口,20190614,38.94485969061231,121.58418648447764,凌云一街,0,9602,暂无信息,-,辽宁,1,二手房,-
甘井子区金北街17号,大连,大连悦泰集团有限公司,甘井子,20190614,38.95800216293212,121.53151895549547,悦泰馨家,27,25332,大连优豪斯物业管理有限公司,0.5,辽宁,2,二手房,2003
中山区解放路471-22号,大连,暂无信息,中山,20190614,38.901309943567504,121.65419095766659,青云公寓,1,9191,暂无信息,1,辽宁,1,二手房,1990
开发区黄海西路201号107公建,大连,大连开建房地产开发有限公司,开发区,20190614,39.04942604506828,121.80126318235419,芙蓉花园(开发区),42,6959,嘉兴物业管理有限公司,0.4,辽宁,2,二手房,2001
中山区鲁迅路204号百盛新药特药商店一楼西侧部分,大连,暂无信息,中山,20190614,38.9258993614899,121.6768880001226,华山街,0,10335,无物业管理服务,-,辽宁,1,二手房,-
无门店信息,大连,大连盈丰置业有限公司,金州,20190614,34.52713835999158,118.76812980670795,尚海华庭,35,9183,大连盈丰置业有限公司,1.3,辽宁,2,二手房,2014
开发区湾里南12栋-16-17-18号,大连,开发区城建局,开发区,20190614,39.070782084451,121.8506739675913,宜宁里,54,5997,大连宏港物业管理有限公司,0.2,辽宁,2,二手房,1992
沙河口区富国街14号1-1-2,大连,无开发商,沙河口,20190614,38.901027106600836,121.59047734850638,西安路（和平广场商圈）,3,13172,无物业管理服务,-,辽宁,1,二手房,1996
无门店信息,大连,暂无信息,金州,20190614,34.52713835999158,118.76812980670795,金馨园一区,2,6806,暂无信息,-,辽宁,1,二手房,-
开发区松苑街23号,大连,大连神洲众益集团有限公司,开发区,20190614,22.52087435807652,113.40156105086167,松海里小区,3,11526,无物业管理服务,0.5,辽宁,1,二手房,2000
甘井子区祥龙街2号楼1单元1楼1号,大连,无开发商,甘井子,20190614,38.988045874482445,121.60439401971377,金荣路,7,12393,无物业管理服务,-,辽宁,1,二手房,1990
沙河口区五一路110-4号,大连,大连市中联房地产开发有限公司,沙河口,20190614,38.913544290955585,121.59450670056631,星海中龙园,19,20577,大连斌弘物业管理有限公司,0.6,辽宁,1,二手房,2004
沙河口区中山路417A-4号,大连,无开发商,沙河口,20190614,38.90740323140171,121.59484801084653,太原街,5,11778,无物业管理服务,-,辽宁,1,二手房,1992
中山区杏林街66—5号,大连,无开发商,中山,20190614,38.92572771377599,121.66490555592502,39中丰阳巷,5,29214,街道办事处（居委会）代管物业,0.5,辽宁,1,二手房,1995
甘井子区凌秀路37号-1链家地产,大连,大连汇基房地产开发有限公司,高新园区,20190614,38.883794285403965,121.52361997548515,学仕名府,15,20013,大连意美物业服务有限公司,2.4,辽宁,1,二手房,2014
沙河口区锦江园30号1层公建,大连,暂无信息,沙河口,20190614,38.949985113183935,121.56560955976859,锦江园绿莲街,10,10943,绿城物业服务集团有限公司大连分公司,0.2,辽宁,1,二手房,2001
沙河口区南沙街36号台二2号1-1-37,大连,大连三寰房屋开发有限公司,沙河口,20190614,38.90741410359388,121.57685699961822,南平花园,8,18318,大连上达物业管理有限公司,0.3,辽宁,1,二手房,2001
莲花山路89-3号,大连,大连铁路房地产开发有限责任公司,西岗,20190614,38.902848261803356,121.6041720815823,新华小区(西岗),12,13384,大连铁路物业管理有限公司,0.3,辽宁,1,二手房,1998
沙河口区黄河路883号,大连,大连亿达房地产股份有限公司,沙河口,20190614,38.919826721475204,121.57749657966676,亿达学苑,8,19699,亿达物业管理有限公司,0.7,辽宁,1,二手房,2003
甘井子区汇仁街19号12号楼1单元102室,大连,大连华南房地产开发有限公司,甘井子,20190614,38.99746297497168,121.58917714380617,名贵山庄华彩园,8,14160,大连弘益达物业管理有限公司,0.5,辽宁,1,二手房,2004
甘井子区促进路30号2-1-1,大连,大连大骏达房地产开发有限公司,甘井子,20190614,38.954133128707575,121.58355746311207,骏达绅士花园,2,18774,大连骏达物业管理有限公司,1.7,辽宁,1,二手房,2012
沙河口区知心园10号公建,大连,亿达房地产开发有限公司,高新园区,20190614,38.893977135945136,121.55667141994431,亿达康派,6,18894,亿达物业管理有限公司,1.5,辽宁,1,二手房,2006
中山区北斗街53号1层1号,大连,无开发商,中山,20190614,38.92727355733075,121.67002970974048,北斗街（二七商圈）,4,14020,无物业管理服务,-,辽宁,1,二手房,1990
大连市沙河口区黄河路729号,大连,大连盛佳房地产开发有限公司,沙河口,20190614,38.91710565765228,121.58954758972729,城市佳园,9,20038,街道办事处（居委会）代管物业,1,辽宁,1,二手房,2004
甘井子区华东路22号公建,大连,暂无信息,甘井子,20190614,38.97736184953593,121.5935814234334,经一街,1,11512,无物业管理服务,-,辽宁,1,二手房,1993
金州区光明街道育才街42-6号1-2层,大连,大连市金州区光明房地产开发有限公司,金州,20190614,39.109080894078986,121.7182584929096,学府世家,2,11598,大连永和物业管理有限公司,1.2,辽宁,1,二手房,2011
中山区武昌街武昌公寓6号公建,大连,无开发商,中山,20190614,38.912280913445784,121.64921130527547,铁山巷（南山商圈）,3,13288,街道办事处（居委会）代管物业,1,辽宁,1,二手房,1990
"西岗区泰公街20号2层7号 西岗区久寿街22号1层14号""",大连,无开发商,西岗,20190614,38.92600196862723,121.62141976476381,银华双厦,7,11007,无物业管理服务,-,辽宁,1,二手房,1999
中山区共建巷61号,大连,暂无信息,中山,20190614,38.91828093658718,121.66259221532148,山林街（三八商圈）,2,25944,无物业管理服务,-,辽宁,1,二手房,1990
"西岗区泰公街20号2层7号 西岗区久寿街22号1层14号""",大连,大连安大房屋开发有限公司,西岗,20190614,38.92600196862723,121.62141976476381,万达公寓,4,9676,庄河金城物业管理有限公司,0.8,辽宁,1,二手房,1997
沙河口区五四路207-1-9号,大连,无开发商,沙河口,20190614,38.913544290955585,121.59450670056631,新生巷,1,12325,街道办事处（居委会）代管物业,0.5,辽宁,1,二手房,-
沙河口区华新苑10号楼4号公建,大连,大连新型房地产开发有限公司,沙河口,20190614,38.94033750532864,121.58990295130229,华新苑,8,13665,大连新型物业管理有限公司,0.5,辽宁,1,二手房,2003
沙河口区富静街26号1单元1层5号,大连,大连远东房屋开发有限公司,沙河口,20190614,38.908727606250466,121.58667844684369,世嘉星海,34,27672,大连瑞信物业管理有限公司,1.6,辽宁,1,二手房,2007
中山区杏林街66—5号,大连,无开发商,中山,20190614,38.92572771377599,121.66490555592502,39中安民街（三八广场）,7,25946,街道办事处（居委会）代管物业,6,辽宁,1,二手房,1995
甘井子区海口路77—5号,大连,暂无信息,甘井子,20190614,38.960286398428124,121.60305183172997,八十中汉德花园,13,14434,街道办事处（居委会）代管物业,0.3,辽宁,1,二手房,2000
甘井子区泉水H3区15号3单元1层2号,大连,大连新型房地产开发有限公司,甘井子,20190614,39.00158439075201,121.62616882572375,龙畔金泉一期,10,10969,大连新型物业管理有限公司,0.5,辽宁,1,二手房,2002
金州新区八一路金都嘉园1号楼1号公建,大连,无开发商,金州,20190614,39.05525210261778,121.74865634199398,老街坊小区,16,8662,街道办事处（居委会）代管物业,0.5,辽宁,1,二手房,1997
中山区武昌街武昌公寓6号公建,大连,无开发商,中山,20190614,38.912280913445784,121.64921130527547,合力巷,4,11326,无物业管理服务,-,辽宁,1,二手房,1980
甘井子区千山路66号楼2单元1楼2号,大连,暂无信息,甘井子,20190614,38.985716774397915,121.58287796391829,蓝天小区,7,12308,大连新华物业管理有限公司,-,辽宁,1,二手房,1993
中山区民建街10号1单元1号,大连,无开发商,中山,20190614,38.925444479476894,121.66915026954452,39中鲁迅路（三八广场）,1,20250,无物业管理服务,-,辽宁,1,二手房,1995
中山区共建巷61号,大连,大连新型房地产开发总公司,中山,20190614,38.91828093658718,121.66259221532148,南山苑,11,33381,大连新型物业管理有限公司,1.5,辽宁,1,二手房,1990
沙河口区黑石礁街3号1层1-1号,大连,无开发商,沙河口,20190614,38.880058010307856,121.56313403908827,西村街,2,13193,无物业管理服务,-,辽宁,1,二手房,1990
甘井子区华东路33-5号,大连,暂无信息,甘井子,20190614,38.97497080220593,121.59479866243332,金源小区,6,14629,无物业管理服务,-,辽宁,1,二手房,2000
西岗区平等街21号1层2号,大连,无开发商,西岗,20190614,38.92251066253164,121.63236845125735,通江街（大菜市商圈）,9,11792,无物业管理服务,0.5,辽宁,1,二手房,1995
沙河口区兰田街33号,大连,无开发商,沙河口,20190614,38.926138912221084,121.56486022834609,兰玉小区,4,11173,街道办事处（居委会）代管物业,0.4,辽宁,1,二手房,1990
中山区高尚路28-1号,大连,无开发商,中山,20190614,38.892673425111305,121.67148833870213,高福街,9,10899,无物业管理服务,-,辽宁,1,二手房,1994
中山区华乐街71号公建,大连,大连众和房地产开发有限公司,中山,20190614,38.923187679200566,121.6843197903016,东港印象C区,7,23132,大连众和物业管理有限公司,1.2,辽宁,1,二手房,2008
中山区清溪南街11号,大连,大连澳南房屋开发有限公司,中山,20190614,38.88919604283904,121.66466481004835,清溪南苑,1,19376,大连中园房地产物业公司,0.6,辽宁,1,二手房,2003
中山区中南路226号,大连,万科中山置业有限公司,中山,20190614,38.90029610333926,121.68178899957817,万科中南府,2,28513,大连万科物业服务有限公司,5,辽宁,1,二手房,2018
西岗区长春路334号,大连,无开发商,西岗,20190614,38.89807766522607,121.63221082858387,石葵路（石道街商圈）,14,12252,街道办事处（居委会）代管物业,0.5,辽宁,1,二手房,1995
中山区碧浪园4号-3号,大连,大连铁路房地产开发有限责任公司,中山,20190614,38.89147289460474,121.69329560326236,山水家园二期,3,22218,大连铁道物业管理有限责任公司,0.5,辽宁,1,二手房,2003
甘井子区华北路花锦园28号23-3-1-2建筑物,大连,大连鼎新恒盛房地产开发有限公司,甘井子,20190614,38.951627958411166,121.5739439799003,鼎新悦府,7,24105,大连万润物业服务有限公司,1.5,辽宁,1,二手房,2012
西岗区绕山路31号公建一层东侧,大连,无开发商,西岗,20190614,38.90257514466717,121.61412736644739,绕云巷,7,9840,无物业管理服务,-,辽宁,1,二手房,1991
甘井子区华东路33-5号,大连,暂无信息,甘井子,20190614,38.97497080220593,121.59479866243332,小野田,9,12719,大连新华物业管理有限公司,-,辽宁,1,二手房,1993
中山区金城街26号一楼,大连,无开发商,中山,20190614,38.922282529515634,121.65214466263014,39中柳林街,6,24526,街道办事处（居委会）代管物业,-,辽宁,1,二手房,1992
西岗区八一路102号,大连,无开发商,西岗,20190614,38.92047268927287,121.61862512554262,智勇巷,6,11378,无物业管理服务,-,辽宁,1,二手房,1989
沙河口区西南路851号3单元1层3号,大连,无开发商,沙河口,20190614,38.94344210837944,121.58246796944378,凌山五街,2,11011,街道办事处（居委会）代管物业,0.3,辽宁,1,二手房,1990
西岗区平等街21号1层2号,大连,无开发商,西岗,20190614,38.92251066253164,121.63236845125735,兴业街（大菜市商圈）,5,11771,无物业管理服务,0.5,辽宁,1,二手房,1996
大连市金州新区中长街道碧海尚城5-4号1-2层,大连,无开发商,金州,20190614,39.100290954587514,121.7304796052032,金向山花园,6,7013,街道办事处（居委会）代管物业,0.5,辽宁,1,二手房,2000
中山区爱华街13号,大连,大连银河房地产开发有限公司,中山,20190614,38.92541607518685,121.6535728031028,银河公寓,5,9663,街道办事处（居委会）代管物业,-,辽宁,1,二手房,1996
金州区先进街道渤海街1-4号1-2层,大连,大连市金州区房屋开发公司,金州,20190614,39.09512910553563,121.74578812616167,鑫海阳光,10,8580,金州区物业管理有限公司,0.5,辽宁,1,二手房,2010
中山区金城街26号一楼,大连,暂无信息,中山,20190614,38.922282529515634,121.65214466263014,39中哈尔滨街,3,23952,无物业管理服务,-,辽宁,1,二手房,1990
经济技术开发区城润万家4-5号公建,大连,恒安房地产,开发区,20190614,39.05716325096989,121.75946281983826,中环嘉园,6,9644,大连大连开发区杰佳物业管理有限公司,0.5,辽宁,1,二手房,2001
莲花山路89-3号,大连,大连兴达房地产有限公司,西岗,20190614,38.902848261803356,121.6041720815823,香都花园,1,16675,大连香都物业管理有限公司,0.8,辽宁,1,二手房,1993
西岗区绕山路31号公建一层东侧,大连,大连胜利路拓宽改造工程建设有限公司,西岗,20190614,38.90257514466717,121.61412736644739,星海绿山城D区,14,21340,无物业管理服务,1.5,辽宁,1,二手房,2015
金州区南棉路310号,大连,大连阿尔滨集团房地产开发有限公司,金州,20190614,39.09939229372624,121.72414976100345,荣盛小区,10,8960,街道办事处（居委会）代管物业,1,辽宁,1,二手房,2009
甘井子区锦城西园4#3-1-1,大连,沈阳军区后勤部,甘井子,20190614,38.95286223185571,121.55129044777,金寓花园一期,4,16133,大连瑞祥物业管理有限公司,0.5,辽宁,1,二手房,2003
中山区解放路604号,大连,大连雅风房屋开发有限公司,中山,20190614,38.89026319122045,121.66407876092346,桃源旺座,6,18249,大连豪斯沃克物业有限公司,1,辽宁,1,二手房,2007
金州区同济路44号,大连,大连金州金山房地产开发有限公司,金州,20190614,39.10476859984152,121.71234684495865,金山苑小区,24,9079,大连金山物业管理有限公司,-,辽宁,1,二手房,2000
西岗区中山路158号唐山街市场外14号,大连,海运集团大连房屋开发有限公司,西岗,20190614,38.91688106727098,121.63201298398174,宝居佳苑,8,27033,大连城建开发集团物业管理有限公司,2,辽宁,1,二手房,2011
中山区华乐街71号公建,大连,大连新型房地产开发有限公司,中山,20190614,38.923187679200566,121.6843197903016,春海街,6,11122,无物业管理服务,-,辽宁,1,二手房,1992
沙河口区长江路946号-9,大连,无开发商,沙河口,20190614,38.913544290955585,121.59450670056631,城品城,11,18837,大连万景物业管理有限公司,2,辽宁,1,二手房,2010
西岗区黄河路82号,大连,无开发商,西岗,20190614,38.92243503020161,121.6287927913896,双兴街（大菜市商圈）,13,10730,街道办事处（居委会）代管物业,0.5,辽宁,1,二手房,1990
甘井子区惠泽南园3-7号,大连,大连利丰房地产开发有限公司,甘井子,20190614,38.939326611323615,121.52337842113351,国安宜居,8,18953,大连易明物业服务有限公司,2,辽宁,1,二手房,2014
西岗区长春路334号,大连,暂无信息,西岗,20190614,38.89807766522607,121.63221082858387,天源山庄缘中园,3,12120,大连弘益达物业管理有限公司,0.2,辽宁,1,二手房,2000
中山区中南路226号,大连,大连市建设控股有限公司,中山,20190614,38.90029610333926,121.68178899957817,欧洲小镇,12,17314,大连大众物业管理有限公司,0.8,辽宁,1,二手房,2004
中山区山屏街116号1-1,大连,暂无信息,中山,20190614,38.90729438486833,121.68598159980013,干休所,2,14867,街道办事处（居委会）代管物业,0.1,辽宁,1,二手房,1988
开发区红星海-B区89-1号,大连,远洋地产有限公司,开发区,20190614,39.027851194371685,121.80327394132297,红星海五期鼎墅,29,25911,大连远洋基业物业管理有限公司,4.8,辽宁,1,二手房,2012
中山区中南路店212号门头房,大连,大连鸿业房地产开发有限公司,中山,20190614,38.91149759691359,121.67700561077149,中南风景,14,17948,大连自然物业管理有限公司,0.8,辽宁,1,二手房,2004
中山区爱华街13号,大连,无开发商,中山,20190614,38.92541607518685,121.6535728031028,万民街（三八广场）,5,12573,无物业管理服务,-,辽宁,1,二手房,1993
无门店信息,大连,大连外贸集团开发公司,中山,20190614,34.52713835999158,118.76812980670795,山岭巷,11,12703,无物业管理服务,-,辽宁,1,二手房,1994
无门店信息,大连,中体产业集团大连乐百年置业有限公司,甘井子,20190614,34.52713835999158,118.76812980670795,中体九号院别墅,6,25258,广东中奥物业有限公司大连分公司,4.5,辽宁,1,二手房,2014
中山区高尚路28-1号,大连,大连海华房地产开发有限公司,中山,20190614,38.892673425111305,121.67148833870213,海贝花园,9,11470,街道办事处（居委会）代管物业,1,辽宁,1,二手房,1995
中山区中南路226号,大连,大连华钧房地产开发有限公司,中山,20190614,38.90029610333926,121.68178899957817,半山花园,4,12516,大连仁和物业管理有限公司,0.7,辽宁,1,二手房,2000
西岗区长春路334号,大连,无开发商,西岗,20190614,38.89807766522607,121.63221082858387,桥东巷,4,12008,无物业管理服务,-,辽宁,1,二手房,1995
沙河口区黄浦路18号—5号公建,大连,无开发商,高新园区,20190614,38.8771225143479,121.54427480390662,东电小区,15,14707,大连凌电物业管理有限公司,0.3,辽宁,1,二手房,1992
中山区鲁迅路184号1层B—A,大连,无开发商,中山,20190614,38.92590875965419,121.67594393403164,荣民街（二七商圈）,8,12536,无物业管理服务,-,辽宁,1,二手房,1999
中山区山屏街116号1-1,大连,无开发商,中山,20190614,38.90729438486833,121.68598159980013,怡梦园,6,15158,无物业管理服务,-,辽宁,1,二手房,1900
中山区解放路604号,大连,大连雅风房屋开发有限公司,中山,20190614,38.89026319122045,121.66407876092346,秀月风景,6,18984,大连风景物业管理有限公司,1,辽宁,1,二手房,1996
甘井子区华东路22号公建,大连,无开发商,甘井子,20190614,38.97736184953593,121.5935814234334,经四街,12,11822,街道办事处（居委会）代管物业,0.5,辽宁,1,二手房,1993
沙河口区西南路851号3单元1层3号,大连,大连振屹房屋开发有限公司,沙河口,20190614,38.94344210837944,121.58246796944378,柳馨家园,8,11103,街道办事处（居委会）代管物业,0.6,辽宁,1,二手房,2000
中山区爱华街13号,大连,大连鸿霖房地产开发有限公司,中山,20190614,38.92541607518685,121.6535728031028,鸿霖大厦,49,9271,大连凯立宏物业管理有限公司,3.2,辽宁,1,二手房,2004
金州区南棉路310号,大连,暂无信息,金州,20190614,39.09939229372624,121.72414976100345,光明现代城,6,7164,无物业管理服务,1,辽宁,1,二手房,2004
西岗区鞍山路65-5号,大连,大连华阳房地产开发有限公司,沙河口,20190614,38.926971569913064,121.60260230348328,华阳风尚,17,17602,北京凯莱物业管理有限公司大连分公司,1.3,辽宁,1,二手房,2009
西岗区鞍山路29号龙畔锦城东门,大连,大连铁龙房地产开发有限公司,西岗,20190614,38.92763470697088,121.61498923399098,北岗新居,19,15667,大连铁龙物业管理有限公司,0.5,辽宁,1,二手房,2002
无门店信息,大连,大连康阳房屋开发有限公司,甘井子,20190614,34.52713835999158,118.76812980670795,南岭新城二期,54,14574,大连鸿诚物业管理有限公司,0.4,辽宁,1,二手房,2005
西岗区八一路196号1-3,大连,无开发商,西岗,20190614,38.92047268927287,121.61862512554262,靠山巷,15,10702,无物业管理服务,-,辽宁,1,二手房,1990
沙河口区兰田街33号,大连,大连银地置业发展有限公司,沙河口,20190614,38.926138912221084,121.56486022834609,未来星城,16,17672,大连大力物业管理有限公司,0.5,辽宁,1,二手房,2004
沙河口区五四路207-1-9号,大连,大连建兴房屋开发有限公司,沙河口,20190614,38.913544290955585,121.59450670056631,建兴花园小区,8,12839,大连建兴物业管理有限公司,0.4,辽宁,1,二手房,1997
经济技术开发区红星海-A区81-2号1层,大连,远洋地产有限公司,开发区,20190614,39.027851194371685,121.80327394132297,红星海二期果岭墅,28,17681,大连远洋基业物业管理有限公司,3.5,辽宁,1,二手房,2012
甘井子区华龙南园34-5号34-库4号34-5号,大连,大连台安房屋开发有限公司,甘井子,20190614,38.98270467597865,121.6117222765123,台安274,8,11369,街道办事处（居委会）代管物业,0.5,辽宁,1,二手房,2009
西岗区鞍山路65-5号,大连,大连恒利房屋开发有限公司,沙河口,20190614,38.926971569913064,121.60260230348328,中长花园,9,13700,大连金星物业管理中心,0.5,辽宁,1,二手房,2000
甘井子区华东路22号公建,大连,大连盖特房地产开发有限公司,甘井子,20190614,38.97736184953593,121.5935814234334,盖特名园,6,11479,大连弘益达物业管理有限公司,0.5,辽宁,1,二手房,2004
中山区虎滩路176号4-1-2,大连,无开发商,中山,20190614,38.890884710033156,121.69257379232747,碧波园,40,10907,大连虎滩置业物业管理有限公司,0.2,辽宁,1,二手房,1997
甘井子区汇达园26号,大连,大连市大钢集团,甘井子,20190614,38.99704654604941,121.59758808878767,华南沃尔玛六平路,13,11976,街道办事处（居委会）代管物业,0.5,辽宁,1,二手房,1990
金州新区八一路金都嘉园1号楼1号公建,大连,大连海洋房地产开发有限公司,金州,20190614,39.05525210261778,121.74865634199398,金都嘉园,9,8965,街道办事处（居委会）代管物业,0.5,辽宁,1,二手房,2009
西岗区平等街21号1层2号,大连,无开发商,西岗,20190614,38.92251066253164,121.63236845125735,新成巷（大菜市商圈）,8,11780,街道办事处（居委会）代管物业,0.5,辽宁,1,二手房,-
中山区南山路59号1层4号,大连,无开发商,中山,20190614,38.91992239075882,121.6479206962747,昆明街（独立街）,13,19968,无物业管理服务,-,辽宁,1,二手房,1988
中山区同心街72号1楼公建,大连,大连振屹房屋开发有限公司,中山,20190614,38.91979245940674,121.64769198230202,城市广场,31,15166,大连振屹物业有限公司,3.5,辽宁,1,二手房,2006
沙河口区黄河路562号,大连,大连新型房地产开发有限公司,沙河口,20190614,38.9167961764482,121.60352063132478,79中中山公寓,6,26129,大连新兴物业管理有限公司,0.7,辽宁,1,二手房,1999
大连市高新园区七贤中路63号,大连,无开发商,高新园区,20190614,38.86053006357667,121.53273606963094,学府士家,15,15469,无物业管理服务,-,辽宁,1,二手房,2000
甘井子区金北街17号,大连,大连恒新房地产开发有限公司,甘井子,20190614,38.95800216293212,121.53151895549547,福佳绿都,35,26816,大连福佳物业管理有限公司,1.3,辽宁,1,二手房,2008
金州区南棉路310号,大连,大连金连房地产开发有限公司,金州,20190614,39.09939229372624,121.72414976100345,金连领地,27,7903,街道办事处（居委会）代管物业,0.5,辽宁,1,二手房,1995
沙河口区富民路249号,大连,大连浩胜房地产开发有限公司,沙河口,20190614,38.93341510428133,121.5770130002514,万棵树,12,19315,大连华安物业管理有限公司,2.1,辽宁,1,二手房,2016
高新园区敬贤街25-9,大连,大连海逸房地产开发有限公司,高新园区,20190614,38.86879447142154,121.53007349209936,海逸诺丁山,30,19953,大连耕海物业服务有限公司,2.5,辽宁,1,二手房,2015
甘井子区西南路芳茗园30号楼,大连,大连泰华房地产开发有限公司,甘井子,20190614,38.961395177040636,121.59546002818708,泰华府邸,21,18870,大连华安物业管理有限公司,1.5,辽宁,1,二手房,2009
西岗区绕山路31号公建一层东侧,大连,无开发商,西岗,20190614,38.90257514466717,121.61412736644739,彩云路,11,8987,无物业管理服务,-,辽宁,1,二手房,1994
沙河口区成仁街91号,大连,无开发商,沙河口,20190614,38.91539947107844,121.59585638842556,科技广场,28,10721,街道办事处（居委会）代管物业,0.8,辽宁,1,二手房,2001
金州区小平岛B组团4号楼3号商铺,大连,大连圣岛房地产开发有限公司,高新园区,20190614,39.05643299166072,121.78943558267059,小平岛揽海名寓,33,20470,大连凯尔富物业管理有限公司,1.7,辽宁,1,二手房,2010
大连经济技术开发区同和里7栋-9号,大连,暂无信息,开发区,20190614,39.04901984220615,121.7885236929847,亿锋8号领袖官邸,21,18782,无物业管理服务,2,辽宁,1,二手房,2014
中山区山屏街116号1-1,大连,暂无信息,中山,20190614,38.90729438486833,121.68598159980013,山屏美境,7,16978,无物业管理服务,3.5,辽宁,1,二手房,2009
甘井子区海口路77—5号,大连,暂无信息,甘井子,20190614,38.960286398428124,121.60305183172997,鹏辉新世纪五期,12,19330,大连鹏辉物业管理有限公司,0.6,辽宁,1,二手房,2009
沙河口区黄河路883号,大连,大连安邦房地产开发有限公司,沙河口,20190614,38.919826721475204,121.57749657966676,阳光小筑,6,19165,大连远洋基业物业管理有限公司,0.8,辽宁,1,二手房,2007
无门店信息,大连,无开发商,西岗,20190614,34.52713835999158,118.76812980670795,华滨街（八一路）,10,11714,无物业管理服务,-,辽宁,1,二手房,1993
无门店信息,大连,大连顺浩置业有限公司,开发区,20190614,34.52713835999158,118.76812980670795,上品公馆,34,9112,大连顺浩置业物业有限公司,3.8,辽宁,1,二手房,2013
沙河口区兰田街33号,大连,大连大力房地产开发有限公司,沙河口,20190614,38.926138912221084,121.56486022834609,电业逸彩园,6,17038,大连亿安物业管理有限公司,0.5,辽宁,1,二手房,2002
大连市沙河口区西南路875号1层21号,大连,无开发商,沙河口,20190614,38.94485969061231,121.58418648447764,春风巷,7,11185,街道办事处（居委会）代管物业,0.5,辽宁,1,二手房,1993
西岗区八一路102号,大连,无开发商,西岗,20190614,38.92047268927287,121.61862512554262,长春街,9,12380,无物业管理服务,-,辽宁,1,二手房,1997
中山区民建街10号1单元1号,大连,无开发商,中山,20190614,38.925444479476894,121.66915026954452,建华巷（三八广场）,10,14442,无物业管理服务,-,辽宁,1,二手房,1994
甘井子区惠泽南园3-7号,大连,大连鹏德房屋开发有限公司,甘井子,20190614,38.939326611323615,121.52337842113351,鹏德同心园,9,15236,大连旺宇物业有限公司,1.7,辽宁,1,二手房,2014
中山区东港龙湖水晶郦湾7-102,大连,大连德银置业有限公司,中山,20190614,38.924700620463895,121.70344398518496,海韵华府,14,25860,大连金地物业管理有限公司,3.8,辽宁,1,二手房,2017
大连市甘井子区七贤路8-3号,大连,大连高新万达广场投资有限公司,高新园区,20190614,38.86602612116956,121.53842265737707,万达海公馆,32,29841,大连万达物业管理有限公司,4.5,辽宁,1,二手房,2015
开发区红星海-B区89-1号,大连,远洋地产有限公司,开发区,20190614,39.027851194371685,121.80327394132297,红星海一期原墅,38,32164,大连远洋基业物业管理有限公司,2.2,辽宁,1,二手房,2010
沙河口区杨树街4—2号,大连,无开发商,高新园区,20190614,38.8832931099998,121.55440002481825,龙江路（学府商圈）,6,13961,无物业管理服务,-,辽宁,1,二手房,1992
大连市高新园区七贤中路63号,大连,大连招宇房地产有限公司,高新园区,20190614,38.86053006357667,121.53273606963094,招商兰溪谷,31,22912,招商局物业管理有限公司大连分公司,2.6,辽宁,1,二手房,2015
高新园区敬贤街25-9,大连,大连家豪房地产开发有限公司,高新园区,20190614,38.86879447142154,121.53007349209936,圣托里尼,48,21309,大连斌弘物业管理有限公司,1.8,辽宁,1,二手房,2013
沙河口区联合路133号,大连,大连建兴房屋开发有限公司,沙河口,20190614,38.91608561262676,121.60480987310456,21中学中山南苑,3,22483,大连自然物业管理有限公司,1.3,辽宁,1,二手房,2001
中山区中南路226号,大连,大连鼎上房地产开发有限公司,中山,20190614,38.90029610333926,121.68178899957817,滨海阳光,32,28789,大连万恒物业管理有限公司,1,辽宁,1,二手房,2005
沙河口区成仁街91号,大连,大连城市建设集团有限公司,沙河口,20190614,38.91539947107844,121.59585638842556,79中学中盈家园,21,20332,街道办事处（居委会）代管物业,0.5,辽宁,1,二手房,2002
无门店信息,大连,无开发商,西岗,20190614,34.52713835999158,118.76812980670795,胜利街（胜利桥北商圈）,7,11300,无物业管理服务,-,辽宁,1,二手房,1984
中山区爱华街13号,大连,大连修竹房屋开发有限公司,中山,20190614,38.92541607518685,121.6535728031028,修竹大厦,19,13788,大连修竹物业管理有限公司,2.5,辽宁,1,二手房,2004
大连经济技术开发区同和里7栋-9号,大连,无开发商,开发区,20190614,39.04901984220615,121.7885236929847,绿色家园小区,8,11014,大连经济技术开发区白石物业管理有限公司,0.5,辽宁,1,二手房,2002
甘井子区海口路77—5号,大连,暂无信息,甘井子,20190614,38.960286398428124,121.60305183172997,鹏辉新世纪二期,18,17452,大连鹏辉物业管理有限公司,0.6,辽宁,1,二手房,2003
无门店信息,大连,平谷地产发展（大连）有限公司,金州,20190614,34.52713835999158,118.76812980670795,平谷蓝熙庭,23,8109,平谷物业服务(大连)有限公司,1.8,辽宁,1,二手房,2013
西岗区八一路196号2-1-12号,大连,大连欧美亚房地产开发有限公司,西岗,20190614,38.92047268927287,121.61862512554262,中华名城,39,19678,大连峰霖物业管理有限公司,1.5,辽宁,1,二手房,2003
中山区爱华街13号,大连,无开发商,中山,20190614,38.92541607518685,121.6535728031028,九中爱华街,8,39532,无物业管理服务,-,辽宁,1,二手房,1992
西岗区胜利路33号,大连,暂无信息,西岗,20190614,38.91309771954841,121.62500886627636,34中胜利路,25,26382,无物业管理服务,0.5,辽宁,1,二手房,1985
无门店信息,大连,暂无信息,旅顺口,20190614,34.52713835999158,118.76812980670795,金川家园,30,11912,暂无信息,-,辽宁,1,二手房,2010
中山区东港龙湖水晶郦湾7-102,大连,大连一方东港置地有限公司,中山,20190614,38.924700620463895,121.70344398518496,中庚当代艺术,26,24733,大连中庚物业管理有限公司,4.5,辽宁,1,二手房,2015
西岗区绕山路31号公建一层东侧,大连,远洋地产有限公司,沙河口,20190614,38.90257514466717,121.61412736644739,莲花小区,29,11421,无物业管理服务,-,辽宁,1,二手房,1996
金州新区八一路金都嘉园1号楼1号公建,大连,大连市金州区房屋开发公司,金州,20190614,39.05525210261778,121.74865634199398,平安小区,17,7823,无物业管理服务,0.2,辽宁,1,二手房,1994
甘井子区知音园20号3单元1层1号,大连,亿达集团大连房地产开发有限公司,高新园区,20190614,38.95800216293212,121.53151895549547,亿达知音园,6,22520,亿达物业管理有限公司,0.5,辽宁,1,二手房,2001
西岗区康平街2号（5号楼3-1-3号）,大连,大连新型房地产开发有限公司,西岗,20190614,38.91044414697888,121.61980769264477,新华公寓,6,16417,大连新型物业管理有限公司,0.5,辽宁,1,二手房,1997
中山区武昌街武昌公寓6号公建,大连,无开发商,中山,20190614,38.912280913445784,121.64921130527547,同福新居,5,13542,无物业管理服务,-,辽宁,1,二手房,2003
西岗区长春路334号,大连,无开发商,西岗,20190614,38.89807766522607,121.63221082858387,长春路（石道街商圈）,19,11924,无物业管理服务,-,辽宁,1,二手房,1989
无门店信息,大连,暂无信息,西岗,20190614,34.52713835999158,118.76812980670795,华良海景花园,8,22429,香港侨乐物业管理（中国）有限公司,1.5,辽宁,1,二手房,2004
无门店信息,大连,暂无信息,金州,20190614,34.52713835999158,118.76812980670795,金石明珠,113,9050,街道办事处（居委会）代管物业,1,辽宁,1,二手房,2009
西岗区鞍山路29号龙畔锦城东门,大连,大连万达房地产开发有限公司,西岗,20190614,38.92763470697088,121.61498923399098,长春花园,18,17542,大连万达物业管理有限公司,0.5,辽宁,1,二手房,1996
中山区武昌街武昌公寓6号公建,大连,暂无信息,中山,20190614,38.912280913445784,121.64921130527547,39中麒麟东巷,15,24851,暂无信息,-,辽宁,1,二手房,1990
开发区东北三街94号1层,大连,大连新天润企业集团有限公司,开发区,20190614,39.05723508011585,121.80570768630555,天都花园,15,8585,大连银海物业管理有限公司,0.5,辽宁,1,二手房,2002
大连市金州区友谊街道南金华城25号1-2层1号,大连,大连金华房地产开发有限公司,金州,20190614,39.128677228885614,121.71356109978767,金华小区三期,10,9274,大连金华兴物业有限公司,1.2,辽宁,1,二手房,2009
沙河口区西南路851号3单元1层3号,大连,无开发商,沙河口,20190614,38.94344210837944,121.58246796944378,凌山二街,8,11192,无物业管理服务,-,辽宁,1,二手房,1985
