address,city,developer,district,index_date,lat,lng,name,osv,price,property,property_fee,province,tv,type,year
大连经济技术开发区东城天下98-14,大连,大连乾豪集团有限公司,开发区,20190403,39.069195091289004,121.8502099927954,东城天下,303,8568,大连远洋基业物业管理有限公司,0.9,辽宁,42,二手房,2005
沙河口区数码路北段18—20号,大连,大连软景房地产开发有限公司,高新园区,20190403,38.892000603999115,121.5494486394066,软景E居,86,27298,亿达物业管理有限公司,2.6,辽宁,21,二手房,2011
开发区湾里南12栋-16-17-18号,大连,大连金湾实业有限公司,开发区,20190403,39.070782084451,121.8506739675913,湾里南小区,317,8714,大连金湾物业管理有限公司,0.5,辽宁,31,二手房,2003
沙河口区沙能街101号1单元1层1号,大连,大连新型房地产开发有限公司,沙河口,20190403,38.9366316275348,121.59031205759763,侯二小区,176,10974,街道办事处（居委会）代管物业,0.1,辽宁,32,二手房,1985
甘井子区玉丽街2号楼1单元4号公建,大连,大连新型房地产开发总公司,甘井子,20190403,38.98705071699301,121.55513043130172,泡崖康顺园,138,10898,大连新兴物业管理有限公司,0.5,辽宁,29,二手房,2007
甘井子区榆林街37号-12公建,大连,大连新型房地产开发有限公司,甘井子,20190403,38.980133141940186,121.52779506952932,泡崖美林园,238,11525,大连新型物业管理有限公司,0.6,辽宁,44,二手房,2003
沙河口区华新苑10号楼4号公建,大连,大连新型房地产开发有限公司,沙河口,20190403,38.94033750532864,121.58990295130229,侯一小区,135,11189,大连新兴物业管理有限公司,0.3,辽宁,27,二手房,1989
甘井子区宜居园10-1号房屋,大连,大连万科房地产开发有限公司,甘井子,20190403,38.99913094587405,121.52084969112292,万科魅力之城,208,14815,大连万科物业服务有限公司,1.5,辽宁,24,二手房,2012
开发区湾里南12栋-16-17-18号,大连,大连金湾实业有限公司,开发区,20190403,39.070782084451,121.8506739675913,湾里东,189,8174,大连金湾物业管理有限公司,0.5,辽宁,18,二手房,2004
大连开发区金马路169-2-8号,大连,大连亿锋房地产实业有限公司,开发区,20190403,39.057398235688176,121.78261137849105,亿锋现代城,164,9923,亿锋豪景物业管理有限公司,1.1,辽宁,22,二手房,2006
沙河口区新生路万客园3-7,大连,大连绿波房屋开发集团有限公司,沙河口,20190403,38.94412875710208,121.57006756704837,绿波小区,139,10694,大连绿波建设发展有限公司,0.2,辽宁,20,二手房,1998
沙河口区昌黎街22号,大连,大连城市建设集团有限公司,沙河口,20190403,38.91975785098891,121.59109628369768,北昌平小区,106,12477,无物业管理服务,-,辽宁,20,二手房,1983
金州区金润花园B区47号1单元1层1号2号,大连,大连辽大房地产开发有限公司,金州,20190403,39.10434716151341,121.74517862677146,金润小区B区,176,8166,大连新兴物业管理有限公司,0.4,辽宁,22,二手房,2005
大连经济技术开发区时代城4-3号1-2号,大连,远洋地产有限公司,开发区,20190403,39.0992481321252,121.83007860699459,远洋时代城一期,150,9002,大连远洋基业物业管理有限公司,1.5,辽宁,19,二手房,2012
甘井子区汇仁街22号,大连,远洋地产有限公司,甘井子,20190403,38.99712640764999,121.58834420439493,远洋广场,172,17705,大连远洋基业物业管理有限公司,1.4,辽宁,22,二手房,2010
大连市金州区站前街道生辉第一城14-3号1-2层,大连,大连新希望家园房地产有限公司,金州,20190403,39.0569681786798,121.74773530665969,新希望家园,164,8663,大连新希望物业服务有限公司,1.2,辽宁,23,二手房,2009
沙河口区华北路448号楼1-4公建,大连,无开发商,沙河口,20190403,38.903224944733765,121.56809734950556,刘家桥,80,10662,街道办事处（居委会）代管物业,0.1,辽宁,15,二手房,1981
西岗区香炉礁24号1-1,大连,无开发商,西岗,20190403,38.92047268927287,121.61862512554262,香炉礁,165,10778,街道办事处（居委会）代管物业,0.1,辽宁,15,二手房,1979
大连市经济技术开发区东城园98-14,大连,大连金湾实业有限公司,开发区,20190403,39.06925526014871,121.8505146710752,裕民新苑,43,8382,大连金湾物业管理有限公司,0.3,辽宁,15,二手房,2006
甘井子区玉丽街2号楼1单元4号公建,大连,大连新型房地产开发有限公司,甘井子,20190403,38.98705071699301,121.55513043130172,泡崖七区,100,10696,大连新兴物业管理有限公司,0.3,辽宁,15,二手房,1999
"西岗区泰公街20号2层7号 西岗区久寿街22号1层14号""",大连,无开发商,西岗,20190403,38.92600196862723,121.62141976476381,北京街南,41,14894,大连长青物业管理中心,0.2,辽宁,15,二手房,1975
金州区鹏程家园53#-8,大连,大连光伸房地产开发有限公司,开发区,20190403,39.03523987258615,121.80826248065051,绿洲半岛北岸,117,9280,大连经济技术开发区光伸物业服务有限公司,1.2,辽宁,15,二手房,2007
高新园区火炬路18号,大连,大连海脉房地产开发有限公司,高新园区,20190403,38.937738080520404,117.39340752036043,MINI印象,120,15373,大连豪斯威物业管理有限公司,2.2,辽宁,15,二手房,2012
无门店信息,大连,无开发商,甘井子,20190403,34.52713835999158,118.76812980670795,石油六闾,64,8917,街道办事处（居委会）代管物业,0.5,辽宁,16,二手房,1989
沙河口区西南路40号楼,大连,无开发商,沙河口,20190403,38.94143337232082,121.58616557598133,星海公园,44,12614,无物业管理服务,0.5,辽宁,16,二手房,1990
开发区正恒园1-16,大连,大连华宇房地产开发有限公司,开发区,20190403,39.04823944344617,121.76165468797754,左岸经典,228,9064,大连豪之英物业管理有限公司,1.8,辽宁,17,二手房,2009
甘井子区泉水D1区37-7号,大连,大连运腾房地产开发有限公司,甘井子,20190403,39.013992871679214,121.61921940045104,锦泉源D2区,205,13315,大连嘉毅物业管理有限公司,0.5,辽宁,17,二手房,2005
开发区东北三街94号1层,大连,大连欣达房地产开发有限公司,开发区,20190403,39.05723508011585,121.80570768630555,倚山里小区,211,7333,大连经济技术开发区聚盛达物业管理有限公司,0.2,辽宁,18,二手房,1996
沙河口区马栏北街186号,大连,大连渤海红旗集团有限公司,甘井子,20190403,38.913544290955585,121.59450670056631,马栏北街,37,11409,大连辽南物业管理有限公司,0.2,辽宁,15,二手房,1993
甘井子区祥溢园4号1单元1层9号公建,大连,大连长鹭房屋开发有限公司,甘井子,20190403,38.92981664067587,121.54940314023253,亲亲家园,62,15145,渤海吉祥物业管理有限公司,0.5,辽宁,20,二手房,2004
甘井子区玉湖街25号2单元1层3号,大连,大连新型房地产开发有限公司,甘井子,20190403,38.97626265183615,121.54617349027997,泡崖四区,135,10546,大连新型物业管理有限公司,0.5,辽宁,21,二手房,2002
开发区景和园1-7,大连,大连市政府工程建设指挥部,开发区,20190403,30.41892168817929,120.30896459202738,小孤山中里,94,7609,大连广谊物业管理有限公司,0.4,辽宁,10,二手房,1999
金州新区先进街道渤海街7-4号1-2层、7-3号1-2层,大连,原金州纺织厂房地产公司,金州,20190403,39.09342713035472,121.74590886291374,金纺小区,153,6849,街道办事处（居委会）代管物业,0.5,辽宁,14,二手房,1985
沙河口区黄浦路18号—5号公建,大连,无开发商,高新园区,20190403,38.8771225143479,121.54427480390662,凌源街,25,13369,大连凌电物业管理有限公司,0.1,辽宁,10,二手房,1981
甘井子区促进路200号,大连,大连航宇房屋开发有限公司,甘井子,20190403,38.95810188892782,121.58530036264898,促进小区,28,11847,大连顺达物业服务有限公司,0.2,辽宁,10,二手房,1997
大连经济技术开发区时代城4-3号1-2号,大连,远洋地产有限公司,开发区,20190403,39.0992481321252,121.83007860699459,远洋时代城三期,74,8715,大连远洋基业物业管理有限公司,1.5,辽宁,14,二手房,2012
甘井子区华北路花锦园28号23-3-1-2建筑物,大连,大连东特房地产开发有限公司,甘井子,20190403,38.951627958411166,121.5739439799003,东特新天地,41,16384,大连瑞祥物业管理有限公司,0.5,辽宁,10,二手房,2003
中山区华乐街107-115号,大连,大连华顺房地产开发公司,中山,20190403,38.92093821499401,121.68879267531725,海景园,53,15403,大连华富物业管理有限公司,0.3,辽宁,10,二手房,1997
甘井子区红凌路109号,大连,大连锦联地产集团有限公司,甘井子,20190403,38.923388478439314,121.54860212120927,锦绣暖山,75,14963,大连锦明物业服务有限公司,1.2,辽宁,10,二手房,2007
沙河口区富民路249号,大连,大连文路建设集团有限公司,沙河口,20190403,38.93341510428133,121.5770130002514,阳光月秀,42,15786,大连丰泽物业管理有限公司,0.6,辽宁,10,二手房,2006
沙河口区前程街46号4—1—2号,大连,大连银地置业发展有限公司,沙河口,20190403,38.913544290955585,121.59450670056631,观山满庭芳,78,18079,大连新展物业管理有限公司,1,辽宁,10,二手房,2008
沙河口区富国街14号1-1-2,大连,大连浩江房地产开发有限公司,沙河口,20190403,38.901027106600836,121.59047734850638,和平现代城,90,16541,大连万科物业服务有限公司,1,辽宁,10,二手房,2005
甘井子区泉水D6区51号,大连,大连锦丰和源祥房地产开发有限公司,甘井子,20190403,39.00897610161069,121.61789300655198,泉水家年华,87,13524,街道办事处（居委会）代管物业,0.9,辽宁,10,二手房,2009
西岗区平等街21号1层2号,大连,暂无信息,西岗,20190403,38.92251066253164,121.63236845125735,实验小学英华街,75,21748,无物业管理服务,0.6,辽宁,11,二手房,1989
无门店信息,大连,大连益宁房地产开发有限公司,开发区,20190403,34.52713835999158,118.76812980670795,岭湾峰尚一期,143,8613,大连鸿达物业管理有限公司,1.3,辽宁,11,二手房,2011
沙河口区锦霞南园13号4单元1层3号,大连,大连锦绣房地产开发有限公司,沙河口,20190403,38.947634390493555,121.5510543155904,锦华中园,51,12191,大连锦绣物业管理有限公司,0.5,辽宁,11,二手房,2001
沙河口区敦煌路357号10-11轴公建,大连,无开发商,沙河口,20190403,38.93891619583455,121.59150694046835,车家村,28,10167,街道办事处（居委会）代管物业,0.5,辽宁,12,二手房,1989
沙河口区富民路120号4-1-1,大连,大连渤海红旗集团有限公司,沙河口,20190403,38.930937859528605,121.5647274237578,马栏小学北,76,10543,街道办事处（居委会）代管物业,0.2,辽宁,12,二手房,1995
开发区安盛里5栋-4,大连,大连开建集团有限公司,开发区,20190403,23.112106678834838,113.27801046214822,开建阳光馨苑,73,9611,大连开利物业管理有限公司,1.2,辽宁,12,二手房,2009
沙河口区星海广场B3区20—3号,大连,大连飞通房地产开发有限公司,沙河口,20190403,38.88782715536473,121.5869168319735,东方星海,98,17491,大连兆恒物业管理有限公司,2.9,辽宁,12,二手房,2009
沙河口区富静街26号1单元1层5号,大连,大连正源房地产开发有限公司,沙河口,20190403,38.908727606250466,121.58667844684369,幸福e家五期,167,38042,大连正源物业服务有限公司,1.8,辽宁,11,二手房,2008
大连市甘井子区柳林园8-7号,大连,大连万科置业有限公司,甘井子,20190403,38.91290525308349,121.47673750074993,万科溪之谷,178,14591,大连万科物业服务有限公司,0.6,辽宁,12,二手房,2007
无门店信息,大连,大连万德房地产集团有限公司,开发区,20190403,34.52713835999158,118.76812980670795,万德悦城,98,8236,大连万德物业管理有限公司,1.5,辽宁,10,二手房,2010
沙河口区联合路133号,大连,无开发商,沙河口,20190403,38.91608561262676,121.60480987310456,79中永平,93,26942,无物业管理服务,-,辽宁,9,二手房,1994
甘井子区芳林街17号1单元1层1号,大连,大连亿达房地产股份有限公司,甘井子,20190403,38.96091976856697,121.58863625429588,唯美品格,83,29553,亿达物业管理有限公司,1.5,辽宁,8,二手房,2009
甘井子区金北路17号,大连,无开发商,甘井子,20190403,38.97553393692831,121.59969720502335,76中学桥北,70,18306,无物业管理服务,-,辽宁,9,二手房,1970
开发区大开高吉里33栋6号,大连,大连金港集团有限公司,开发区,20190403,39.07355836059941,121.8280439450145,高祥里,59,7878,街道办事处（居委会）代管物业,0.3,辽宁,9,二手房,1992
甘井子区山东路商业街D区12号公建,大连,无开发商,甘井子,20190403,39.001060021502965,121.58883960371418,兴华路,53,12306,街道办事处（居委会）代管物业,0.5,辽宁,9,二手房,1989
甘井子区泉水D6区51号,大连,大连锦丰和源祥房地产开发有限公司,甘井子,20190403,39.00897610161069,121.61789300655198,泉水人家幸福里,120,13857,大连泽霖物业管理有限公司,0.9,辽宁,8,二手房,2009
金州区凤翔路220号,大连,大连润景房地产开发有限公司,金州,20190403,39.08410553937731,121.77700083356399,恒盛阳光美麓,154,9662,沈阳阳光鑫地物业管理有限公司大连分公司,1.6,辽宁,9,二手房,2011
甘井子区华龙南园12-4-3-1-3,大连,大连鹏德房屋开发有限公司,甘井子,20190403,38.98528794231248,121.61028969481718,乐活源,71,12853,大连三和住邦物业管理有限公司,0.5,辽宁,8,二手房,2009
高新园区硅谷假日小区25号楼地下室,大连,大连鑫亿房屋开发有限公司,高新园区,20190403,38.86467854992112,121.53720784613759,硅谷假日,51,19639,大连斌弘物业管理有限公司,0.8,辽宁,8,二手房,2005
金州新区先进街道五一路350-1号1-2层,大连,暂无信息,金州,20190403,39.078667146419825,121.77094423323935,聚鑫小区三期,62,6794,大连新生活物业管理有限公司,0.5,辽宁,9,二手房,2008
无门店信息,大连,无开发商,金州,20190403,34.52713835999158,118.76812980670795,滨海丰园,104,8129,街道办事处（居委会）代管物业,0.5,辽宁,9,二手房,2011
开发区黄海西路54号,大连,开发区城建局,开发区,20190403,39.047714586087785,121.76688238228269,青松北里,55,8230,大连经济技术开发区中强物业管理有限公司,0.2,辽宁,9,二手房,1996
沙河口区长江路946号-9,大连,大连机车商业城有限公司,沙河口,20190403,38.913544290955585,121.59450670056631,兴工街,67,12605,街道办事处（居委会）代管物业,0.2,辽宁,9,二手房,1985
沙河口区西南路643号,大连,无开发商,沙河口,20190403,38.943483429804665,121.5833555851182,交通大学,69,12654,无物业管理服务,-,辽宁,9,二手房,1955
开发区安盛里5栋-4,大连,大连盛铭资产管理有限公司,开发区,20190403,23.112106678834838,113.27801046214822,安盛花园,73,9259,大连经济技术开发区海青物业有限公司,1.1,辽宁,9,二手房,2003
开发区安盛里5栋-4,大连,大连汽贸房屋开发有限公司,开发区,20190403,23.112106678834838,113.27801046214822,东北明珠,58,12347,大连汽贸物业管理有限公司,1.5,辽宁,9,二手房,2007
开发区杏树里10栋-14,大连,大连名城房地产开发有限公司,开发区,20190403,39.08113818354046,121.78505742127606,名城和顺人家,74,9109,大连君悦天下物业管理中心,0.5,辽宁,9,二手房,2010
甘井子区泉水D1区37-7号,大连,大连运腾房地产开发有限公司,甘井子,20190403,39.013992871679214,121.61921940045104,锦泉源D3区,56,12579,大连南虹物业管理有限公司,0.5,辽宁,9,二手房,2007
沙河口区锦江园30号1层公建,大连,大连锦绣房地产开发有限公司,沙河口,20190403,38.949985113183935,121.56560955976859,锦江园,89,10299,大连锦绣物业管理有限公司,0.3,辽宁,9,二手房,1983
甘井子区虹城路503号1-1号,大连,大连新星房地产开发有限公司,甘井子,20190403,38.981193588625004,121.49964051837122,艾维尼小城,87,15862,大连生生物业有限公司,1.8,辽宁,9,二手房,2010
金州新区站前街道生辉第一城5号楼1-2层4号,大连,大连公路工程集团生辉房地产开发有限公司,金州,20190403,39.05819721414208,121.74650438736514,生辉第一城,117,10989,大连生辉物业管理有限公司,1.2,辽宁,9,二手房,2007
开发区润海园中区62-9,大连,华润（大连）房地产有限公司,开发区,20190403,39.04047273176333,121.76392358042445,华润海中国四期,123,14204,华润物业（大连）有限公司,3.1,辽宁,9,二手房,2014
沙河口区西南路643号,大连,大连泰安房地产开发有限公司,沙河口,20190403,38.943483429804665,121.5833555851182,幸福小区(沙河口),36,12348,大连三宝物业发展有限公司,0.3,辽宁,9,二手房,1998
开发区松苑街23号,大连,大连盛和房地产开发有限公司,开发区,20190403,22.52087435807652,113.40156105086167,北欧假日,106,11811,大连鸿达物业管理有限公司,1.1,辽宁,9,二手房,2005
甘井子区红旗花园23号楼19-24轴公建,大连,大连红旗兴达房地产开发有限公司,甘井子,20190403,38.93108029984587,121.54902145022133,兴达花园,61,12616,大连万泰物业管理有限公司,0.3,辽宁,9,二手房,2000
高新园区聚贤路36号5幢1单元1层1号,大连,大连法马克房地产开发有限公司,高新园区,20190403,32.31472011562832,119.46141263909165,中铁诺德滨海花园,63,19949,大连中铁诺德物业服务有限公司,2.3,辽宁,9,二手房,2012
沙河口区中山路417A-4号,大连,大连海孚房地产开发有限公司,沙河口,20190403,38.90740323140171,121.59484801084653,华业玫瑰东方,72,26699,深圳华业物业管理有限公司大连分公司,3.5,辽宁,9,二手房,2011
西岗区鞍山路65-5号,大连,大连万达房地产开发有限公司,沙河口,20190403,38.926971569913064,121.60260230348328,79中广电中心,69,28771,无物业管理服务,-,辽宁,7,二手房,1988
大连市甘井子区辛如街35号1单元1层1号,大连,大连新星房地产开发有限公司,甘井子,20190403,38.96862607066881,121.52294869064194,新星绿城五期,74,13992,大连生生物业有限公司,0.8,辽宁,7,二手房,2009
开发区润海园中区30-1,大连,华润置地（大连）开发有限公司,开发区,20190403,39.04047273176333,121.76392358042445,华润海中国一期,134,16039,华润物业（大连）有限公司,1.8,辽宁,7,二手房,2009
大连市高新园区软件园路1A-3号,大连,亿达房地产开发有限公司,高新园区,20190403,38.89360013642285,121.54653763548625,软件园小区,58,14868,业主自筹物业,0.2,辽宁,7,二手房,1995
沙河口区新生路万客园3-7,大连,大连鹏生房地产开发有限公司,沙河口,20190403,38.94412875710208,121.57006756704837,枫林绿洲,40,14045,大连鹏辉物业管理有限公司,0.3,辽宁,7,二手房,2008
甘井子区山东路315号14栋1单元1跃2层13号,大连,华润置地（大连）开发有限公司,甘井子,20190403,39.00206212579579,121.59357231641214,华润置地广场一期,58,20696,华润物业（大连）有限公司,2.8,辽宁,7,二手房,2013
甘井子区千山路66号楼2单元1楼2号,大连,大连宜和房地产开发有限公司,甘井子,20190403,38.985716774397915,121.58287796391829,盛世闲庭,50,15130,大连衡德物业管理有限公司,0.5,辽宁,7,二手房,2003
沙河口区恒利园42号-8,大连,大连新华房屋开发有限公司,沙河口,20190403,38.93357562498634,121.57914091532649,新华同仁轩,42,17734,大连新华物业管理有限公司,0.6,辽宁,7,二手房,2000
甘井子区祥龙街2号楼1单元1楼1号,大连,大连恒新房地产开发有限公司,甘井子,20190403,38.988045874482445,121.60439401971377,华东人家,50,14517,大连福佳物业管理有限公司,1,辽宁,7,二手房,2007
沙河口区华新苑10号楼4号公建,大连,大连祥盛房屋开发有限公司,沙河口,20190403,38.94033750532864,121.58990295130229,香洲心城,25,18768,大连百特物业管理有限公司,1,辽宁,7,二手房,2011
甘井子区泉水A2区10-3号,大连,源祥房地产开发有限公司,甘井子,20190403,39.00419463553784,121.61128690376383,美域盛景,125,12617,大连新华物业管理有限公司,0.8,辽宁,7,二手房,2008
沙河口区五一路326号,大连,大连亿达房地产股份有限公司,高新园区,20190403,38.913544290955585,121.59450670056631,亿达学清园,23,23571,大连软件园物业管理有限公司,0.5,辽宁,7,二手房,2001
甘井子区红旗西路104-23,大连,大连万科房地产开发有限公司,甘井子,20190403,38.94013845868325,121.5282577714263,万科假日风景,66,17382,大连万科物业服务有限公司,1,辽宁,7,二手房,2007
开发区润海园中区30-1,大连,暂无信息,开发区,20190403,39.04047273176333,121.76392358042445,华润海中国七期,65,16507,华润物业（大连）有限公司开发区分公司,3.1,辽宁,8,二手房,-
甘井子金地艺境博艺西园2-1号,大连,暂无信息,甘井子,20190403,39.04402110608829,121.665484498555,欣家园二期,9,9285,街道办事处（居委会）代管物业,0.5,辽宁,8,二手房,2000
无门店信息,大连,无开发商,甘井子,20190403,34.52713835999158,118.76812980670795,五二三厂,44,8325,无物业管理服务,0.5,辽宁,8,二手房,1950
金州区站前街道盛滨花园B区13号楼2号公建,大连,大连和嘉房地产开发有限公司,金州,20190403,39.09609011892329,121.7335816409767,和嘉佳园,82,6808,街道办事处（居委会）代管物业,0.5,辽宁,8,二手房,2009
沙河口区恒利园42号-8,大连,大连新型房地产开发有限公司,沙河口,20190403,38.93357562498634,121.57914091532649,中铁十三局,15,12945,大连新兴物业管理有限公司,0.3,辽宁,7,二手房,1993
金州区南棉路310号,大连,无开发商,金州,20190403,39.09939229372624,121.72414976100345,劳动局小区,82,7814,无物业管理服务,0.1,辽宁,8,二手房,1990
金州区先进街道渤海街1-4号1-2层,大连,无开发商,金州,20190403,39.09512910553563,121.74578812616167,金元小区,48,6996,街道办事处（居委会）代管物业,0.1,辽宁,7,二手房,1993
无门店信息,大连,大连益宁房地产开发有限公司,开发区,20190403,34.52713835999158,118.76812980670795,岭湾峰尚二期,70,10117,大连鸿达物业管理有限公司,0.6,辽宁,7,二手房,2010
金州区金润花园B区47号1单元1层1号2号,大连,暂无信息,金州,20190403,39.10434716151341,121.74517862677146,民馨小区,60,6918,无物业管理服务,0.5,辽宁,7,二手房,-
甘井子金地艺境博艺西园2-1号,大连,大连恒昇房地产开发有限公司,甘井子,20190403,39.04402110608829,121.665484498555,福佳新城一期,56,9245,暂无信息,1.6,辽宁,7,二手房,2010
无门店信息,大连,大连金地房地产开发有限公司,金州,20190403,34.52713835999158,118.76812980670795,金地新里程,41,6805,大连金铭物业管理有限公司,0.8,辽宁,7,二手房,2008
开发区杏树里10栋-14,大连,无开发商,开发区,20190403,39.08113818354046,121.78505742127606,松苑山庄,74,5776,大连市金州区先进物业管理中心,0.5,辽宁,7,二手房,1999
甘井子区金家街17-7号,大连,暂无信息,甘井子,20190403,38.97493697764367,121.60110987128529,金二街,47,19433,无物业管理服务,-,辽宁,7,二手房,1970
开发区高新里6栋-8,大连,无开发商,开发区,20190403,39.0710895068195,121.82860134358343,怡海花园二期,20,7818,街道办事处（居委会）代管物业,0.2,辽宁,7,二手房,2002
沙河口区富民路120号4-1-1,大连,大连渤海红旗集团有限公司,沙河口,20190403,38.930937859528605,121.5647274237578,马栏小学南,56,10989,大连辽南物业管理有限公司,0.2,辽宁,7,二手房,1995
大连市开发区湾里东5-6号,大连,大连宏港房地产开发有限公司,开发区,20190403,39.07275772231556,121.85888789351343,都悦里,173,6727,大连宏港物业管理有限公司,0.3,辽宁,7,二手房,1998
甘井子区泡崖六小区6号楼1单元1层2号,大连,大连新型房地产开发有限公司,甘井子,20190403,38.98033159306754,121.55920598894072,泡崖五区,89,11231,大连新兴物业管理有限公司,0.5,辽宁,7,二手房,1990
无门店信息,大连,大连聚达房地产开发有限公司,旅顺口,20190403,34.52713835999158,118.76812980670795,海尚明珠,139,9990,大连合生物业管理有限公司,1.5,辽宁,7,二手房,2016
甘井子区新兴路36号3-1-3,大连,大连新型房地产开发有限公司,甘井子,20190403,38.95800216293212,121.53151895549547,泡崖一区,97,10626,大连新兴物业管理有限公司,0.5,辽宁,7,二手房,1992
中山区解放路471-22号,大连,大连圣北开发有限公司,中山,20190403,38.901309943567504,121.65419095766659,亿达云集,96,20058,亿达物业管理有限公司,1.9,辽宁,7,二手房,2015
甘井子区甘井子街3号公建,大连,无开发商,甘井子,20190403,38.982086281836246,121.63426694995971,文体街,131,10188,街道办事处（居委会）代管物业,0.1,辽宁,7,二手房,1985
无门店信息,大连,大连一方生态城房地产开发有限公司,开发区,20190403,34.52713835999158,118.76812980670795,一方天鹅湖,157,8185,大连一方物业管理有限公司,2,辽宁,7,二手房,2010
大连市开发区左岸经典正恒园1-17,大连,大连众益神州地产开发有限公司,开发区,20190403,39.049057070649155,121.76187404250511,万国宫馆三期,114,14380,大连万佳物业管理有限公司,2,辽宁,7,二手房,2011
红星海A区126-4,大连,远洋地产有限公司,开发区,20190403,39.027851194371685,121.80327394132297,红星海一期城市别馆,94,13815,大连远洋基业物业管理有限公司,2,辽宁,7,二手房,2010
无门店信息,大连,大连君悦房地产开发有限公司,甘井子,20190403,34.52713835999158,118.76812980670795,君悦晟景,21,12641,大连弘实物业有限公司,1.2,辽宁,6,二手房,2012
沙河口区南沙街36号台二2号1-1-37,大连,无开发商,沙河口,20190403,38.90741410359388,121.57685699961822,南沙,78,11063,无物业管理服务,1,辽宁,6,二手房,1995
中山区杏林街66—5号,大连,嘉和房地产集团有限公司,中山,20190403,38.92572771377599,121.66490555592502,嘉和花样年华三期,46,24816,大连嘉和物业管理有限公司,3.5,辽宁,6,二手房,2007
沙河口区锦霞南园13号3-1-1,大连,大连锦绣房地产开发有限公司,沙河口,20190403,38.94761264366187,121.55126272246873,锦霞南园,46,10976,大连锦绣物业管理有限公司,0.3,辽宁,6,二手房,1998
开发区红星海B区212-1,大连,远洋地产有限公司,开发区,20190403,39.027851194371685,121.80327394132297,红星海五期岚谷,107,14110,大连远洋基业物业管理有限公司,2.2,辽宁,7,二手房,2012
金州区小平岛B组团4号楼3号商铺,大连,大连圣岛房地产开发有限公司,高新园区,20190403,39.05643299166072,121.78943558267059,小平岛海悦山,64,19726,大连凯尔富物业管理有限公司,1.3,辽宁,7,二手房,2011
金州区小平岛B组团4号楼3号商铺,大连,大连圣岛房地产开发有限公司,高新园区,20190403,39.05643299166072,121.78943558267059,小平岛海角七号,50,21332,大连凯尔富物业管理有限公司,1.7,辽宁,6,二手房,2011
开发区兴城路29-81层,大连,大连兆佳房地产开发有限公司,开发区,20190403,39.050214252167194,121.75835946441768,自由向,42,13550,大连华安物业管理有限公司,2.4,辽宁,6,二手房,2008
无门店信息,大连,大连中海新城置业有限公司,甘井子,20190403,34.52713835999158,118.76812980670795,中海凤凰熙岸,47,13508,大连中海物业管理有限公司,2.3,辽宁,6,二手房,2016
甘井子区泉水B2区19-1号,大连,大连运达房地产集团有限公司,甘井子,20190403,39.0101309886317,121.60812584213187,锦泉源B1区,58,13269,大连佳泰物业管理有限公司,0.5,辽宁,6,二手房,2001
大连市开发区左岸经典正恒园1-17,大连,大连神洲众益集团有限公司,开发区,20190403,39.049057070649155,121.76187404250511,万国宫馆二期,108,14172,加拿大高力国际物业服务有限公司,2.4,辽宁,6,二手房,2009
西岗区黄河路90号公建部分,大连,暂无信息,西岗,20190403,38.92234529815978,121.62829331825485,实验小学市场街,47,22334,无物业管理服务,-,辽宁,6,二手房,1990
大连市甘井子区七贤路8-3号,大连,大连万达商业地产有限公司,高新园区,20190403,38.86602612116956,121.53842265737707,万达海景公寓,98,13046,大连万达物业管理有限公司,2.9,辽宁,6,二手房,2013
经济技术开发区城润万家4-5号公建,大连,大连山河永好置业有限公司,开发区,20190403,39.05716325096989,121.75946281983826,山河秀景,48,9795,大连山河物业管理有限公司,1.5,辽宁,6,二手房,2010
甘井子区柳树南街45-10号,大连,中体产业集团大连乐百年置业有限公司,甘井子,20190403,38.92567666296449,121.4841330254372,中体奥林匹克花园,67,13718,广东中奥物业有限公司大连分公司,1.9,辽宁,6,二手房,2010
高新园区火炬路18号,大连,大连嘉创房地产开发有限公司,高新园区,20190403,38.937738080520404,117.39340752036043,嘉创E人国际,59,15824,大连紫金物业管理有限公司,2,辽宁,6,二手房,2011
沙河口区五一路270-274号,大连,大连亿达房地产股份有限公司,高新园区,20190403,38.913544290955585,121.59450670056631,city one,16,14355,亿达物业管理有限公司,0.5,辽宁,6,二手房,2006
甘井子区泉水D1区37-7号,大连,大连运腾房地产开发有限公司,甘井子,20190403,39.013992871679214,121.61921940045104,锦泉源D1区,73,13940,大连嘉合物业管理有限公司,0.5,辽宁,6,二手房,2005
大连市沙河口区文萃街1号1-2-2；大连市沙河口区由家五小区五号楼1单元2层1,大连,大连理工科技城建设开发有限公司,高新园区,20190403,38.88596852074166,121.54389553303217,文萃轩小区,25,17011,大连理工物业管理中心,0.2,辽宁,6,二手房,1990
中山区益民街16号1层1号,大连,大连恒力德实业开发有限公司,中山,20190403,38.93092761298906,121.66470740073377,港湾壹号,77,14367,大连日航酒店物业管理有限公司,3.8,辽宁,6,二手房,2009
甘井子区红旗中路143号1层4号,大连,大连红旗兴达房地产开发有限公司,甘井子,20190403,38.93169566676921,121.5426632438217,兴达福山居,27,14734,大连万泰物业管理有限公司,0.4,辽宁,6,二手房,2006
沙河口区锦石园24-7号第A2-13幢1单元1层1号,大连,大连鼎新房地产开发有限公司,甘井子,20190403,38.913544290955585,121.59450670056631,鼎新鼎润府,28,20090,大连鼎新物业管理有限公司,0.6,辽宁,5,二手房,2006
甘井子区泉水K2区1号-7,大连,大连新型房地产开发有限公司,甘井子,20190403,39.01148211821007,121.63131997900962,龙畔金泉五期K4区,108,12281,大连新兴物业管理有限公司,0.5,辽宁,6,二手房,2008
高新园区硅谷假日小区25号楼地下室,大连,大连志恒房地产开发有限公司,高新园区,20190403,38.86467854992112,121.53720784613759,菁英汇,58,15919,大连海创物业管理有限公司,1.2,辽宁,6,二手房,2007
沙河口区锦石园24-7号第A2-13幢1单元1层1号,大连,大连锦绣房地产开发有限公司,沙河口,20190403,38.913544290955585,121.59450670056631,锦城园C区,31,15275,大连锦绣物业管理有限公司,0.6,辽宁,5,二手房,2006
中山区岭前街53-5,大连,暂无信息,中山,20190403,38.89487069426055,121.65795959631497,胜鼎桃源,21,20753,暂无信息,1.8,辽宁,5,二手房,2015
甘井子区小平岛路66-4号,大连,大连软件园瑞安发展有限公司,高新园区,20190403,38.84623138470555,121.51516818634872,悦丽海湾,53,19732,上海丰城物业管理有限公司,2.8,辽宁,5,二手房,2014
甘井子区山东路315号14栋1单元1跃2层13号,大连,华润置地（大连）有限公司,甘井子,20190403,39.00206212579579,121.59357231641214,华润置地广场二期,53,20813,华润物业（大连）有限公司,2.9,辽宁,5,二手房,2013
甘井子区哲林北园17-6号,大连,大连恒德房屋开发有限公司,甘井子,20190403,38.9600267109581,121.53876726228256,恒德橄榄季,59,21762,大连恒德物业服务有限公司,1.4,辽宁,5,二手房,2009
沙河口区绿清街12号,大连,大连绿波房屋开发集团有限公司,沙河口,20190403,38.93851335419565,121.57334844377094,绿波花园,18,13490,大连绿波建设发展有限公司,0.6,辽宁,5,二手房,2001
高新园区聚贤路36号5幢1单元1层1号,大连,大连海创房地产开发有限公司,高新园区,20190403,32.31472011562832,119.46141263909165,海创半山壹号,62,16898,大连海创物业管理有限公司,1.8,辽宁,5,二手房,2011
中山区杏林街66—5号,大连,大连开建集团有限公司,中山,20190403,38.92572771377599,121.66490555592502,花香维也纳,46,24070,大连开利物业管理有限公司,0.5,辽宁,5,二手房,2003
沙河口区黄河路883号,大连,大连正源房地产开发有限公司,沙河口,20190403,38.919826721475204,121.57749657966676,幸福e家四期,65,33279,大连正源物业服务有限公司,1.2,辽宁,5,二手房,2007
甘井子区泉水D6区51号,大连,大连金广集团,甘井子,20190403,39.00897610161069,121.61789300655198,枫丹丽城,91,15748,大连金广物业有限公司,1.5,辽宁,5,二手房,2012
沙河口区绿清街12号,大连,大连中海新城置业有限公司,沙河口,20190403,38.93851335419565,121.57334844377094,中海英伦观邸,52,23122,大连中海物业管理有限公司,1.8,辽宁,5,二手房,2009
沙河口区知心园10号公建,大连,大连软件园开发有限公司,高新园区,20190403,38.893977135945136,121.55667141994431,亿达国际新城,39,22587,亿达物业管理有限公司,1,辽宁,5,二手房,2004
高新园敬贤街23-11号,大连,中海东丰地产（大连）有限公司,高新园区,20190403,38.869456648212356,121.53023725049893,中海华庭,69,20283,大连中海物业管理有限公司,2,辽宁,5,二手房,2009
沙河口区西南路851号3单元1层3号,大连,无开发商,沙河口,20190403,38.94344210837944,121.58246796944378,李家街,21,11490,无物业管理服务,0.1,辽宁,6,二手房,1985
金州新区先进街道五一路350-1号1-2层,大连,大连中连房地产开发有限公司,金州,20190403,39.078667146419825,121.77094423323935,聚鑫小区二期,39,7824,大连新生活物业管理有限公司,0.5,辽宁,6,二手房,2008
开发区红梅小区19栋-2-1-1号,大连,无开发商,开发区,20190403,29.906498897603264,121.5913630631805,古耕国际酒店公寓,51,10261,街道办事处（居委会）代管物业,3,辽宁,6,二手房,2010
大连市甘井子区椒房街24号楼2-104链家地产,大连,无开发商,甘井子,20190403,38.985363789837166,121.61034055597686,椒房,82,13823,无物业管理服务,0.5,辽宁,6,二手房,1985
甘井子区金北路17号,大连,暂无信息,甘井子,20190403,38.97553393692831,121.59969720502335,金二小学南,40,20184,无物业管理服务,-,辽宁,6,二手房,1976
甘井子区虹韵路114号,大连,大连亿达美加房地产开发有限公司,甘井子,20190403,38.95653310483457,121.5329869995972,第五郡五号地,78,28101,亿达物业管理有限公司,2,辽宁,5,二手房,2009
开发区高新里6栋-8,大连,无开发商,开发区,20190403,39.0710895068195,121.82860134358343,高民里,62,6489,街道办事处（居委会）代管物业,0.2,辽宁,6,二手房,1996
经济技术开发区城润万家62-8公建,大连,大连海汇房地产开发有限公司,开发区,20190403,39.06883436780937,117.72669530355309,正源吉祥e家祥福园,51,11447,大连正源物业服务有限公司,1.5,辽宁,5,二手房,2015
大连市甘井子区丰收路3-5号,大连,无开发商,甘井子,20190403,38.965377255081755,121.58288415324094,王家桥,62,15418,大连铁路物业管理有限公司,0.1,辽宁,5,二手房,1989
中山区中南路店212号门头房,大连,无开发商,中山,20190403,38.91149759691359,121.67700561077149,中南路,56,13499,街道办事处（居委会）代管物业,-,辽宁,5,二手房,1989
中山区武昌街武昌公寓6号公建,大连,暂无信息,中山,20190403,38.912280913445784,121.64921130527547,学府林居,25,10542,暂无信息,1,辽宁,5,二手房,2000
甘井子区千山路26号,大连,大连嘉兴房地产开发有限公司,甘井子,20190403,38.985697948031984,121.58768860037272,千山路,62,12104,无物业管理服务,0.5,辽宁,5,二手房,1989
高新园敬贤街23-11号,大连,大连晟远房地产开发有限公司,高新园区,20190403,38.869456648212356,121.53023725049893,恒瑞坦城,69,17699,大连恒德物业服务有限公司,2.4,辽宁,5,二手房,2015
"西岗区泰公街20号2层7号 西岗区久寿街22号1层14号""",大连,大连万达房地产开发有限公司,西岗,20190403,38.92600196862723,121.62141976476381,万达高层,19,11681,大连白云物业管理公司,0.3,辽宁,5,二手房,1995
开发区润海园中区18#2号,大连,华润（大连）房地产有限公司,开发区,20190403,39.04047273176333,121.76392358042445,华润海中国六期,46,14478,华润物业（大连）有限公司,3.1,辽宁,5,二手房,2016
高新园区海苑街36号1单元2号公建,大连,大连海苑房屋开发有限公司,高新园区,20190403,20.06392317589085,110.32302599457326,海苑花园,22,14246,大连家园物业有限公司,0.3,辽宁,5,二手房,2000
大连市沙河口区黄河路729号,大连,无开发商,沙河口,20190403,38.91710565765228,121.58954758972729,南昌平小区,49,12617,街道办事处（居委会）代管物业,0.8,辽宁,5,二手房,1986
金州新区先进街道渤海街7-4号1-2层、7-3号1-2层,大连,大连九鼎置地有限公司,金州,20190403,39.09342713035472,121.74590886291374,万科城,73,11127,大连万科物业服务有限公司,2.2,辽宁,5,二手房,2015
甘井子区红南东街7-7号,大连,大连大实企业集团房屋开发有限公司,甘井子,20190403,38.92880462247992,121.54144910207062,泊林和山,26,11561,大连弘实物业管理有限公司,0.6,辽宁,5,二手房,2007
中山区碧浪园4号-3号,大连,无开发商,中山,20190403,38.89147289460474,121.69329560326236,碧海园,20,18079,大连远洋基业物业管理有限公司,0.5,辽宁,5,二手房,2000
高新园区火炬路18号,大连,大连联合柏立置业有限公司,高新园区,20190403,38.937738080520404,117.39340752036043,柏悦国际公寓,33,17781,大连柏悦国际公寓管理有限公司,3.5,辽宁,5,二手房,2012
开发区兴城路29-81层,大连,大连亿锋房地产实业有限公司,开发区,20190403,39.050214252167194,121.75835946441768,亿锋广场二期,49,14770,大连广恒物业管理有限公司,2.5,辽宁,5,二手房,2015
甘井子区祥龙街2号楼1单元1楼1号,大连,大连美辰房地产开发有限公司,甘井子,20190403,38.988045874482445,121.60439401971377,美辰香醒,54,15626,大连众和物业管理有限公司,1.4,辽宁,5,二手房,2012
甘井子区惠泽南园3-4号,大连,大连长鹭房屋开发有限公司,甘井子,20190403,38.939326611323615,121.52337842113351,晶品缘林,15,16851,大连三和住邦物业管理有限公司,1,辽宁,5,二手房,2008
大连市金州新区中长街道碧海尚城5-4号1-2层,大连,无开发商,金州,20190403,39.100290954587514,121.7304796052032,体育场小区,61,7213,街道办事处（居委会）代管物业,-,辽宁,5,二手房,1995
金州区站前街道盛滨花园B区13号楼2号公建,大连,大连建兴房屋开发有限公司,金州,20190403,39.09609011892329,121.7335816409767,建兴花园,32,7365,街道办事处（居委会）代管物业,0.5,辽宁,5,二手房,1999
无门店信息,大连,大连金宸集团,金州,20190403,34.52713835999158,118.76812980670795,金宸联郡,18,8793,大连四通物业管理有限公司,1.4,辽宁,5,二手房,2015
大连经济技术开发区同和里7栋-9号,大连,无开发商,开发区,20190403,39.04901984220615,121.7885236929847,新星里,47,7804,大连广谊物业管理有限公司,0.3,辽宁,5,二手房,2003
无门店信息,大连,暂无信息,甘井子,20190403,34.52713835999158,118.76812980670795,亿达春田蝶园,54,16890,亿达物业管理有限公司,2.2,辽宁,5,二手房,2014
金州区金润小区B区861单元102,大连,大连中连房地产开发有限公司,金州,20190403,39.10615165380565,121.74639264534615,自然天城B区,62,7232,大连新生活物业管理有限公司,0.4,辽宁,5,二手房,2010
西岗区香炉礁24号1-1,大连,无开发商,西岗,20190403,38.92047268927287,121.61862512554262,工人村,47,10372,街道办事处（居委会）代管物业,0.5,辽宁,5,二手房,1980
大连市金州新区中长街道碧海尚城5-4号1-2层,大连,大连集品置业有限公司,金州,20190403,39.100290954587514,121.7304796052032,东林世家,42,15086,大连百安物业管理有限公司,1,辽宁,5,二手房,2008
无门店信息,大连,大连世茂嘉年华置业有限公司,金州,20190403,34.52713835999158,118.76812980670795,世茂御龙海湾,176,11373,经纬物业(中国)有限公司,2,辽宁,5,二手房,2014
开发区景和园1-7,大连,无开发商,开发区,20190403,30.41892168817929,120.30896459202738,古耕景和园,35,9262,街道办事处（居委会）代管物业,0.5,辽宁,5,二手房,2008
开发区黄海西路54号,大连,大连凯伦房地产开发股份有限公司,开发区,20190403,39.047714586087785,121.76688238228269,凯伦凯悦,91,8591,大连凯悦物业管理有限公司,3.1,辽宁,5,二手房,2008
沙河口区华北路448号楼1-4公建,大连,无开发商,甘井子,20190403,38.903224944733765,121.56809734950556,周山街,14,15940,街道办事处（居委会）代管物业,0.5,辽宁,5,二手房,1989
无门店信息,大连,大连九城房地产开发有限公司,开发区,20190403,34.52713835999158,118.76812980670795,新城丽景,15,10169,大连恒瑞物业管理有限公司,1.2,辽宁,5,二手房,2015
无门店信息,大连,大连环宇置业有限公司,开发区,20190403,34.52713835999158,118.76812980670795,环宇品阁,61,6368,大连环宇物业管理有限公司,1.5,辽宁,5,二手房,2010
无门店信息,大连,大连航宇房屋开发有限公司,甘井子,20190403,34.52713835999158,118.76812980670795,西郊棠梨园,15,11603,渤海吉祥物业管理有限公司,0.5,辽宁,5,二手房,2007
西岗区鞍山路29号龙畔锦城东门,大连,无开发商,西岗,20190403,38.92763470697088,121.61498923399098,铁路西站,17,12191,无物业管理服务,-,辽宁,5,二手房,1981
沙河口区锦石路8号,大连,大连运腾房地产开发有限公司,沙河口,20190403,38.94771288948481,121.56110903658733,锦云南园,59,9869,大连锦绣物业管理有限公司,0.3,辽宁,5,二手房,1996
甘井子区虹港路16号楼1层公建,大连,亿达房地产开发有限公司,甘井子,20190403,38.9645939333502,121.553851837474,虹港路（机场商圈）,33,12067,亿达物业管理有限公司,0.2,辽宁,5,二手房,1996
沙河口区红旗东路18-22号2单元1楼3号,大连,大连益嘉房屋开发有限公司,沙河口,20190403,38.913544290955585,121.59450670056631,益嘉广场,39,16891,大连益嘉物业管理有限公司,1.8,辽宁,4,二手房,2012
高新园区火炬路18号,大连,大连千业房地产开发有限公司,高新园区,20190403,38.937738080520404,117.39340752036043,第8区,43,17633,大连大管家物业管理有限公司,1.9,辽宁,4,二手房,2012
西岗区黄河路90号公建部分,大连,大连鼎森房地产开发有限公司,西岗,20190403,38.92234529815978,121.62829331825485,金宸国际,37,15936,英联华（香港）物业管理顾问有限公司,2.2,辽宁,4,二手房,2004
大连市甘井子区钻石湾和信园13-5,大连,远洋地产有限公司,甘井子,20190403,38.958699272665584,121.61903564217761,远洋钻石湾一期,92,23223,大连远洋基业物业管理有限公司,2.7,辽宁,4,二手房,2014
甘井子区哲林北园17-6号,大连,大连亿达美加房地产开发有限公司,甘井子,20190403,38.9600267109581,121.53876726228256,第五郡三号地,62,29636,亿达物业管理有限公司,2.2,辽宁,4,二手房,2012
无门店信息,大连,大连亚联房地产开发有限公司,甘井子,20190403,34.52713835999158,118.76812980670795,翡翠春城,82,14741,大连亚联物业管理有限公司,1.6,辽宁,4,二手房,2012
甘井子区亿家缘虹韵路205,大连,大连亿达美加房地产开发有限公司,甘井子,20190403,38.95647848453699,121.53130152244339,第五郡四号地,44,27909,亿达物业管理有限公司,2,辽宁,4,二手房,2010
开发区红梅小区19栋-2-1-1号,大连,开发区城建局,开发区,20190403,29.906498897603264,121.5913630631805,红梅小区,40,11608,街道办事处（居委会）代管物业,0.3,辽宁,4,二手房,1995
高新园区黄浦路901S号1单元1层3号,大连,大连海创房地产开发有限公司,高新园区,20190403,38.85845801548294,121.51687109601923,谷歌里,49,14871,大连海创物业管理有限公司,1.2,辽宁,4,二手房,2009
开发区润海园中区30-1,大连,华润（大连）房地产有限公司,开发区,20190403,39.04047273176333,121.76392358042445,华润海中国三期,165,14565,华润物业（大连）有限公司,3.1,辽宁,4,二手房,2013
甘井子区红旗花园23号楼19-24轴公建,大连,大连银泰房地产有限公司,甘井子,20190403,38.93108029984587,121.54902145022133,祥和园,23,14542,无物业管理服务,0.5,辽宁,4,二手房,2002
高新园区红凌路732-4号,大连,大华集团大连置业有限公司,高新园区,20190403,38.90204708664442,121.53244406374695,大华锦绣华城二期,43,25872,大连大华物业管理有限公司,2.5,辽宁,4,二手房,2013
金州新区润海园中区18#2号,大连,华润置地（大连）有限公司,开发区,20190403,39.04047273176333,121.76392358042445,华润海中国二期,138,14431,华润物业（大连）有限公司,2.8,辽宁,4,二手房,2011
沙河口区黄河路562号,大连,大连新型房地产开发有限公司,沙河口,20190403,38.9167961764482,121.60352063132478,79中科学家公寓,47,22269,大连新兴物业管理有限公司,0.8,辽宁,4,二手房,1995
中山区东港龙湖水晶郦湾7-102,大连,大连金广地产集团有限公司,中山,20190403,38.924700620463895,121.70344398518496,金广东海岸,74,23684,大连金广物业有限公司,2.2,辽宁,4,二手房,2009
高新园区海苑街30号1单元1号公建,大连,大连大有房屋开发有限公司,高新园区,20190403,20.06392317589085,110.32302599457326,大有恬园二期,46,17566,大连家园物业有限公司,1.2,辽宁,4,二手房,2010
甘井子区惠泽南园3-4号,大连,大连鹏德房屋开发有限公司,甘井子,20190403,38.939326611323615,121.52337842113351,西山阳光水岸,48,16985,大连三和住邦物业管理有限公司,1,辽宁,4,二手房,2007
大连市甘井子区丰收路3-5号,大连,大连邦德房屋开发有限公司,甘井子,20190403,38.965377255081755,121.58288415324094,芙蓉人家,58,16570,大连广丰物业管理有限公司,0.5,辽宁,4,二手房,2002
沙河口区昌黎街77号楼第1层公建,大连,大连金新房地产开发有限公司,沙河口,20190403,38.91974518366595,121.5902918379551,福佳新天地,73,14394,大连福佳物业管理有限公司,1.8,辽宁,4,二手房,2003
甘井子区虹城路503号1-1号,大连,大连易和房地产集团有限公司,甘井子,20190403,38.981193588625004,121.49964051837122,岭秀滨城悦和中园,31,16057,大连易兴物业服务有限公司,1.3,辽宁,4,二手房,2009
沙河口区五一路110-4号,大连,大连大重房屋开发有限公司,沙河口,20190403,38.913544290955585,121.59450670056631,星台花园一期,31,16086,大连大重房屋开发公司物业管理中心,-,辽宁,4,二手房,1998
沙河口区富国街14号1-1-2,大连,大连永辉房地产开发有限公司,沙河口,20190403,38.901027106600836,121.59047734850638,百年汇,99,18429,大连百年城物业管理有限公司,2.8,辽宁,4,二手房,2007
沙河口区黑石礁街5号1层1号,大连,无开发商,沙河口,20190403,38.879813345473714,121.56313742300513,黑石礁广场,27,13623,无物业管理服务,-,辽宁,4,二手房,1992
中山区爱华街13号,大连,无开发商,中山,20190403,38.92541607518685,121.6535728031028,九中一德街,12,41001,无物业管理服务,-,辽宁,4,二手房,1984
中山区东港龙湖水晶郦湾7-102,大连,大连保利东港房地产开发有限公司,中山,20190403,38.924700620463895,121.70344398518496,保利天禧,45,24947,保利物业服务有限公司,4.8,辽宁,4,二手房,2017
甘井子区泉水B5区27-9,大连,大连运达房地产集团有限公司,甘井子,20190403,39.01477152073682,121.60970286326823,锦泉源B5区,67,12746,政治物业管理有限公司,0.1,辽宁,4,二手房,1999
高新园区硅谷假日小区25号楼地下室,大连,暂无信息,高新园区,20190403,38.86467854992112,121.53720784613759,硅谷假日公寓,17,14776,大连斌弘物业管理有限公司,1.5,辽宁,4,二手房,2005
沙河口区西南路161号,大连,无开发商,沙河口,20190403,38.89269676588945,121.56639953951542,孙家沟,72,12224,无物业管理服务,-,辽宁,4,二手房,1990
甘井子辛吉街150号-7号,大连,大连金马房屋开发有限公司,甘井子,20190403,38.96368508446978,121.52671221254214,金马圣隆,27,13038,大连金马圣隆物业管理有限公司,0.5,辽宁,4,二手房,2006
沙河口区南沙街36号台二2号1-1-37,大连,大连康加立置业有限公司,沙河口,20190403,38.90741410359388,121.57685699961822,台四小区,33,13048,大连弘达物业管理有限公司,-,辽宁,4,二手房,1996
大连市甘井子区辛如街35号1单元1层1号,大连,大连新星房地产开发有限公司,甘井子,20190403,38.96862607066881,121.52294869064194,新星绿城六期,35,14658,大连生生物业管理有限公司,1,辽宁,4,二手房,2008
甘井子区柳树南街45-10号,大连,大连都源置业有限公司,甘井子,20190403,38.92567666296449,121.4841330254372,依云溪谷,56,15517,大连远洋物业管理有限公司,1.2,辽宁,4,二手房,2008
高新园区敬贤街25-9,大连,大连东盛房地产开发有限公司,高新园区,20190403,38.86879447142154,121.53007349209936,东盛启城,27,17493,大连东盛物业管理有限公司,2.3,辽宁,4,二手房,2012
沙河口区五一路219-1,大连,大连圣北房地产有限公司,沙河口,20190403,38.913544290955585,121.59450670056631,电业花园,10,13941,大连市沙河口房产物业管理有限公司,0.3,辽宁,4,二手房,1999
甘井子区虹城路503号1-1号,大连,大连易和房地产集团有限公司,甘井子,20190403,38.981193588625004,121.49964051837122,岭秀滨城悦和东园,69,15238,大连易兴物业服务有限公司,1.3,辽宁,4,二手房,2009
沙河口区长江路738号,大连,无开发商,西岗,20190403,38.913544290955585,121.59450670056631,21中五一广场,25,20596,无物业管理服务,-,辽宁,4,二手房,1976
沙河口区五一路270-274号,大连,无开发商,高新园区,20190403,38.913544290955585,121.59450670056631,由家村,24,12494,无物业管理服务,-,辽宁,4,二手房,1990
甘井子区泉水H3区15号3单元1层2号,大连,大连新型房地产开发有限公司,甘井子,20190403,39.00158439075201,121.62616882572375,龙畔金泉二期,88,12806,大连新型物业管理有限公司,0.5,辽宁,4,二手房,2004
甘井子区华龙南园34-5号34-库4号34-5号,大连,大连钧卫达房地产开发有限公司,甘井子,20190403,38.98270467597865,121.6117222765123,亲亲美境,25,12026,大连三和住邦物业管理有限公司,0.9,辽宁,4,二手房,2008
西岗区平等街21号1层2号,大连,无开发商,西岗,20190403,38.92251066253164,121.63236845125735,香榭里,37,9941,大连金地物业管理有限公司,3.6,辽宁,4,二手房,2010
无门店信息,大连,大连软件园恒荣开发有限公司,高新园区,20190403,34.52713835999158,118.76812980670795,亿达普罗旺斯三期,25,20659,亿达物业管理有限公司,2.6,辽宁,4,二手房,2017
甘井子区玉丽街2号楼1单元4号公建,大连,大连新型房地产开发有限公司,甘井子,20190403,38.98705071699301,121.55513043130172,泡崖康馨园,33,10286,大连新兴物业管理有限公司,0.2,辽宁,4,二手房,2004
甘井子区山东路商业街D区12号公建,大连,无开发商,甘井子,20190403,39.001060021502965,121.58883960371418,七绣路,26,11492,街道办事处（居委会）代管物业,0.5,辽宁,4,二手房,1996
沙河口区黑石礁街3号1层1-1号,大连,大连辰熙房地产开发有限公司,沙河口,20190403,38.880058010307856,121.56313403908827,辰熙星海国际,20,15889,大连世邦友好物业管理有限公司,2.2,辽宁,4,二手房,2006
甘井子区甘井子路32号楼1单元1楼9号,大连,无开发商,甘井子,20190403,38.982488275116516,121.63345389253514,松江小区,37,10457,街道办事处（居委会）代管物业,0.5,辽宁,4,二手房,1995
甘井子区华北路花锦园28号23-3-1-2建筑物,大连,大连市中联房地产开发有限公司,甘井子,20190403,38.951627958411166,121.5739439799003,香周路（甘）,21,16265,街道办事处（居委会）代管物业,0.1,辽宁,4,二手房,1987
沙河口区西南路40号楼,大连,无开发商,沙河口,20190403,38.94143337232082,121.58616557598133,尖山街,13,13356,无物业管理服务,-,辽宁,4,二手房,1990
甘井子区玉丽街2号楼1单元4号公建,大连,大连新型房地产开发有限公司,甘井子,20190403,38.98705071699301,121.55513043130172,泡崖康居园,54,10297,大连新兴物业管理有限公司,0.5,辽宁,4,二手房,2000
大连市甘井子区张前路620-18号（第19幢1单元1跃2层14号）,大连,无开发商,甘井子,20190403,38.98764207496216,121.52409526893047,嘉安边防家园,16,12079,大连新型物业管理有限公司,1,辽宁,4,二手房,2009
无门店信息,大连,大连安邦房地产开发有限公司,甘井子,20190403,34.52713835999158,118.76812980670795,安邦阳光润城,30,13150,无物业管理服务,-,辽宁,4,二手房,2011
沙河口区西南路643号,大连,无开发商,沙河口,20190403,38.943483429804665,121.5833555851182,西关街,34,11112,无物业管理服务,-,辽宁,4,二手房,1995
沙河口区富国街34-3,大连,无开发商,沙河口,20190403,38.90159716600704,121.58930603357904,星海街,29,11909,无物业管理服务,-,辽宁,4,二手房,1990
甘井子区虹港路391号第五幢1单元1跃2层3号,大连,大连加尔伦房地产开发有限公司,甘井子,20190403,38.96606635942528,121.53201387432493,万科金域华府,29,23079,大连万科物业服务有限公司,3,辽宁,4,二手房,2016
大连经济技术开发区时代城4-3号1-2号,大连,远洋地产有限公司,开发区,20190403,39.0992481321252,121.83007860699459,远洋时代城四期,55,9016,大连远洋基业物业管理有限公司,1.5,辽宁,4,二手房,2012
开发区金源南里14栋-11号一层部分，14号-12号一层部分,大连,无开发商,开发区,20190403,39.06148862675436,121.82503941311765,金源南里,71,8581,嘉兴物业管理有限公司,0.3,辽宁,4,二手房,2001
西岗区长春路334号,大连,大连新型房地产开发总公司,西岗,20190403,38.89807766522607,121.63221082858387,林茂小区,28,10197,大连新型物业管理有限公司,0.2,辽宁,4,二手房,1995
沙河口区锦石路8号,大连,大连锦绣房地产开发有限公司,沙河口,20190403,38.94771288948481,121.56110903658733,锦云中园,61,10493,大连锦绣物业管理有限公司,0.3,辽宁,4,二手房,1996
开发区景和园1-7,大连,开发区城建局,开发区,20190403,30.41892168817929,120.30896459202738,小孤山东里,78,6302,大连广谊物业管理有限公司,0.4,辽宁,4,二手房,2000
沙河口区长江路738号,大连,勋业（大连）置业有限公司,西岗,20190403,38.913544290955585,121.59450670056631,远洋风景,53,24270,大连远洋风景物业服务中心,1.9,辽宁,3,二手房,2007
甘井子金地艺境博艺西园2-1号,大连,暂无信息,甘井子,20190403,39.04402110608829,121.665484498555,欣家园一期,22,9217,街道办事处（居委会）代管物业,-,辽宁,4,二手房,-
沙河口区华北路404号,大连,暂无信息,沙河口,20190403,38.8862815932937,121.59082948696123,柳华街,17,10988,无物业管理服务,0.1,辽宁,4,二手房,1985
无门店信息,大连,开发区城建局,开发区,20190403,34.52713835999158,118.76812980670795,东居里,128,6895,大连经济技术开发区海青物业有限公司,0.2,辽宁,4,二手房,1996
金州区南棉路310号,大连,无开发商,金州,20190403,39.09939229372624,121.72414976100345,南棉小区,159,7059,街道办事处（居委会）代管物业,0.5,辽宁,4,二手房,1990
开发区黄海西路201号107公建,大连,无开发商,开发区,20190403,39.04942604506828,121.80126318235419,岗盛里小区,109,6716,街道办事处（居委会）代管物业,0.5,辽宁,4,二手房,1995
金州区拥政街道733号-8号1-2层,大连,无开发商,金州,20190403,39.11690610445662,121.73030803603723,花园小区,13,7872,大连四通物业管理有限公司,0.1,辽宁,4,二手房,1993
金州新区先进街道五一路350-1号1-2层,大连,大连市金州区育才房地产开发有限公司,金州,20190403,39.078667146419825,121.77094423323935,康居小区,56,7574,街道办事处（居委会）代管物业,-,辽宁,4,二手房,1998
甘井子区玉丽街2号楼1单元4号公建,大连,暂无信息,甘井子,20190403,38.98705071699301,121.55513043130172,玉山路,30,10256,大连新兴物业管理有限公司,0.5,辽宁,4,二手房,2002
中山区鲁迅路204号百盛新药特药商店一楼西侧部分,大连,无开发商,中山,20190403,38.9258993614899,121.6768880001226,鲁迅路（寺儿沟商圈）,10,11988,无物业管理服务,-,辽宁,4,二手房,1990
开发区大开高吉里33栋6号,大连,无开发商,开发区,20190403,39.07355836059941,121.8280439450145,高泰里,18,5991,无物业管理服务,-,辽宁,4,二手房,1998
开发区东北三街94号1层,大连,大连同济房地产开发有限公司,开发区,20190403,39.05723508011585,121.80570768630555,新东方公寓三期,72,6626,大连同济物业管理有限公司,1.5,辽宁,4,二手房,2009
甘井子区玉丽街2号楼1单元4号公建,大连,暂无信息,甘井子,20190403,38.98705071699301,121.55513043130172,玉意街,44,9776,大连新兴物业管理有限公司,0.3,辽宁,4,二手房,2002
大连市甘井子区泉水N2区3-13号,大连,暂无信息,甘井子,20190403,39.021116079001885,121.64659997607325,泉水N2区,46,10905,无物业管理服务,0.7,辽宁,4,二手房,2009
开发区高新里6栋-8,大连,无开发商,开发区,20190403,39.0710895068195,121.82860134358343,高志里小区,37,6453,街道办事处（居委会）代管物业,0.3,辽宁,4,二手房,1993
甘井子区华东路33-5号,大连,暂无信息,甘井子,20190403,38.97497080220593,121.59479866243332,松江路（80中）,30,12880,大连新华物业管理有限公司,-,辽宁,4,二手房,1993
甘井子区中华路泉水A1区86号4单元1层1号,大连,大连运泽房地产开发有限公司,甘井子,20190403,39.0040531092963,121.60742125620513,润泽园,97,16627,大连城建开发集团物业管理有限公司,1.4,辽宁,3,二手房,2012
中山区民运巷 47号1层2号,大连,无开发商,中山,20190403,38.905955122300846,121.64798148011702,西山巷,24,10713,无物业管理服务,0.3,辽宁,4,二手房,1992
甘井子区哲林北园17-6号,大连,大连大力房屋开发有限公司,甘井子,20190403,38.9600267109581,121.53876726228256,圆梦园,5,20069,大连嘉禾物业管理服务有限公司,1.6,辽宁,4,二手房,2015
高新园区红凌路732-4号,大连,大华集团大连置业有限公司,高新园区,20190403,38.90204708664442,121.53244406374695,大华锦绣华城一期,44,25496,大连大华物业管理有限公司,2.5,辽宁,3,二手房,2010
甘井子区美域盛景A2区10-6,大连,大连泉水园房屋开发有限公司,甘井子,20190403,39.006221362805846,121.61022278003976,骏腾名苑,74,13622,大连衡德物业管理有限公司,0.5,辽宁,3,二手房,2006
沙河口区西南路358号1—2号,大连,大连泰安房地产开发有限公司,沙河口,20190403,38.90839654326566,121.56908246905662,泰安花园,25,15145,大连三宝物业发展有限公司,0.5,辽宁,3,二手房,1998
开发区红星海-B区89-1号,大连,远洋地产有限公司,开发区,20190403,39.027851194371685,121.80327394132297,红星海五期青屿蓝,168,14649,大连远洋基业物业管理有限公司,2.2,辽宁,3,二手房,2012
无门店信息,大连,大连软件园瑞安发展有限公司,高新园区,20190403,34.52713835999158,118.76812980670795,大连天地悦翠台,84,15548,大连万科物业服务有限公司,1,辽宁,3,二手房,2013
无门店信息,大连,大连顺迈房地产开发有限公司,沙河口,20190403,34.52713835999158,118.76812980670795,星海国宝,51,20197,长城物业集团股份有限大连分公司,3,辽宁,3,二手房,2003
沙河口区前程街46号4—1—2号,大连,大连欧兰房地产开发有限公司,甘井子,20190403,38.913544290955585,121.59450670056631,耕海山尚,22,17574,大连耕海物业管理有限公司,1.5,辽宁,3,二手房,2010
沙河口区黄河路535号,大连,大连金广地产集团有限公司,沙河口,20190403,38.91773777159567,121.60217159922856,79中美加华公寓,28,21073,大连亮泰安邦物业有限公司,2,辽宁,3,二手房,2008
西岗区鞍山路29号龙畔锦城东门,大连,大连凯润房屋开发有限公司,西岗,20190403,38.92763470697088,121.61498923399098,景润一期,34,11764,无物业管理服务,-,辽宁,3,二手房,2000
西岗区九三街64号,大连,润德集团有限公司,西岗,20190403,38.92047268927287,121.61862512554262,润德广场,52,15548,大连润德物业管理有限公司,3.8,辽宁,3,二手房,2011
无门店信息,大连,大连天启房地产开发有限公司,高新园区,20190403,34.52713835999158,118.76812980670795,百合IT家园,41,12775,大连亮泰安邦物业有限公司,0.6,辽宁,3,二手房,2008
高新园区红凌路732-4号,大连,大连亿达房地产股份有限公司,高新园区,20190403,38.90204708664442,121.53244406374695,亿达峦翠园,35,20286,亿达物业管理有限公司,1.3,辽宁,3,二手房,2009
沙河口区黄埔路427号,大连,大连名仕房地产开发有限公司,高新园区,20190403,38.913544290955585,121.59450670056631,名仕乐居,15,20571,大连万祥物业管理有限公司,1.3,辽宁,3,二手房,2008
甘井子区汇仁街22号,大连,大连铁龙房地产开发有限公司,甘井子,20190403,38.99712640764999,121.58834420439493,动力院景一期汇仁南园,14,15763,大连铁龙安居物业管理有限公司,0.7,辽宁,3,二手房,2006
沙河口区绿清街12号,大连,大连绿波房屋开发集团有限公司,沙河口,20190403,38.93851335419565,121.57334844377094,绿香花园,19,13152,大连大伟物业管理有限公司,0.4,辽宁,3,二手房,2001
西岗区华北路100号1层5号,大连,大连万达房地产开发有限公司,西岗,20190403,38.92047268927287,121.61862512554262,香海花园,21,16011,大连万达物业管理有限公司,0.8,辽宁,3,二手房,1999
甘井子区西南路979-7号公建,大连,大连祥盛房屋开发有限公司,甘井子,20190403,38.96275592929325,121.5958698791777,金盛家园,50,17660,大连宏华物业管理有限公司,0.5,辽宁,3,二手房,2001
沙河口区红旗东路18-22号2单元1楼3号,大连,无开发商,甘井子,20190403,38.913544290955585,121.59450670056631,天泉山庄,17,12893,大连铁龙安居物业管理有限公司,0.5,辽宁,3,二手房,2000
中山区同心街72号1楼公建,大连,大连泰宸房地产开发有限责任公司,中山,20190403,38.91979245940674,121.64769198230202,伊景华园,60,26368,街道办事处（居委会）代管物业,2.2,辽宁,3,二手房,2006
甘井子区促进路30号2-1-1,大连,大连谷和房屋开发有限公司,甘井子,20190403,38.954133128707575,121.58355746311207,谷和温馨苑,32,17636,大连谷和物业管理有限公司,0.6,辽宁,3,二手房,2002
高新园区海苑街36号1单元2号公建,大连,大连鸿越房地产开发有限公司,高新园区,20190403,20.06392317589085,110.32302599457326,康桥小镇,20,20313,大连长青物业管理中心,1.3,辽宁,3,二手房,2010
甘井子区汇仁街22号,大连,中铁建（大连）置业有限公司,甘井子,20190403,38.99712640764999,121.58834420439493,动力院景三期汇善园,42,15509,大连铁龙安居物业管理有限公司,0.9,辽宁,3,二手房,2007
甘井子区海口路77-4号公建,大连,大连圣韬房地产开发有限公司,甘井子,20190403,38.960286398428124,121.60305183172997,万福居,49,18603,大连圣韬物业管理有限公司,0.5,辽宁,3,二手房,2006
西岗区康平街2号（5号楼3-1-3号）,大连,大连北洋房屋开发公司,西岗,20190403,38.91044414697888,121.61980769264477,胜利花园,20,15389,大连宏成物业管理有限公司,0.5,辽宁,3,二手房,1997
高新园区海苑街30号1单元1号公建,大连,大连大有文园房屋开发有限公司,高新园区,20190403,20.06392317589085,110.32302599457326,大有文园,61,17591,大连大有恬园物业管理有限公司,2,辽宁,3,二手房,2012
沙河口区西南路643号,大连,大连海昌房屋开发有限公司,沙河口,20190403,38.943483429804665,121.5833555851182,兴港花园,7,11560,大连永佳物业管理有限公司,0.3,辽宁,3,二手房,1999
沙河口区绿波路34号楼5单元1楼3号,大连,大连东北房屋开发有限公司,沙河口,20190403,38.94049893962156,121.57316620632874,帝欧花园,37,17434,大连绿波建设发展有限公司,0.6,辽宁,3,二手房,2005
甘井子辛吉街150号-7号,大连,大连新星房地产开发有限公司,甘井子,20190403,38.96368508446978,121.52671221254214,新星绿城一期,33,11883,大连生生物业管理有限公司,0.5,辽宁,3,二手房,2003
高新园区敬贤街25-9,大连,大连海逸房地产开发有限公司,高新园区,20190403,38.86879447142154,121.53007349209936,海逸诺丁山,23,20004,大连耕海物业服务有限公司,2.5,辽宁,3,二手房,2015
沙河口区红凌路137号,大连,大连大实企业集团房屋开发有限公司,甘井子,20190403,38.922699288974506,121.54713601744747,泊林映山,21,12663,大连弘实物业管理有限公司,1.2,辽宁,3,二手房,2011
甘井子区红旗西路104-7,大连,大连盛达实业总公司,甘井子,20190403,38.940335495502666,121.52722586363274,盛新园,33,11993,大连盛新物业管理有限公司,0.3,辽宁,3,二手房,2000
沙河口区长江路738号,大连,大连大世界房地产开发有限公司,西岗,20190403,38.913544290955585,121.59450670056631,第九频道,39,25973,大世界商业联合机构,3.6,辽宁,3,二手房,2014
中山区爱华街13号,大连,无开发商,中山,20190403,38.92541607518685,121.6535728031028,39中安阳街,35,26334,无物业管理服务,-,辽宁,3,二手房,1993
沙河口区连山街44-2号半地下一层（地上一层部分）,大连,大连亿达房地产股份有限公司,沙河口,20190403,38.892991456958086,121.57299542767161,星海小区,22,11613,无物业管理服务,-,辽宁,3,二手房,1996
甘井子区辛寨子街道中冶蓝城辛虹园39-7号公建,大连,大连中冶京诚置业有限公司,甘井子,20190403,38.98155611421408,121.49259383356096,中冶蓝城D区,40,15881,大连添翼物业服务有限公司,2,辽宁,3,二手房,2011
大连市甘井子区泉水N2区3-13号,大连,大连金广地产集团有限公司,甘井子,20190403,39.021116079001885,121.64659997607325,泉水N3区,80,10858,无物业管理服务,0.7,辽宁,3,二手房,2000
甘井子区山东路398号,大连,大连盛铭资产管理有限公司,甘井子,20190403,38.99821826443242,121.59274974973462,亿合城,64,18366,大连盛安物业管理有限公司,1.5,辽宁,3,二手房,2013
开发区兴城路29-81层,大连,大连亿锋集团有限公司,开发区,20190403,39.050214252167194,121.75835946441768,亿锋广场三期,48,15122,大连广恒物业管理有限公司,2.8,辽宁,3,二手房,2015
大连市高新园区七贤中路63号,大连,大连全统房地产开发有限公司,高新园区,20190403,38.86053006357667,121.53273606963094,君海阁,18,18679,大连城建开发集团物业管理有限公司,2.2,辽宁,3,二手房,2013
中山区三八广场5号,大连,无开发商,中山,20190403,38.92540000551715,121.6642911149562,良运四季汇,59,22460,大连良运物业管理有限公司,0.8,辽宁,3,二手房,2010
甘井子区红旗西路104-7,大连,大连盛达基业房地产开发有限公司,甘井子,20190403,38.940335495502666,121.52722586363274,依山云水,25,14736,大连盛新物业管理有限公司,0.4,辽宁,3,二手房,2004
沙河口区展望街29,大连,大连嘉源置业发展有限公司,沙河口,20190403,38.93473052900021,121.57390298303343,御园,47,18180,大连御博物业,2,辽宁,3,二手房,2015
无门店信息,大连,大连亿达房地产股份有限公司,高新园区,20190403,34.52713835999158,118.76812980670795,亿达悦龙居,16,15014,亿达物业管理有限公司,2.8,辽宁,3,二手房,2015
甘井子区锦城东园1号3单元1层2号,大连,大连鹏生房地产开发有限公司,甘井子,20190403,38.952805477462775,121.55656194973994,鹏辉新纪元,18,16880,大连鹏辉物业管理有限公司,0.5,辽宁,3,二手房,2006
大连市甘井子区泉水R2区33-4号第8幢1单元1跃2层9号,大连,大连天意房地产开发有限公司,甘井子,20190403,39.00961080610692,121.63892035059047,金地檀溪,68,18421,大连金地物业管理有限公司,2.8,辽宁,3,二手房,2014
金州区小平岛B组团4号楼3号商铺,大连,大连圣岛房地产开发有限公司,高新园区,20190403,39.05643299166072,121.78943558267059,小平岛邻海园,26,17339,大连凯尔富物业管理有限公司,1.3,辽宁,3,二手房,2007
西岗区八一路196号1-3,大连,大连三环置业有限公司,西岗,20190403,38.92047268927287,121.61862512554262,桃花源小区,47,10129,大连三寰物业管理有限公司,0.5,辽宁,3,二手房,1996
高新园区黄浦路901S号1单元1层3号,大连,大连金真源集团房地产开发有限公司,高新园区,20190403,38.85845801548294,121.51687109601923,山海一家二期,18,13738,大连龙海物业管理有限公司,0.8,辽宁,3,二手房,2005
甘井子区海口路77—5号,大连,暂无信息,甘井子,20190403,38.960286398428124,121.60305183172997,鹏辉新世纪四期,54,17585,大连鹏辉物业管理有限公司,0.6,辽宁,3,二手房,2003
甘井子区华龙南园12-4-3-1-3,大连,大连融汇置业有限公司,甘井子,20190403,38.98528794231248,121.61028969481718,格林翠庭,13,14893,北京房修一物业管理有限公司,1.3,辽宁,3,二手房,2009
开发区大开高吉里33栋6号,大连,大连开建集团有限公司,开发区,20190403,39.07355836059941,121.8280439450145,高城北花园,33,8725,大连经济技术开发区聚盛达物业管理有限公司,0.2,辽宁,3,二手房,1998
中山区解放路604号,大连,大连雅风房屋开发有限公司,中山,20190403,38.89026319122045,121.66407876092346,秀月风景,4,17733,大连风景物业管理有限公司,1,辽宁,3,二手房,1996
大连市甘井子区泉水N2区3-13号,大连,大连半岛集团有限公司,甘井子,20190403,39.021116079001885,121.64659997607325,半岛泉水欣座,37,15001,大连半岛物业管理有限公司,1.5,辽宁,3,二手房,2010
甘井子区促进路30号2-1-1,大连,大连天河房地产开发集团有限公司,甘井子,20190403,38.954133128707575,121.58355746311207,促进路,15,11990,无物业管理服务,0.1,辽宁,3,二手房,1982
甘井子区汇达园26号,大连,大连红星美凯龙投资发展有限公司,甘井子,20190403,38.99704654604941,121.59758808878767,红星国际广场,129,15295,红星物业管理有限公司,1.5,辽宁,3,二手房,2014
甘井子区山东路127-2号,大连,大连市大钢集团,甘井子,20190403,38.99065559549029,121.59126483545545,苍山路,35,12432,街道办事处（居委会）代管物业,0.5,辽宁,3,二手房,1989
甘井子区玉云路27-3-1-3,大连,大连新型房地产开发有限公司,甘井子,20190403,38.97896234099927,121.55865563488358,泡崖三区,55,10564,大连新兴物业管理有限公司,0.5,辽宁,3,二手房,1995
无门店信息,大连,大连铁龙房地产开发有限公司,甘井子,20190403,34.52713835999158,118.76812980670795,连海金源,24,14148,大连铁龙安居物业管理有限公司,1.3,辽宁,3,二手房,2012
无门店信息,大连,大连新兴海韵房地产开发有限公司,开发区,20190403,34.52713835999158,118.76812980670795,山海家园,15,13787,大连经济技术开发区通讯物业有限公司,0.5,辽宁,3,二手房,2004
无门店信息,大连,大连航逸房地产开发有限公司,甘井子,20190403,34.52713835999158,118.76812980670795,中航华府,49,14475,中航物业管理有限公司大连分公司,2.5,辽宁,3,二手房,2016
开发区大开高吉里33栋6号,大连,大连开建集团有限公司,开发区,20190403,39.07355836059941,121.8280439450145,高城花园,31,7911,嘉兴物业管理有限公司,0.2,辽宁,3,二手房,2002
沙河口区前程街46号4—1—2号,大连,大连渤海红旗集团有限公司,甘井子,20190403,38.913544290955585,121.59450670056631,兰丰巷,15,10527,大连辽南物业管理有限公司,0.2,辽宁,3,二手房,1992
中山区民运巷 47号1层2号,大连,无开发商,中山,20190403,38.905955122300846,121.64798148011702,民运巷,17,10620,无物业管理服务,-,辽宁,3,二手房,1996
中山区爱华街13号,大连,大连一方地产有限公司,中山,20190403,38.92541607518685,121.6535728031028,大连国际酒店,19,22380,大连一方物业管理有限公司,3.0,辽宁,3,二手房,2006
甘井子区祥龙街2号楼1单元1楼1号,大连,大连宏孚房屋开发有限公司,甘井子,20190403,38.988045874482445,121.60439401971377,宏孚小区,31,10604,无物业管理服务,-,辽宁,3,二手房,1995
中山区武昌街武昌公寓6号公建,大连,无开发商,中山,20190403,38.912280913445784,121.64921130527547,气象街,18,22170,街道办事处（居委会）代管物业,0.5,辽宁,3,二手房,1989
无门店信息,大连,大连新跃房地产开发有限公司,金州,20190403,34.52713835999158,118.76812980670795,金海国际花园,212,7928,盘锦瀚新物业管理有限公司,1,辽宁,3,二手房,2015
开发区兴城路29-81层,大连,大连华宇房地产开发有限公司,开发区,20190403,39.050214252167194,121.75835946441768,华宇梧桐苑,22,12963,大连永嘉物业管理公司,1.9,辽宁,3,二手房,2013
甘井子区泉水K4区1号2单元1层1号,大连,暂无信息,甘井子,20190403,39.01482019232349,121.63242049308988,龙畔金泉五期K3区,42,13752,大连新兴物业管理有限公司,0.5,辽宁,3,二手房,2008
无门店信息,大连,暂无信息,旅顺口,20190403,34.52713835999158,118.76812980670795,熙龙山庄,82,8328,大连市辰馨物业服务有限公司,1,辽宁,3,二手房,2005
开发区黄海西路201号107公建,大连,大连开建房地产开发有限公司,开发区,20190403,39.04942604506828,121.80126318235419,芙蓉花园(开发区),44,6807,嘉兴物业管理有限公司,0.4,辽宁,3,二手房,2001
沙河口区华北路404号,大连,无开发商,沙河口,20190403,38.8862815932937,121.59082948696123,华北路（春柳商圈）,8,10254,街道办事处（居委会）代管物业,0.1,辽宁,3,二手房,1981
中山区山屏街116号1-1,大连,无开发商,中山,20190403,38.90729438486833,121.68598159980013,山屏东街,14,11501,无物业管理服务,-,辽宁,3,二手房,1990
中山区高尚路28-1号,大连,无开发商,中山,20190403,38.892673425111305,121.67148833870213,高原街,22,10300,街道办事处（居委会）代管物业,0.5,辽宁,3,二手房,1996
甘井子区甘井子路32号楼1单元1楼9号,大连,无开发商,甘井子,20190403,38.982488275116516,121.63345389253514,杨柳街,11,10558,街道办事处（居委会）代管物业,0.5,辽宁,3,二手房,1998
无门店信息,大连,大连中瀛房地产开发有限公司,旅顺口,20190403,34.52713835999158,118.76812980670795,中瀛臻堡,55,9612,大连中瀛物业管理服务有限公司,1,辽宁,3,二手房,2010
中山区益民街16号1层1号,大连,无开发商,中山,20190403,38.93092761298906,121.66470740073377,兴盛里（三八广场）,12,13298,无物业管理服务,-,辽宁,3,二手房,1993
无门店信息,大连,大连融和房地产开发有限公司,开发区,20190403,34.52713835999158,118.76812980670795,岚山著作,24,9423,大连昌和物业管理有限公司,1.3,辽宁,3,二手房,2014
西岗区八一路196号2-1-12号,大连,无开发商,西岗,20190403,38.92047268927287,121.61862512554262,八一路（八一路商圈）,15,10589,无物业管理服务,-,辽宁,3,二手房,1990
金州区金湾路132-2号,大连,大连金新房地产开发有限公司,金州,20190403,39.10269111644727,121.72221060686516,金州福佳新天地广场,82,8450,大连福佳物业管理有限公司,1.8,辽宁,3,二手房,2011
甘井子区西南路979-7号公建,大连,暂无信息,甘井子,20190403,38.96275592929325,121.5958698791777,八十中周家街,66,17164,街道办事处（居委会）代管物业,0.2,辽宁,3,二手房,1990
大连市金州新区友谊街道和平路59-10号1-2层公建,大连,大连金连房地产开发有限公司,金州,20190403,39.112168401852266,121.72006917947859,金连佳地,22,11088,街道办事处（居委会）代管物业,1.5,辽宁,3,二手房,2010
甘井子区山东路137号,大连,无开发商,甘井子,20190403,38.99129404608926,121.59172125999353,天河路,13,11807,街道办事处（居委会）代管物业,0.1,辽宁,3,二手房,1998
开发区黄海西路54号,大连,无开发商,开发区,20190403,39.047714586087785,121.76688238228269,翠南隆达院,23,8048,嘉兴物业管理有限公司,0.5,辽宁,3,二手房,1998
金州区光明街道育才街42-6号1-2层,大连,大连市金州区育才房地产开发有限公司,金州,20190403,39.109080894078986,121.7182584929096,职高小区,44,8651,大连金州育才物业管理有限公司,0.5,辽宁,3,二手房,1996
沙河口区黄河路535号,大连,大连城市建设集团有限公司,沙河口,20190403,38.91773777159567,121.60217159922856,79中金光小区,43,26171,无物业管理服务,-,辽宁,2,二手房,1993
沙河口区民权街324号,大连,大连城市建设集团有限公司,沙河口,20190403,38.92064616208148,121.59777611850379,天兴新家园,16,27541,大连天兴物业管理有限公司,0.5,辽宁,2,二手房,1999
高新园区黄浦路600-602号,大连,大连鑫亿房屋开发有限公司,高新园区,20190403,38.86342472318123,121.53493189660259,新科花园,24,18187,大连鑫晟物业管理有限公司,0.6,辽宁,2,二手房,2003
甘井子区玉云路27-3-1-3,大连,暂无信息,甘井子,20190403,38.97896234099927,121.55865563488358,泡崖新六区,30,10673,大连新型物业管理有限公司,0.3,辽宁,3,二手房,2003
沙河口区联合路133号,大连,大连新型房地产开发有限公司,沙河口,20190403,38.91608561262676,121.60480987310456,21中天兴花园一期,26,18956,大连万泰物业管理有限公司,0.5,辽宁,2,二手房,1998
沙河口区五一路110-4号,大连,大连亿达房地产股份有限公司,沙河口,20190403,38.913544290955585,121.59450670056631,兰亭山水,34,21091,亿达物业管理有限公司,0.6,辽宁,2,二手房,2003
高新园区书香街1A#1-1-2,大连,大连金弘基房地产开发有限公司,高新园区,20190403,38.880372108393104,121.55218773010999,弘基一期,17,20768,大连金弘基物业管理有限公司,0.6,辽宁,2,二手房,2001
甘井子区西南路979-7号公建,大连,无开发商,甘井子,20190403,38.96275592929325,121.5958698791777,八十中,0,14351,街道办事处（居委会）代管物业,0.9,辽宁,2,二手房,1999
沙河口区五一路177-1-1-1,大连,大华集团大连房地产开发有限公司,沙河口,20190403,38.913544290955585,121.59450670056631,大华御庭,50,22439,大连乐尔居物业服务有限公司,1.4,辽宁,2,二手房,2009
西岗区鞍山路29号龙畔锦城东门,大连,大连铁路房地产开发有限责任公司,西岗,20190403,38.92763470697088,121.61498923399098,龙畔锦城,47,20078,大连亚航物业管理有限公司,1.2,辽宁,2,二手房,2009
沙河口区黄河路535号,大连,大连民兴房地产开发有限公司,沙河口,20190403,38.91773777159567,121.60217159922856,79中民兴花园二期,29,26934,大连衡德物业管理有限公司,1.2,辽宁,2,二手房,2003
西岗区中山路158号唐山街市场外14号,大连,大连胜利路拓宽改造工程建设有限公司,西岗,20190403,38.91688106727098,121.63201298398174,星海绿山城,35,30221,无物业管理服务,1.5,辽宁,2,二手房,2015
沙河口区杨树街4-4号公建,大连,大连金弘基房地产开发有限公司,高新园区,20190403,38.88444587249751,121.55130620045541,弘基二期,32,22501,大连金弘基物业管理有限公司,0.6,辽宁,2,二手房,2003
西岗区胜利路33号,大连,暂无信息,西岗,20190403,38.91309771954841,121.62500886627636,34中胜利路,21,27395,无物业管理服务,0.5,辽宁,2,二手房,1985
金州新区八一路金都嘉园1号楼1号公建,大连,大连锦阳房地产开发有限公司,金州,20190403,39.05525210261778,121.74865634199398,古城天下,10,7248,大连锦阳房地产开发有限公司,1,辽宁,3,二手房,2004
金州区拥政街道733号-8号1-2层,大连,暂无信息,金州,20190403,39.11690610445662,121.73030803603723,中长小区,26,7078,街道办事处（居委会）代管物业,-,辽宁,3,二手房,1990
经济技术开发区城润万家4-5号公建,大连,无开发商,开发区,20190403,39.05716325096989,121.75946281983826,西山小区,6,7789,街道办事处（居委会）代管物业,0.5,辽宁,3,二手房,1996
中山区民建街10号1单元1号,大连,无开发商,中山,20190403,38.925444479476894,121.66915026954452,39中鲁迅路（三八广场）,2,20009,无物业管理服务,-,辽宁,3,二手房,1995
金州新区先进街道渤海街7-4号1-2层、7-3号1-2层,大连,大连金连房地产开发有限公司,金州,20190403,39.09342713035472,121.74590886291374,金纺馨公寓,23,6612,金州区物业管理有限公司,-,辽宁,3,二手房,2006
大连市金州新区中长街道碧海尚城5-4号1-2层,大连,无开发商,金州,20190403,39.100290954587514,121.7304796052032,于洼小区,54,7277,街道办事处（居委会）代管物业,0.1,辽宁,3,二手房,1990
沙河口区五一路326号,大连,无开发商,高新园区,20190403,38.913544290955585,121.59450670056631,双语学校,17,22300,无物业管理服务,0.2,辽宁,2,二手房,1998
沙河口区前程街15号1层E-C轴36-44轴公建,大连,大连安邦房地产开发有限公司,甘井子,20190403,38.91588050824643,121.60099647548584,阳光百合,12,16930,渤海吉祥物业管理有限公司,0.8,辽宁,2,二手房,2004
沙河口区西南路358号1—2号,大连,大连东兴置业有限公司,沙河口,20190403,38.90839654326566,121.56908246905662,西山园中园,26,23159,大连东昌物业管理有限公司,1.2,辽宁,2,二手房,2007
大连市高新园区七贤中路63号,大连,大连招宇房地产有限公司,高新园区,20190403,38.86053006357667,121.53273606963094,招商兰溪谷,30,22076,招商局物业管理有限公司大连分公司,2.6,辽宁,2,二手房,2015
中山区秀月街37号1层2号,大连,大连澳南房屋开发有限公司,中山,20190403,38.88757907576307,121.66311065527876,明秀山庄B区,27,35125,绿城物业服务集团有限公司大连分公司,1.9,辽宁,2,二手房,2008
沙河口区南沙街36号台二2号1-1-37,大连,大连鹏生房地产开发有限公司,沙河口,20190403,38.90741410359388,121.57685699961822,鹏顺园,46,25230,大连新型物业管理有限公司,0.5,辽宁,2,二手房,2001
"西岗区泰公街20号2层7号 西岗区久寿街22号1层14号""",大连,大连万达房地产开发有限公司,西岗,20190403,38.92600196862723,121.62141976476381,新春小区,9,15163,大连长青物业管理中心,0.2,辽宁,2,二手房,1997
大连市甘井子中华路街道汇畅街48号,大连,远洋地产有限公司,甘井子,20190403,39.0059299196697,121.59621871231741,远洋自然,60,17924,大连远洋基业物业管理有限公司,1.3,辽宁,2,二手房,2010
中山区中南路店212号门头房,大连,大连鸿业房地产开发有限公司,中山,20190403,38.91149759691359,121.67700561077149,中南风景,14,17895,大连自然物业管理有限公司,0.8,辽宁,2,二手房,2004
大连市甘井子区燕南园50号,大连,大连软件园发展有限公司,高新园区,20190403,38.90172480153224,121.5363466289672,东方圣克拉二期,49,27765,亿达物业管理有限公司,2.6,辽宁,2,二手房,2011
甘井子区金家街17-7号,大连,大连嘉兴房地产开发有限公司,甘井子,20190403,38.97493697764367,121.60110987128529,青林美地,34,20978,大连嘉盛物业管理有限公司,0.5,辽宁,2,二手房,2003
甘井子区虹港路16号楼1层公建,大连,大连建园房地产开发有限公司,甘井子,20190403,38.9645939333502,121.553851837474,城市印象,56,15992,大连天兴物业管理有限公司,1.8,辽宁,2,二手房,2011
中山区高尚路28-1号,大连,大连家园建设集团有限公司,中山,20190403,38.892673425111305,121.67148833870213,卡纳意乡,35,21461,大连四季物业服务有限公司,1.8,辽宁,2,二手房,2008
西岗区黄河路362号公建,大连,大连万佳房地产开发有限公司,西岗,20190403,38.91819905243802,121.61365779430986,优豪斯,15,25570,大连万佳物业管理有限公司,1.6,辽宁,2,二手房,2003
甘井子区金家街17-7号,大连,无开发商,甘井子,20190403,38.97493697764367,121.60110987128529,金二小学北,18,20797,无物业管理服务,-,辽宁,2,二手房,1970
甘井子区红南东街7-7号,大连,大连良运房地产开发有限公司,甘井子,20190403,38.92880462247992,121.54144910207062,山居笔记,18,16323,大连良运物业管理有限公司,1.5,辽宁,2,二手房,2009
沙河口区黄河路535号,大连,大连首星房地产开发有限公司,沙河口,20190403,38.91773777159567,121.60217159922856,金色年华公馆,44,26113,大连首星物业管理有限公司,2.8,辽宁,2,二手房,2011
沙河口区黄河路562号,大连,大连新型房地产开发有限公司,沙河口,20190403,38.9167961764482,121.60352063132478,79中中山公寓,8,25921,大连新兴物业管理有限公司,0.7,辽宁,2,二手房,1999
金州区小平岛B组团4号楼3号商铺,大连,安达圣岛开发有限公司,高新园区,20190403,39.05643299166072,121.78943558267059,小平岛亲海园,51,17374,大连凯尔富物业管理有限公司,1.3,辽宁,2,二手房,2007
甘井子区红南东街7-7号,大连,大连均卫达房地产开发有限公司,甘井子,20190403,38.92880462247992,121.54144910207062,亲亲阳光,15,13105,大连万泰物业管理有限公司,0.5,辽宁,2,二手房,2004
甘井子区华北路花锦园28号23-3-1-2建筑物,大连,大连东特房地产开发有限公司,沙河口,20190403,38.951627958411166,121.5739439799003,东特新居,19,13002,大连东特祥禾物业管理有限公司,0.5,辽宁,2,二手房,2000
沙河口区五四路207-1-9号,大连,中航国际中航地产,沙河口,20190403,38.913544290955585,121.59450670056631,中航国际广场,28,24040,中航物业管理有限公司大连分公司,3.6,辽宁,2,二手房,2017
沙河口区富国街34-3,大连,大连万达房地产开发有限公司,沙河口,20190403,38.90159716600704,121.58930603357904,星海自由港,12,20710,大连万景物业管理有限公司,1.2,辽宁,2,二手房,2003
沙河口区新生路万客园3-7,大连,大连中海兴业房地产开发有限公司,沙河口,20190403,38.94412875710208,121.57006756704837,中海天赋山一期,22,22593,大连中海物业管理有限公司,2.8,辽宁,2,二手房,2016
甘井子区泉水D1区37-7号,大连,大连运腾房地产开发有限公司,甘井子,20190403,39.013992871679214,121.61921940045104,锦泉源D4区,26,14161,大连嘉和物业管理有限公司,0.5,辽宁,2,二手房,2007
西岗区大同街125号,大连,大连新型房地产开发有限公司,西岗,20190403,38.920458602340894,121.61445835429899,银寰花园,32,11205,街道办事处（居委会）代管物业,0.5,辽宁,2,二手房,1995
大连市甘井子区椒房街24号楼2-104链家地产,大连,大连圣韬房地产开发有限公司,甘井子,20190403,38.985363789837166,121.61034055597686,万福山庄,16,14619,大连海旭物业管理有限公司,0.5,辽宁,2,二手房,2005
甘井子区泉水H3区15号3单元1层2号,大连,大连新型房地产开发有限公司,甘井子,20190403,39.00158439075201,121.62616882572375,龙畔金泉三期,56,13372,大连新型物业管理有限公司,0.5,辽宁,2,二手房,2004
沙河口区成仁街91号,大连,无开发商,沙河口,20190403,38.91539947107844,121.59585638842556,西安路公寓,18,13076,大连协和物业管理有限公司,0.5,辽宁,2,二手房,2000
开发区小孤山西里3栋-11号,大连,大连开建房地产开发有限公司,开发区,20190403,39.02715282297674,121.80682183666346,瑞仕尚城,48,11237,大连阿尔滨汇城物业服务有限公司,1.1,辽宁,2,二手房,2008
甘井子区汇仁街19号12号楼1单元102室,大连,大连凯祥房地产开发有限公司,甘井子,20190403,38.99746297497168,121.58917714380617,名贵山庄亲情园,26,14755,大连弘益达物业管理有限公司,0.5,辽宁,2,二手房,2002
中山区职工街96号1-3层公建,大连,大连嘉和房地产集团有限公司,中山,20190403,38.92565613737007,121.66193575790903,嘉和广场,78,20228,大连华安物业管理有限公司,3.8,辽宁,2,二手房,2014
甘井子区辛寨子街道中冶蓝城辛虹园39-7号公建,大连,大连中冶京诚置业有限公司,甘井子,20190403,38.98155611421408,121.49259383356096,中冶蓝城E区,38,15115,大连添翼物业服务有限公司,2,辽宁,2,二手房,2010
中山区爱华街13号,大连,无开发商,中山,20190403,38.92541607518685,121.6535728031028,九中安民街,26,38782,无物业管理服务,-,辽宁,2,二手房,1995
甘井子区泉水D6区51号,大连,大连时代房地产开发有限公司,甘井子,20190403,39.00897610161069,121.61789300655198,富士庄园,61,15884,大连佳泰物业管理有限公司,1.2,辽宁,2,二手房,2006
西岗区香炉礁24号1-1,大连,中瑞置业（大连）有限公司,西岗,20190403,38.92047268927287,121.61862512554262,香周首府,77,19704,中融物业管理有限公司,3,辽宁,2,二手房,2014
甘井子区红韵路114号,大连,大连亿达美加房地产开发有限公司,甘井子,20190403,38.95800216293212,121.53151895549547,第五郡六号地,45,31695,亿达物业管理有限公司,3,辽宁,2,二手房,2009
甘井子区知音园20号3单元1层1号,大连,大连诚信万奕房地产开发有限公司,高新园区,20190403,38.95800216293212,121.53151895549547,万奕学院派,18,26980,大连空港物业管理有限公司,1.3,辽宁,2,二手房,2010
莲花山路89-3号,大连,大连铁路房地产开发有限责任公司,西岗,20190403,38.902848261803356,121.6041720815823,新华小区(西岗),9,12954,大连铁路物业管理有限公司,0.3,辽宁,2,二手房,1998
甘井子区亿家缘虹韵路205,大连,大连耕海置业有限公司,甘井子,20190403,38.95647848453699,121.53130152244339,国民院子,27,20948,大连耕海物业管理有限公司,2,辽宁,2,二手房,2012
甘井子区佳林北园2-7号,大连,大连瑞泰祥房地产开发有限公司,甘井子,20190403,38.96331610956877,121.52802328494242,缇香漫城,47,20540,大连瑞泰祥物业服务有限公司,2,辽宁,2,二手房,2013
中山区北斗街53号1层1号,大连,大连万众房屋开发有限公司,中山,20190403,38.92727355733075,121.67002970974048,清华园(中山),19,18618,大连万众物业有限公司,1.7,辽宁,2,二手房,2003
沙河口区锦霞南园13号3-1-1,大连,大连锦绣房地产开发有限公司,沙河口,20190403,38.94761264366187,121.55126272246873,锦华南园,20,10605,大连锦绣物业管理有限公司,0.3,辽宁,2,二手房,2002
沙河口区民权街324号,大连,大连天河房地产开发集团有限公司,沙河口,20190403,38.92064616208148,121.59777611850379,民权小区,44,12729,大连福港物业管理有限公司,0.2,辽宁,2,二手房,1992
沙河口区连山街10号2-1-2,大连,大连国合嘉汇房地产开发有限公司,沙河口,20190403,38.89637522563413,121.57143690983219,心宁苑,5,16815,大连国合物业管理有限公司,0.6,辽宁,2,二手房,2001
经济技术开发区红星海-A区81-2号1层,大连,无开发商,开发区,20190403,39.027851194371685,121.80327394132297,西雅图,32,10231,大连维泰物业管理有限公司,0.8,辽宁,2,二手房,2004
中山区中南路226号,大连,大连亿泰房屋开发有限公司,中山,20190403,38.90029610333926,121.68178899957817,亿泰庄园,11,13504,大连远洋基业物业管理有限公司,0.7,辽宁,2,二手房,1999
大连市甘井子区软件园路122号,大连,大连理工科技城建设开发有限公司,高新园区,20190403,38.89286578891647,121.53266600180116,理工园,13,14087,街道办事处（居委会）代管物业,1,辽宁,2,二手房,2000
开发区松苑街23号,大连,大连天安房地产开发有限公司,开发区,20190403,22.52087435807652,113.40156105086167,天安海景花园,16,12759,大连港力物业管理有限公司,1.2,辽宁,2,二手房,2006
大连市甘井子区融田西园52-11,大连,亿达集团大连科技城发展有限公司,甘井子,20190403,38.95800216293212,121.53151895549547,亿达春田馥园,57,20084,亿达物业管理有限公司,1.5,辽宁,2,二手房,2011
中山区民建街10号1单元1号,大连,大连港连房地产开发有限公司,中山,20190403,38.925444479476894,121.66915026954452,海港公寓（三八广场）,28,21787,大连海港物业管理有限公司,0.2,辽宁,2,二手房,1996
大连市甘井子区椒房街24号楼2-104链家地产,大连,中铁建（大连）置业有限公司,甘井子,20190403,38.985363789837166,121.61034055597686,青秀蓝湾一期,34,20453,中国铁建地产集团物业公司,1.5,辽宁,2,二手房,2016
甘井子区玉丽街39号楼3号公建,大连,大连润置房地产有限公司,甘井子,20190403,38.98706755029984,121.55605471197089,华润二十四城,11,18005,华润物业（大连）有限公司,3.1,辽宁,2,二手房,2018
中山区同心街72号1楼公建,大连,无开发商,中山,20190403,38.91979245940674,121.64769198230202,南山里,15,16806,无物业管理服务,-,辽宁,2,二手房,1990
沙河口区兰田街33号,大连,大连万合房地产开发有限公司,沙河口,20190403,38.926138912221084,121.56486022834609,万合新家园,6,17658,大连佳宜物业管理有限公司,0.6,辽宁,2,二手房,2004
沙河口区西南路40号楼,大连,亿达房地产开发有限公司,沙河口,20190403,38.94143337232082,121.58616557598133,星浦庄园,17,12201,大连香都物业管理有限公司,0.5,辽宁,2,二手房,1997
天河路173-2号 华润考拉22号公建,大连,大连世隆房地产开发有限公司,甘井子,20190403,23.14720645345518,113.3277414923158,桑尼小镇,23,15511,大连大家物业管理有限公司,1.9,辽宁,2,二手房,2014
甘井子区祥龙街2号楼1单元1楼1号,大连,大连源隆房地产开发有限公司,甘井子,20190403,38.988045874482445,121.60439401971377,鑫汇茗苑,8,16785,大连佳和物业管理有限公司,1.6,辽宁,2,二手房,2011
高新园区红凌路732-4号,大连,大华集团大连房地产开发有限公司,高新园区,20190403,38.90204708664442,121.53244406374695,大华爱琴湾,39,21144,大连大华物业管理有限公司,1.8,辽宁,2,二手房,2010
甘井子区泉水D1区10-2#1-1-7,大连,大连运达房地产集团有限公司,甘井子,20190403,39.01504676175047,121.61751269364314,锦泉源B4区,44,11837,大连佳泰物业管理有限公司,0.5,辽宁,2,二手房,2002
高新园区敬贤街25-9,大连,大连名仕煜光房地产开发有限公司,高新园区,20190403,38.86879447142154,121.53007349209936,名仕智慧谷,15,21443,大连名仕物业管理有限公司,2.5,辽宁,2,二手房,2012
沙河口区五一路110-4号,大连,大连大重房屋开发有限公司,沙河口,20190403,38.913544290955585,121.59450670056631,星台花园二期,29,26246,大连大重房屋开发公司物业管理中心,0.4,辽宁,2,二手房,1995
西岗区平等街21号1层2号,大连,辽宁宁安房地产开发有限公司,西岗,20190403,38.92251066253164,121.63236845125735,赛维利大厦,25,19961,大连良玖物业管理有限责任公司,1.5,辽宁,2,二手房,2004
大连市甘井子区椒房街24号楼2-104链家地产,大连,大连港置地有限公司,甘井子,20190403,38.985363789837166,121.61034055597686,大连港天下粮仓,29,19951,大连万科物业服务有限公司,2.2,辽宁,2,二手房,2017
甘井子区华北路花锦园28号23-3-1-2建筑物,大连,大连谷和房屋开发有限公司,甘井子,20190403,38.951627958411166,121.5739439799003,大连门小区,21,16404,大连谷和物业管理有限公司,0.3,辽宁,2,二手房,2000
甘井子区虹城路503号1-1号,大连,大连易和房地产集团有限公司,甘井子,20190403,38.981193588625004,121.49964051837122,岭秀滨城悦和西园,29,14510,大连易兴物业服务有限公司,1.3,辽宁,2,二手房,2009
金州区小平岛B组团4号楼3号商铺,大连,大连安达房地产开发有限公司,高新园区,20190403,39.05643299166072,121.78943558267059,小平岛亲海园A2组团,44,20870,大连凯尔富物业管理有限公司,1.7,辽宁,2,二手房,2007
开发区小孤山西里3栋-11号,大连,大连广隆房地产开发有限公司,开发区,20190403,39.02715282297674,121.80682183666346,文华园,33,10255,大连广隆物业管理有限公司,1.1,辽宁,2,二手房,2007
中山区虎滩路62号,大连,大连国泰房地产开发有限公司,中山,20190403,38.886587440841225,121.69237728440392,帝柏湾,18,21659,加拿大高力国际物业服务有限公司,2,辽宁,2,二手房,2007
甘井子区汇仁街19号12号楼1单元102室,大连,大连华南房地产开发有限公司,甘井子,20190403,38.99746297497168,121.58917714380617,名贵山庄华彩园,8,12924,大连弘益达物业管理有限公司,0.5,辽宁,2,二手房,2004
中山区碧浪园4号-3号,大连,大连三寰房地产开发有限公司,中山,20190403,38.89147289460474,121.69329560326236,碧浪园三期,13,16537,大连峰霖物业管理有限公司,0.3,辽宁,2,二手房,2002
经济技术开发区城润万家4-5号公建,大连,大连海汇房地产开发有限公司,开发区,20190403,39.05716325096989,121.75946281983826,正源吉祥e家,46,12110,大连正源物业服务有限公司,1,辽宁,2,二手房,2013
沙河口区黄浦路18号—5号公建,大连,大连高新技术产业园区建设开发总公司,高新园区,20190403,38.8771225143479,121.54427480390662,学府1+1公寓,10,15901,街道办事处（居委会）代管物业,0.6,辽宁,2,二手房,2007
沙河口区黑石礁街3号1层1-1号,大连,无开发商,沙河口,20190403,38.880058010307856,121.56313403908827,东财烛光园,7,17238,无物业管理服务,-,辽宁,2,二手房,1988
沙河口区西南路40号楼,大连,无开发商,沙河口,20190403,38.94143337232082,121.58616557598133,杭州街,19,11979,无物业管理服务,-,辽宁,2,二手房,1990
沙河口区红凌路137号,大连,大连大实企业集团房屋开发有限公司,甘井子,20190403,38.922699288974506,121.54713601744747,泊林阳光B区,7,14136,大连弘实物业管理有限公司,0.6,辽宁,2,二手房,2007
中山区共建巷61号,大连,无开发商,中山,20190403,38.91828093658718,121.66259221532148,39中中化街,2,25706,街道办事处（居委会）代管物业,0.5,辽宁,2,二手房,1995
金州区同济路44号,大连,大连永乐房地产开发有限公司,金州,20190403,39.10476859984152,121.71234684495865,永乐金庭,36,9689,大连天河物业管理有限公司,0.8,辽宁,2,二手房,2006
西岗区绕山路31号公建一层东侧,大连,大连胜利路拓宽改造工程建设有限公司,西岗,20190403,38.90257514466717,121.61412736644739,星海绿山城D区,11,21691,无物业管理服务,1.5,辽宁,2,二手房,2016
开发区鹏程家园66#-6、66#-7公建,大连,大连元新房地产开发有限公司,开发区,20190403,37.92440451755906,112.59861436589645,华夏海景,23,9615,大连元新物业管理有限公司,1,辽宁,2,二手房,2003
中山区华乐街71号公建,大连,暂无信息,中山,20190403,38.923187679200566,121.6843197903016,东港印象A区,18,18975,大连众和物业管理有限公司,1.2,辽宁,2,二手房,2008
无门店信息,大连,大连明和房地产开发有限公司,开发区,20190403,34.52713835999158,118.76812980670795,知语山园,28,10736,大连大众物业管理有限公司,1.3,辽宁,2,二手房,2012
甘井子区泉水B5区27-9,大连,大连运达房地产集团有限公司,甘井子,20190403,39.01477152073682,121.60970286326823,锦泉源B6区,17,14132,政治物业管理有限公司,0.5,辽宁,2,二手房,2012
沙河口区沙能街101号1单元1层1号,大连,大连政府城区改造办公室,沙河口,20190403,38.9366316275348,121.59031205759763,新居佳园,3,12872,大连大力物业管理有限公司,1.5,辽宁,2,二手房,2012
开发区黄海西路54号,大连,开发区城建局,开发区,20190403,39.047714586087785,121.76688238228269,青松南里,82,7925,大连经济技术开发区中强物业管理有限公司,0.5,辽宁,2,二手房,2003
甘井子区华北路花锦园28号23-3-1-2建筑物,大连,大连东特房地产开发有限公司,甘井子,20190403,38.951627958411166,121.5739439799003,东特爱俪舍,43,15985,大连东特祥禾物业管理有限公司,0.6,辽宁,2,二手房,2004
无门店信息,大连,大连长鹭房屋开发有限公司,甘井子,20190403,34.52713835999158,118.76812980670795,晶品森岚,14,15713,大连旺宇物业有限公司,1.3,辽宁,2,二手房,2009
甘井子区玉丽街39号楼3号公建,大连,大连新型房地产开发有限公司,甘井子,20190403,38.98706755029984,121.55605471197089,玉浓街,50,10064,大连新兴物业管理有限公司,0.2,辽宁,2,二手房,2002
沙河口区昌黎街77号楼第1层公建,大连,大连城市建设集团有限公司,沙河口,20190403,38.91974518366595,121.5902918379551,79中君安公寓,9,17526,大连广安物业有限公司,1.2,辽宁,2,二手房,1998
甘井子区柳树南街45-10号,大连,中体产业集团大连乐百年置业有限公司,甘井子,20190403,38.92567666296449,121.4841330254372,水木清华,24,13302,大连辰谊物业管理有限公司,1.2,辽宁,2,二手房,2009
大连市高新园区软件园路1A-3号,大连,大连软景房地产开发有限公司,高新园区,20190403,38.89360013642285,121.54653763548625,亿达软景中心,17,23526,亿达物业管理有限公司,3.5,辽宁,2,二手房,2014
开发区安盛里5栋-4,大连,中房集团大连房地产有限公司,开发区,20190403,23.112106678834838,113.27801046214822,盛德嘉洲,10,14355,大连中鸣物业服务有限公司,1.8,辽宁,2,二手房,2009
甘井子区山东路137号,大连,大连华南房地产开发有限公司,甘井子,20190403,38.99129404608926,121.59172125999353,名贵山庄青年公寓,8,14700,大连弘益达物业管理有限公司,0.5,辽宁,2,二手房,2004
中山区杏林街66—5号,大连,无开发商,中山,20190403,38.92572771377599,121.66490555592502,39中民生里,12,28912,街道办事处（居委会）代管物业,0.5,辽宁,2,二手房,1990
甘井子区哲林北园17-6号,大连,大连科宏房屋开发有限公司,甘井子,20190403,38.9600267109581,121.53876726228256,虹港新居,29,13557,大连空港物业管理有限公司,0.4,辽宁,2,二手房,1996
大连市甘井子区七贤路8-3号,大连,大连树源世嘉房地产开发有限公司,高新园区,20190403,38.86602612116956,121.53842265737707,国滨馆,14,24449,大连树源物业管理有限公司,3.5,辽宁,2,二手房,2015
西岗区三元街73号3单元1层2,大连,暂无信息,西岗,20190403,38.91459734722941,121.63112153703432,34中三元街,42,27623,无物业管理服务,-,辽宁,2,二手房,1990
甘井子区促进路30号2-1-1,大连,大连泰安房地产开发有限公司,沙河口,20190403,38.954133128707575,121.58355746311207,春柳园,20,10181,街道办事处（居委会）代管物业,0.5,辽宁,2,二手房,1995
天河路173-2号 华润考拉22号公建,大连,无开发商,甘井子,20190403,23.14720645345518,113.3277414923158,七江路,22,12084,街道办事处（居委会）代管物业,0.2,辽宁,2,二手房,1995
开发区红星海-B区89-1号,大连,远洋地产有限公司,开发区,20190403,39.027851194371685,121.80327394132297,红星海三期郡墅,32,21903,大连远洋基业物业管理有限公司,2.2,辽宁,2,二手房,2010
无门店信息,大连,大连祥和房屋开发有限公司,甘井子,20190403,34.52713835999158,118.76812980670795,祥和花园,52,12100,大连市大北物业管理有限公司,0.4,辽宁,2,二手房,2007
开发区湾里南12栋-16-17-18号,大连,大连金湾实业有限公司,开发区,20190403,39.070782084451,121.8506739675913,湾里西,59,7563,广宜物业有限公司,0.2,辽宁,2,二手房,2003
无门店信息,大连,大连润泰房地产开发有限公司,中山,20190403,34.52713835999158,118.76812980670795,明秀庄园二期,14,38710,大连澳邦致和物业服务有限公司,3.2,辽宁,2,二手房,2015
西岗区平等街21号1层2号,大连,辽宁宁安房地产开发有限公司,西岗,20190403,38.92251066253164,121.63236845125735,良玖国际,30,16002,大连良玖物业管理有限责任公司,3.7,辽宁,2,二手房,2005
金州区凤祥路236-2,大连,大连鸿玮置业有限公司,金州,20190403,39.084027010847905,121.76984765822874,鸿玮澜山二期,44,14094,大连鸿玮物业服务有限公司,1.8,辽宁,2,二手房,2015
经济技术开发区城润万家4-5号公建,大连,诠盛置业（大连）有限公司,开发区,20190403,39.05716325096989,121.75946281983826,清都记忆,38,12011,金科物业服务集团有限公司,0.5,辽宁,2,二手房,2013
中山区安居巷7号,大连,大连新世界广场国际有限公司,中山,20190403,38.92451111549568,121.65154739366945,曼哈顿大厦,33,14156,大连侨乐物业服务有限公司,3.5,辽宁,2,二手房,2005
中山区北斗街53号1层1号,大连,大连大森房地产开发有限公司,中山,20190403,38.92727355733075,121.67002970974048,东港林苑,15,17699,大连美心物业管理有限公司,2.8,辽宁,2,二手房,2013
中山区职工街96号1-3层公建,大连,大连名仕房地产开发有限公司,中山,20190403,38.92565613737007,121.66193575790903,名仕国际公寓,14,10642,大连名流物业有限公司,3.8,辽宁,2,二手房,2004
沙河口区星海广场B3区20—3号,大连,金世纪房地产,沙河口,20190403,38.88782715536473,121.5869168319735,金玉星海,15,14246,大连吉田物业管理有限公司,1.3,辽宁,2,二手房,2005
岭前街53-5,大连,大连铭泰房地产开发有限公司,中山,20190403,38.89487069426055,121.65795959631497,锦府桃源,14,23520,大连豪之英物业管理有限公司,1.2,辽宁,2,二手房,2009
开发区东北三街94号1层,大连,大连港连房地产开发有限公司,开发区,20190403,39.05723508011585,121.80570768630555,海航YOHO湾,36,10265,海航物业管理有限公司大连分公司,1.8,辽宁,2,二手房,2014
沙河口区黄河路883号,大连,无开发商,沙河口,20190403,38.919826721475204,121.57749657966676,沙区医院,26,12172,无物业管理服务,-,辽宁,2,二手房,1990
沙河口区锦霞南园1号1层公建,大连,大连锦绣房地产开发有限公司,沙河口,20190403,38.947367114450536,121.55342584213675,锦虹南园,19,10917,大连锦绣物业管理有限公司,0.3,辽宁,2,二手房,1998
甘井子区泉水D1区10-2#1-1-7,大连,大连春达房屋开发有限公司,甘井子,20190403,39.01504676175047,121.61751269364314,景富铭苑,20,12783,庄河金城物业管理有限公司,0.5,辽宁,2,二手房,2004
甘井子区辛寨子街道中冶蓝城辛虹园39-7号公建,大连,大连中冶京诚置业有限公司,甘井子,20190403,38.98155611421408,121.49259383356096,中冶蓝城,19,12526,大连添翼物业服务有限公司,2,辽宁,2,二手房,2013
甘井子区泉水K2区1号-7,大连,暂无信息,甘井子,20190403,39.01148211821007,121.63131997900962,龙畔金泉五期K2区,45,12845,大连新兴物业管理有限公司,0.5,辽宁,2,二手房,2008
沙河口区锦云北园9号2单元1层2号,大连,大连锦绣房地产开发有限公司,沙河口,20190403,38.94836395772248,121.55744845421044,锦云北园,22,10057,大连锦绣物业管理有限公司,0.3,辽宁,2,二手房,1996
沙河口区连山街10号2-1-2,大连,大连城市建设集团有限公司,沙河口,20190403,38.89637522563413,121.57143690983219,莱州街,21,10796,无物业管理服务,-,辽宁,2,二手房,1990
甘井子区华东路33-5号,大连,大连宜和房地产开发有限公司,甘井子,20190403,38.97497080220593,121.59479866243332,松江路,2,10589,大连新华物业管理有限公司,-,辽宁,2,二手房,1993
中山区中南路226号,大连,大连华谊地产房屋有限公司,中山,20190403,38.90029610333926,121.68178899957817,晨光山水,5,14611,大连格林物业管理有限公司,-,辽宁,2,二手房,2004
大连市金州区站前街道生辉第一城14-3号1-2层,大连,大连新天润企业集团有限公司,开发区,20190403,39.0569681786798,121.74773530665969,凯旋国际,108,7004,第一东方(大连)物业服务有限公司,2.3,辽宁,2,二手房,2008
中山区中南路店212号门头房,大连,大连金广地产集团有限公司,中山,20190403,38.91149759691359,121.67700561077149,迎宾花园,1,13141,大连德一物业管理有限公司,1.2,辽宁,2,二手房,2003
开发区兴城路29-81层,大连,中合北大荒（大连）置业有限公司,开发区,20190403,39.050214252167194,121.75835946441768,银帆国际,39,12418,大连中合物业管理有限公司,2,辽宁,2,二手房,2015
开发区红梅小区19栋-2-1-1号,大连,无开发商,开发区,20190403,29.906498897603264,121.5913630631805,金玛海景,5,10878,街道办事处（居委会）代管物业,1,辽宁,2,二手房,2007
开发区高新里6栋-8,大连,无开发商,开发区,20190403,39.0710895068195,121.82860134358343,怡海花园一期,19,7452,街道办事处（居委会）代管物业,0.2,辽宁,2,二手房,2001
甘井子区鹏辉新世纪1幢1单元1-3号房屋（海口路99号）,大连,暂无信息,甘井子,20190403,38.96077365187575,121.60514653016222,鹏辉新世纪三期,27,17028,大连鹏辉物业管理有限公司,0.6,辽宁,2,二手房,2003
甘井子区海口路77-4号公建,大连,暂无信息,甘井子,20190403,38.960286398428124,121.60305183172997,鹏辉新世纪一期,12,17332,大连鹏辉物业管理有限公司,0.6,辽宁,2,二手房,2003
金州区凤祥路236-2,大连,大连德泰控股有限公司,金州,20190403,39.084027010847905,121.76984765822874,德泰岭秀逸城B区,83,10900,大连德泰物业管理有限公司,1.9,辽宁,2,二手房,2013
中山区解放路471-22号,大连,无开发商,中山,20190403,38.901309943567504,121.65419095766659,解放路（青云街商圈）,7,11902,街道办事处（居委会）代管物业,0.6,辽宁,2,二手房,1997
甘井子区金北街17号,大连,暂无信息,甘井子,20190403,38.95800216293212,121.53151895549547,山宝花园,24,20925,无物业管理服务,-,辽宁,2,二手房,1970
金州区同济路44号,大连,大连峰景房地产开发有限公司,金州,20190403,39.10476859984152,121.71234684495865,峰景西海岸,50,9052,大连峰景物业有限公司,0.8,辽宁,2,二手房,2009
沙河口区连山街10号2-1-2,大连,无开发商,沙河口,20190403,38.89637522563413,121.57143690983219,桃山电业楼,3,13042,无物业管理服务,-,辽宁,2,二手房,1998
中山区鲁迅路184号1层B—A,大连,大连环海房地产开发有限公司,中山,20190403,38.92590875965419,121.67594393403164,环海公寓,15,9835,大连富民物业管理有限公司,0.5,辽宁,2,二手房,2002
中山区民建街10号1单元1号,大连,无开发商,中山,20190403,38.925444479476894,121.66915026954452,39中金域朝阳,4,18245,无物业管理服务,-,辽宁,2,二手房,2000
大连市金州区友谊街道南金华城25号1-2层1号,大连,大连金华房地产开发有限公司,金州,20190403,39.128677228885614,121.71356109978767,金华小区二期,34,7880,大连金华兴物业有限公司,0.5,辽宁,2,二手房,2006
西岗区新田巷27号1-2,大连,无开发商,西岗,20190403,38.893215932589385,121.64103065169111,新河街,14,10662,无物业管理服务,-,辽宁,2,二手房,1995
西岗区八一路196号2-1-12号,大连,大连欧美亚房地产开发有限公司,西岗,20190403,38.92047268927287,121.61862512554262,名城国际公馆,12,16038,无物业管理服务,-,辽宁,2,二手房,2007
无门店信息,大连,无开发商,西岗,20190403,34.52713835999158,118.76812980670795,付家庄街,15,11278,无物业管理服务,-,辽宁,2,二手房,1990
中山区鲁迅路184号1层B—A,大连,大连绿地新城置业有限公司,中山,20190403,38.92590875965419,121.67594393403164,大连绿地中心,14,19609,上海科瑞物业管理发展有限公司大连第二分公司,4.2,辽宁,2,二手房,2015
甘井子区山东路商业街D区12号公建,大连,大连市大钢集团,甘井子,20190403,39.001060021502965,121.58883960371418,梅山路,12,12685,街道办事处（居委会）代管物业,0.5,辽宁,2,二手房,1982
无门店信息,大连,大连鹏玥房地产开发有限公司,开发区,20190403,34.52713835999158,118.76812980670795,中环城市广场,16,9272,大连鹏玥物业公司,1.5,辽宁,2,二手房,2015
中山区益民街16号1层1号,大连,无开发商,中山,20190403,38.93092761298906,121.66470740073377,永胜街（三八广场）,13,13916,无物业管理服务,-,辽宁,2,二手房,1993
沙河口区长江路738号,大连,大连泰达新城建设发展有限公司,沙河口,20190403,38.913544290955585,121.59450670056631,五一广场长江路北,24,12984,无物业管理服务,-,辽宁,2,二手房,1994
开发区黄海西路201号107公建,大连,开发区城建局,开发区,20190403,39.04942604506828,121.80126318235419,金湖里,50,6851,大连中信物业管理有限公司,0.1,辽宁,2,二手房,1998
西岗区新田巷27号1-2,大连,无开发商,西岗,20190403,38.893215932589385,121.64103065169111,新丽街,14,9438,无物业管理服务,-,辽宁,2,二手房,1992
开发区大开高吉里33栋6号,大连,无开发商,开发区,20190403,39.07355836059941,121.8280439450145,高吉里,28,6613,广宜物业有限公司,0.2,辽宁,2,二手房,2002
开发区杏树里10栋-14,大连,大连经济技术开发区城市建设开发有限公司,开发区,20190403,39.08113818354046,121.78505742127606,颐馨园,10,8949,大连经济技术开发区杏林物业管理有限公司,0.8,辽宁,2,二手房,2005
沙河口区兰田街33号,大连,无开发商,沙河口,20190403,38.926138912221084,121.56486022834609,兰玉小区,3,11316,街道办事处（居委会）代管物业,0.4,辽宁,2,二手房,1990
中山区高尚路28-1号,大连,无开发商,中山,20190403,38.892673425111305,121.67148833870213,高洁巷,27,11132,街道办事处（居委会）代管物业,0.5,辽宁,2,二手房,1993
中山区山屏街116号1-1,大连,无开发商,中山,20190403,38.90729438486833,121.68598159980013,怡梦园,5,15057,无物业管理服务,-,辽宁,2,二手房,1900
西岗区长春路334号,大连,无开发商,西岗,20190403,38.89807766522607,121.63221082858387,石峰街,13,11280,大连大众物业管理有限公司,0.3,辽宁,2,二手房,1995
大连市金州新区友谊街道和平路59-10号1-2层公建,大连,无开发商,金州,20190403,39.112168401852266,121.72006917947859,和平小区,30,8195,街道办事处（居委会）代管物业,0.5,辽宁,2,二手房,1996
中山区华乐街71号公建,大连,无开发商,中山,20190403,38.923187679200566,121.6843197903016,春园里,24,12315,无物业管理服务,-,辽宁,2,二手房,1990
西岗区新田巷27号1-2,大连,无开发商,西岗,20190403,38.893215932589385,121.64103065169111,新田巷,7,11061,无物业管理服务,-,辽宁,2,二手房,1992
开发区红梅小区19栋-2-1-1号,大连,大连开发区世元房地产开发有限公司,开发区,20190403,29.906498897603264,121.5913630631805,世元国际公寓,31,11065,大连世元物业管理有限公司,2,辽宁,2,二手房,2009
西岗区长红街4号1号公建,大连,暂无信息,西岗,20190403,38.91377414665191,121.6302525225721,34中长红街,31,24805,无物业管理服务,-,辽宁,2,二手房,1990
金州区鹏程家园53#-8,大连,大连海富花园开发有限公司,开发区,20190403,39.03523987258615,121.80826248065051,鹏程家园（开发区）,10,7741,广宜物业有限公司,1.2,辽宁,2,二手房,2006
开发区东北三街94号1层,大连,开发区城建局,开发区,20190403,39.05723508011585,121.80570768630555,倚园里小区,55,7482,大连佳兴物业管理有限公司,0.3,辽宁,2,二手房,1999
甘井子区西南路950—1号1层1号,大连,暂无信息,甘井子,20190403,38.96304110156522,121.59665499819343,八十中东海街,32,16194,街道办事处（居委会）代管物业,0.2,辽宁,2,二手房,1980
甘井子区鹏辉新世纪1幢1单元1-3号房屋（海口路99号）,大连,暂无信息,甘井子,20190403,38.96077365187575,121.60514653016222,鹏辉新世纪三期北园,24,16717,大连鹏辉物业管理有限公司,0.6,辽宁,2,二手房,2003
中山区中青街87号一单元107,大连,无开发商,中山,20190403,38.90213494248529,121.65806522267005,葵英街（青云街商圈）,1,10105,无物业管理服务,-,辽宁,2,二手房,1992
沙河口区五四路207-1-9号,大连,无开发商,沙河口,20190403,38.913544290955585,121.59450670056631,集贤南一街,1,12938,无物业管理服务,-,辽宁,2,二手房,1992
大连市沙河口区西南路875号1层21号,大连,无开发商,沙河口,20190403,38.94485969061231,121.58418648447764,春风巷,3,11797,街道办事处（居委会）代管物业,0.5,辽宁,2,二手房,1993
西岗区绕山路31号公建一层东侧,大连,无开发商,西岗,20190403,38.90257514466717,121.61412736644739,康庄街,3,9508,无物业管理服务,-,辽宁,2,二手房,1991
金州区站前街道盛滨花园B区13号楼2号公建,大连,大连阿尔滨集团房地产开发有限公司,金州,20190403,39.09609011892329,121.7335816409767,现代雅筑,35,6773,大连阿尔滨集团物业管理有限公司,0.5,辽宁,2,二手房,2009
无门店信息,大连,大连顺浩置业有限公司,开发区,20190403,34.52713835999158,118.76812980670795,上品公馆,25,8744,大连顺浩置业物业有限公司,3.8,辽宁,2,二手房,2013
无门店信息,大连,大连海脉房地产开发有限公司,金州,20190403,34.52713835999158,118.76812980670795,海脉未来城,23,8313,大连豪斯威物业管理有限公司,1,辽宁,2,二手房,2013
无门店信息,大连,无开发商,金州,20190403,34.52713835999158,118.76812980670795,金山名苑,18,9779,大连金山物业管理有限公司,0.5,辽宁,2,二手房,2009
中山区中青街87号一单元107,大连,无开发商,中山,20190403,38.90213494248529,121.65806522267005,葵园巷,11,12382,无物业管理服务,-,辽宁,2,二手房,1996
沙河口区黄河路883号,大连,无开发商,沙河口,20190403,38.919826721475204,121.57749657966676,黄河路（辽师商圈）,1,11812,大连辽南物业管理有限公司,0.5,辽宁,2,二手房,1970
大连市甘井子区辛如街35号1单元1层1号,大连,暂无信息,甘井子,20190403,38.96862607066881,121.52294869064194,苹果公寓（住宅）,41,11455,大连生生物业有限公司,0.8,辽宁,2,二手房,2009
无门店信息,大连,昕德（大连）房地产开发有限公司,金州,20190403,34.52713835999158,118.76812980670795,伟桥金北嘉园,52,7407,街道办事处（居委会）代管物业,0.5,辽宁,2,二手房,2012
无门店信息,大连,暂无信息,旅顺口,20190403,34.52713835999158,118.76812980670795,金川家园,11,11544,暂无信息,-,辽宁,2,二手房,-
无门店信息,大连,大连海华房地产开发有限公司,甘井子,20190403,34.52713835999158,118.76812980670795,丽湾海景,26,11867,大连海华房地产开发有限公司,0.5,辽宁,2,二手房,2010
西岗区八一路196号1-3,大连,无开发商,西岗,20190403,38.92047268927287,121.61862512554262,新泉巷,20,9489,无物业管理服务,-,辽宁,2,二手房,1990
西岗区绕山路31号公建一层东侧,大连,无开发商,西岗,20190403,38.90257514466717,121.61412736644739,和云巷,16,10097,无物业管理服务,-,辽宁,2,二手房,1990
大连市沙河口区西南路875号1层21号,大连,无开发商,沙河口,20190403,38.94485969061231,121.58418648447764,西南路（春柳商圈）,11,10648,大连三宝物业有限公司,0.5,辽宁,2,二手房,1990
无门店信息,大连,无开发商,金州,20190403,34.52713835999158,118.76812980670795,香山翌景,15,7326,街道办事处（居委会）代管物业,0.5,辽宁,2,二手房,2010
甘井子区山东路137号,大连,暂无信息,甘井子,20190403,38.99129404608926,121.59172125999353,山东路北,10,12929,街道办事处（居委会）代管物业,0.5,辽宁,2,二手房,1986
金州区拥政街道733号-8号1-2层,大连,大连市金州区房屋开发公司,金州,20190403,39.11690610445662,121.73030803603723,桂林小区,70,7058,街道办事处（居委会）代管物业,0.5,辽宁,2,二手房,1993
开发区湾里南12栋-16-17-18号,大连,开发区城建局,开发区,20190403,39.070782084451,121.8506739675913,宜宁里,45,5639,大连宏港物业管理有限公司,0.2,辽宁,2,二手房,1992
中山区安居巷7号,大连,无开发商,中山,20190403,38.92451111549568,121.65154739366945,长江路（民主广场商圈）,6,10823,无物业管理服务,-,辽宁,2,二手房,1980
中山区中青街87号一单元107,大连,无开发商,中山,20190403,38.90213494248529,121.65806522267005,文明巷,4,11490,无物业管理服务,-,辽宁,2,二手房,1990
西岗区新田巷27号1-2,大连,无开发商,西岗,20190403,38.893215932589385,121.64103065169111,新昌街,14,10244,无物业管理服务,-,辽宁,2,二手房,1996
甘井子区华北路花锦园28号23-3-1-2建筑物,大连,无开发商,甘井子,20190403,38.951627958411166,121.5739439799003,迎客石广场（锦绣商圈）,6,13863,街道办事处（居委会）代管物业,0.5,辽宁,2,二手房,2000
沙河口区黑石礁街3号1层1-1号,大连,无开发商,沙河口,20190403,38.880058010307856,121.56313403908827,西村街,0,12089,无物业管理服务,-,辽宁,2,二手房,1990
甘井子区华东路22号公建,大连,无开发商,甘井子,20190403,38.97736184953593,121.5935814234334,经四街,12,11666,街道办事处（居委会）代管物业,0.5,辽宁,2,二手房,1993
中山区山屏街116号1-1,大连,无开发商,中山,20190403,38.90729438486833,121.68598159980013,山峦北巷,8,13832,无物业管理服务,-,辽宁,2,二手房,1985
西岗区新田巷27号1-2,大连,无开发商,西岗,20190403,38.893215932589385,121.64103065169111,新秀街（新起屯商圈）,3,9724,无物业管理服务,-,辽宁,2,二手房,1992
西岗区八一路102号,大连,无开发商,西岗,20190403,38.92047268927287,121.61862512554262,智勇西二巷,8,9570,无物业管理服务,-,辽宁,2,二手房,1993
无门店信息,大连,大连众仕房地产开发有限公司,开发区,20190403,34.52713835999158,118.76812980670795,山河御景,15,8165,大连山河物业管理有限公司,1.5,辽宁,2,二手房,2015
中山区鲁迅路204号百盛新药特药商店一楼西侧部分,大连,无开发商,中山,20190403,38.9258993614899,121.6768880001226,春港街,4,12148,无物业管理服务,-,辽宁,2,二手房,1999
沙河口区昌黎街77号楼第1层公建,大连,清远君行房地产有限公司,沙河口,20190403,38.91974518366595,121.5902918379551,君安国际,1,8338,街道办事处（居委会）代管物业,11,辽宁,2,二手房,2010
沙河口区中山路417A-4号,大连,大连新希望家园房地产有限公司,沙河口,20190403,38.90740323140171,121.59484801084653,新希望花园,23,20381,大连乾峰物业管理有限公司,1.3,辽宁,1,二手房,2003
沙河口区五一路96B-8号,大连,大连正源房地产开发有限公司,沙河口,20190403,38.913544290955585,121.59450670056631,幸福e家三期,58,40495,大连正源物业服务有限公司,1,辽宁,1,二手房,2004
甘井子区知音园20号3单元1层1号,大连,亿达集团大连房地产开发有限公司,高新园区,20190403,38.95800216293212,121.53151895549547,亿达知音园,7,23473,亿达物业管理有限公司,0.5,辽宁,1,二手房,2001
沙河口区兰田街33号,大连,大连银地置业发展有限公司,沙河口,20190403,38.926138912221084,121.56486022834609,未来星城,14,16558,大连大力物业管理有限公司,0.5,辽宁,1,二手房,2004
沙河口区恒利园42号-8,大连,大连三寰房屋开发有限公司,沙河口,20190403,38.93357562498634,121.57914091532649,三寰芳草园,17,15625,大连空港物业管理有限公司,0.4,辽宁,1,二手房,2003
沙河口区新生路万客园3-7,大连,大连万科锦绣花城开发有限公司,沙河口,20190403,38.94412875710208,121.57006756704837,万科城市花园,49,20301,大连万科物业服务有限公司,1.5,辽宁,1,二手房,2005
高新园区敬贤街25-9,大连,中海东丰地产（大连）有限公司,高新园区,20190403,38.86879447142154,121.53007349209936,中海紫御观邸一期,11,29612,大连中海物业管理有限公司,2.6,辽宁,1,二手房,2013
甘井子区促进路30号2-1-1,大连,福佳集团有限公司,甘井子,20190403,38.954133128707575,121.58355746311207,府佳名都,36,17662,大连富佳物业管理有限公司,0.5,辽宁,1,二手房,2002
甘井子区芳林街17号1单元1层1号,大连,大连亿达房地产股份有限公司,甘井子,20190403,38.96091976856697,121.58863625429588,林语家话,38,26135,亿达物业管理有限公司,1.2,辽宁,1,二手房,2005
西岗区鞍山路29号龙畔锦城东门,大连,大连万达房地产开发有限公司,西岗,20190403,38.92763470697088,121.61498923399098,长春花园,15,17415,大连万达物业管理有限公司,0.5,辽宁,1,二手房,1996
甘井子区西南路芳茗园30号楼,大连,大连东北房屋开发有限公司,甘井子,20190403,38.961395177040636,121.59546002818708,东北名苑,55,17593,大连国合物业管理有限公司,0.5,辽宁,1,二手房,2000
沙河口区兰田街33号,大连,大连运达房地产集团有限公司,沙河口,20190403,38.926138912221084,121.56486022834609,兰溪文苑,42,19520,大连运达物业管理有限公司,0.8,辽宁,1,二手房,2004
甘井子区海口路77-4号公建,大连,大连鹏生房地产开发有限公司,甘井子,20190403,38.960286398428124,121.60305183172997,鹏辉新世纪,0,17983,大连鹏辉物业管理有限公司,0.6,辽宁,1,二手房,2003
甘井子区绿洲园60号,大连,大连友谊合升房地产开发有限公司,甘井子,20190403,38.95390300214936,121.59409785747448,壹品天城,98,29174,大连富丽华物业管理有限公司,0.5,辽宁,1,二手房,2011
沙河口区黄浦路18号—5号公建,大连,大连良运房地产开发有限公司,高新园区,20190403,38.8771225143479,121.54427480390662,翰林观海,21,22783,大连良运物业管理有限公司,0.8,辽宁,1,二手房,2003
西岗区黄河路362号公建,大连,大连万峰房地产开发有限公司,西岗,20190403,38.91819905243802,121.61365779430986,万达华府一期,59,29051,大连万景物业管理有限公司,1.3,辽宁,1,二手房,2005
沙河口区鞍山路65号美都园7号1单元1层4号公建,大连,大连美辰房地产开发有限公司,沙河口,20190403,38.92755211283745,121.60306664748275,丽景春天,32,19279,大连远洋基业物业管理有限公司,0.8,辽宁,1,二手房,2003
大连市金州新区中长街道碧海尚城5-4号1-2层,大连,大连微软房地产开发有限公司,金州,20190403,39.100290954587514,121.7304796052032,冠军大厦,10,7409,街道办事处（居委会）代管物业,1,辽宁,2,二手房,2002
金州区先进街道渤海街1-4号1-2层,大连,无开发商,金州,20190403,39.09512910553563,121.74578812616167,百畅园,21,6808,街道办事处（居委会）代管物业,0.5,辽宁,2,二手房,2000
中山区杏林街66—5号,大连,大连万达房地产开发有限公司,中山,20190403,38.92572771377599,121.66490555592502,明泽苑,9,28545,大连万达物业管理有限公司,2,辽宁,1,二手房,2000
西岗区鞍山路65-5号,大连,无开发商,沙河口,20190403,38.926971569913064,121.60260230348328,美辰臻品,11,19264,大连众和物业管理有限公司,1,辽宁,1,二手房,2007
西岗区鞍山路65-5号,大连,大连万益房屋开发有限公司,沙河口,20190403,38.926971569913064,121.60260230348328,万益花园,10,15467,大连自然物业管理中心,0.5,辽宁,1,二手房,2003
中山区武昌街武昌公寓6号公建,大连,大连武昌房地产开发有限公司,中山,20190403,38.912280913445784,121.64921130527547,部居逸阁,25,13377,大连宜佳物业管理有限公司,1,辽宁,1,二手房,2005
甘井子区金北街17号,大连,大连悦泰集团有限公司,甘井子,20190403,38.95800216293212,121.53151895549547,悦泰馨家,25,24921,大连优豪斯物业管理有限公司,0.5,辽宁,1,二手房,2003
西岗区长红街4号1号公建,大连,大连丰源房地产开发有限公司,西岗,20190403,38.91377414665191,121.6302525225721,丰源山庄,13,24037,大连广安物业有限公司,0.4,辽宁,1,二手房,1996
中山区华乐街93—1号,大连,大连环海房地产开发有限公司,中山,20190403,38.921950924512124,121.68673151242629,华乐环海花园,20,23010,大连景和物业管理有限公司,1.1,辽宁,1,二手房,2004
无门店信息,大连,大华集团大连置业有限公司,高新园区,20190403,34.52713835999158,118.76812980670795,大华锦绣华城三期,43,22916,大连大华物业管理有限公司,2.5,辽宁,1,二手房,2012
沙河口区锦石园24-7号第A2-13幢1单元1层1号,大连,大连鼎新美地置业有限公司,甘井子,20190403,38.913544290955585,121.59450670056631,鼎新鼎润四季,24,21046,大连中原物业代理有限公司,1.2,辽宁,1,二手房,2010
高新园区火炬路18号,大连,大连奥泰房地产开发有限公司,高新园区,20190403,38.937738080520404,117.39340752036043,因特摩尔,50,17801,大连奥泰物业服务有限公司,2.6,辽宁,1,二手房,2011
大连市甘井子区七贤路8-3号,大连,大连瑞恒置业有限公司,高新园区,20190403,38.86602612116956,121.53842265737707,未名山,45,25118,大连龙湖物业服务有限公司,3,辽宁,1,二手房,2015
甘井子区红旗中路143号1层4号,大连,大连长鹭房屋开发有限公司,甘井子,20190403,38.93169566676921,121.5426632438217,西街晶品,29,18965,大连万泰物业管理有限公司,0.8,辽宁,1,二手房,2006
西岗区黄河路82号,大连,大连民兴房地产开发有限公司,西岗,20190403,38.92243503020161,121.6287927913896,前城国际二期,29,23360,大连前城花园物业管理有限公司,1.5,辽宁,1,二手房,2000
沙河口区五一路109-4号,大连,大连正源房地产开发有限公司,沙河口,20190403,38.913544290955585,121.59450670056631,幸福e家二期,22,31182,大连正源物业服务有限公司,0.7,辽宁,1,二手房,2003
中山区杏林街66—5号,大连,大连万达房地产开发有限公司,中山,20190403,38.92572771377599,121.66490555592502,湖畔小区,46,23618,大连万达物业管理有限公司,0.2,辽宁,1,二手房,1995
大连市甘井子区丰收路3-5号,大连,大连智和房地产开发有限公司,甘井子,20190403,38.965377255081755,121.58288415324094,华锦铭苑,45,18751,大连东昌物业管理有限公司,1.3,辽宁,1,二手房,2009
西岗区鞍山路65-5号,大连,大连中盛集团有限公司,沙河口,20190403,38.926971569913064,121.60260230348328,中盛家园,15,21106,大和中盛物业管理有限公司,1.5,辽宁,1,二手房,2002
中山区中南路226号,大连,大连国合嘉汇房地产开发有限公司,中山,20190403,38.90029610333926,121.68178899957817,枫合万嘉,31,22852,大连国合物业管理有限公司,1,辽宁,1,二手房,2005
沙河口区西南路96号1层2号,大连,大连宏都房地产开发有限公司,沙河口,20190403,38.890863095482466,121.56788114713203,宏都筑景Ⅰ期,34,23521,大连东方百瑞物业管理有限公司,1.4,辽宁,1,二手房,2008
沙河口区五一路109-4号,大连,大连正源房地产开发有限公司,沙河口,20190403,38.913544290955585,121.59450670056631,幸福e家一期,24,30883,大连正源物业服务有限公司,0.8,辽宁,1,二手房,2002
西岗区八一路196号2-1-12号,大连,大连欧美亚房地产开发有限公司,西岗,20190403,38.92047268927287,121.61862512554262,中华名城,39,19563,大连峰霖物业管理有限公司,1.5,辽宁,1,二手房,2003
大连市甘井子区逸林南园1-1号,大连,大连三联置业有限公司,甘井子,20190403,38.95800216293212,121.53151895549547,三鼎春天,47,24989,瑞联德（大连）物业管理有限公司,2.8,辽宁,1,二手房,2018
西岗区鞍山路65-5号,大连,大连华阳房地产开发有限公司,沙河口,20190403,38.926971569913064,121.60260230348328,华阳风尚,13,16755,北京凯莱物业管理有限公司大连分公司,1.3,辽宁,1,二手房,2009
沙河口区华新苑10号楼4号公建,大连,大连新型房地产开发有限公司,沙河口,20190403,38.94033750532864,121.58990295130229,华新苑,5,13067,大连新型物业管理有限公司,0.5,辽宁,1,二手房,2003
大连市甘井子区软件园路122号,大连,大连鑫园房屋开发有限公司,高新园区,20190403,38.89286578891647,121.53266600180116,新新园二期,16,15113,大连理工物业管理中心,0.5,辽宁,1,二手房,2005
甘井子区西南路芳茗园30号楼,大连,大连泰华房地产开发有限公司,甘井子,20190403,38.961395177040636,121.59546002818708,泰华府邸,17,18608,大连华安物业管理有限公司,1.5,辽宁,1,二手房,2009
沙河口区联合路133号,大连,大连新型房地产开发有限公司,沙河口,20190403,38.91608561262676,121.60480987310456,21中联德小区,5,24830,大连新型物业管理有限公司,0.5,辽宁,1,二手房,1998
无门店信息,大连,大华集团大连置业有限公司,高新园区,20190403,34.52713835999158,118.76812980670795,大华锦绣华城四期,39,22972,大连大华物业管理有限公司,2.5,辽宁,1,二手房,2015
沙河口区连山街10号2-1-2,大连,大连宝嘉房地产有限公司,沙河口,20190403,38.89637522563413,121.57143690983219,星海名庭,9,22756,大连斌宏物业管理有限公司,0.6,辽宁,1,二手房,2005
甘井子区惠泽南园3-4号,大连,大连鹏德房屋开发有限公司,甘井子,20190403,38.939326611323615,121.52337842113351,西山逸林,38,15389,大连三和住邦物业管理有限公司,1.3,辽宁,1,二手房,2009
甘井子区金家街17-7号,大连,大连三业房地产开发有限公司,甘井子,20190403,38.97493697764367,121.60110987128529,紫金枫尚,9,24543,亿达物业管理有限公司,0.8,辽宁,1,二手房,2007
甘井子区泉水B2区19-1号,大连,北方沿海房地产开发（大连）有限公司,甘井子,20190403,39.0101309886317,121.60812584213187,沿海鉴筑,31,17260,美佳物业管理（深圳）有限公司大连分公司,1.8,辽宁,1,二手房,2013
沙河口区锦江园30号1层公建,大连,大连市经济适用房建设发展中心,沙河口,20190403,38.949985113183935,121.56560955976859,锦绣园,18,12918,大连锦绣物业管理有限公司,0.5,辽宁,1,二手房,2000
西岗区鞍山路29号龙畔锦城东门,大连,大连铁龙房地产开发有限公司,西岗,20190403,38.92763470697088,121.61498923399098,北岗新居,11,15081,大连铁龙物业管理有限公司,0.5,辽宁,1,二手房,2002
中山区共建巷61号,大连,中信集团大连中信房地产开发公司,中山,20190403,38.91828093658718,121.66259221532148,尚品南山,11,24108,大连中信物业管理有限公司,1.5,辽宁,1,二手房,2008
无门店信息,大连,北方沿海房地产开发（大连）有限公司,沙河口,20190403,34.52713835999158,118.76812980670795,星海大观,180,17525,北京世邦魏理仕物业管理服务有限公司大连分公司,4.4,辽宁,1,二手房,2008
中山区华乐街71号公建,大连,大连环海房地产开发有限公司,中山,20190403,38.923187679200566,121.6843197903016,华乐小区,20,14846,大连景和物业管理有限公司,0.5,辽宁,1,二手房,2000
中山区民运巷 47号1层2号,大连,大连荣泰房地产开发有限公司,中山,20190403,38.905955122300846,121.64798148011702,豪森茗家,11,24747,大连戴德梁行物业管理有限公司,2.2,辽宁,1,二手房,2008
沙河口区数码路(北段)20-6号,大连,无开发商,高新园区,20190403,38.890045799133254,121.55191912957606,学子园,7,24050,业主自筹物业,0.5,辽宁,1,二手房,2002
沙河口区成仁街91号,大连,大连海孚房地产开发有限公司,沙河口,20190403,38.91539947107844,121.59585638842556,华业玫瑰东方Ⅱ期,30,26225,深圳华业物业管理有限公司大连分公司,3.5,辽宁,1,二手房,2014
中山区民运巷 47号1层2号,大连,大连中杰房屋开发有限公司,中山,20190403,38.905955122300846,121.64798148011702,石葵秀景,4,18655,大连中杰物业管理有限公司,1.2,辽宁,1,二手房,2005
西岗区黄河路90号公建部分,大连,大连民兴房地产开发有限公司,西岗,20190403,38.92234529815978,121.62829331825485,前城国际一期,17,23850,大连前城花园物业管理有限公司,1,辽宁,1,二手房,2005
沙河口区成仁街91号,大连,无开发商,沙河口,20190403,38.91539947107844,121.59585638842556,同泰花园,2,24584,大连斌弘物业管理有限公司,0.5,辽宁,1,二手房,2003
甘井子区红旗西路104-7,大连,大连安邦房地产开发有限公司,甘井子,20190403,38.940335495502666,121.52722586363274,水畔香谷,13,14794,大连万科绿色家园物业有限公司,1,辽宁,1,二手房,2007
甘井子区促进路200号,大连,大连鼎新房地产开发有限公司,甘井子,20190403,38.95810188892782,121.58530036264898,鼎新鼎云都,8,17872,大连鼎新物业管理有限公司,0.6,辽宁,1,二手房,2008
大连市沙河口区黄河路729号,大连,大连盛佳房地产开发有限公司,沙河口,20190403,38.91710565765228,121.58954758972729,城市佳园,10,19554,街道办事处（居委会）代管物业,1,辽宁,1,二手房,2004
甘井子区泉水E1区27号-3公建,大连,大连百思泰置业有限公司,甘井子,20190403,39.002846129004375,121.61312453141336,钰桥中央庭院,46,18053,大连百嘉物业管理有限公司,1.8,辽宁,1,二手房,2014
沙河口区红凌路137号,大连,大连大实企业集团房屋开发有限公司,甘井子,20190403,38.922699288974506,121.54713601744747,叠翠骏景,17,12026,大连弘实物业管理有限公司,0.4,辽宁,1,二手房,2004
中山区东港龙湖水晶郦湾7-102,大连,大连龙湖东港房地产有限公司,中山,20190403,38.924700620463895,121.70344398518496,龙湖水晶郦湾,73,27964,大连龙湖物业服务有限公司,4.5,辽宁,1,二手房,2015
无门店信息,大连,大连软件园世通开发有限公司,高新园区,20190403,34.52713835999158,118.76812980670795,亿达普罗旺斯二期,76,21708,亿达物业管理有限公司,2.6,辽宁,1,二手房,2014
中山区共建巷61号,大连,无开发商,中山,20190403,38.91828093658718,121.66259221532148,39中桂林街,14,24922,街道办事处（居委会）代管物业,-,辽宁,1,二手房,1990
沙河口区黄河路535号,大连,大连利源房屋开发有限公司,沙河口,20190403,38.91773777159567,121.60217159922856,79中万岁公寓,15,18894,大连大众物业管理有限公司,0.8,辽宁,1,二手房,2000
中山区爱华街13号,大连,大连一方地产有限公司,中山,20190403,38.92541607518685,121.6535728031028,一方国际,33,34278,大连一方物业管理有限公司,4.8,辽宁,1,二手房,2013
中山区中青街87号一单元107,大连,大连金生房地产开发有限公司,中山,20190403,38.90213494248529,121.65806522267005,金生佳苑,10,18463,大连金宇物业管理有限公司,1,辽宁,1,二手房,2006
莲花山路89-3号,大连,无开发商,西岗,20190403,38.902848261803356,121.6041720815823,世纪家园(西岗),5,17778,大连铁龙物业管理有限公司,0.3,辽宁,1,二手房,2000
大连市甘井子区辛如街35号1单元1层1号,大连,大连新星房地产开发有限公司,甘井子,20190403,38.96862607066881,121.52294869064194,新星绿城四期,24,14195,大连生生物业管理有限公司,0.8,辽宁,1,二手房,2008
高新园区敬贤街25-9,大连,大连家豪房地产开发有限公司,高新园区,20190403,38.86879447142154,121.53007349209936,圣托里尼,40,21521,大连斌弘物业管理有限公司,1.8,辽宁,1,二手房,2013
沙河口区黄浦路18号—5号公建,大连,大连高新技术产业园区建设开发总公司,高新园区,20190403,38.8771225143479,121.54427480390662,学府1+1,9,19666,街道办事处（居委会）代管物业,0.5,辽宁,1,二手房,2007
沙河口区成仁街91号,大连,大连城市建设集团有限公司,沙河口,20190403,38.91539947107844,121.59585638842556,79中学中盈家园,24,20229,街道办事处（居委会）代管物业,0.5,辽宁,1,二手房,2002
沙河口区星海广场B3区14-2号1层,大连,大连万达房地产开发有限公司,沙河口,20190403,38.88693148294673,121.58735631267305,大连明珠,65,26483,大连万象美物业管理有限公司,3.5,辽宁,1,二手房,2008
沙河口区中山路417A-4号,大连,大连宝嘉房地产有限公司,沙河口,20190403,38.90740323140171,121.59484801084653,德源筑座,19,22021,大连乐尔居物业服务有限公司,2.5,辽宁,1,二手房,2009
沙河口区兰田街33号,大连,大连凭海房地产开发有限公司,沙河口,20190403,38.926138912221084,121.56486022834609,清熙园,3,12818,大连鑫诚物业有限公司,0.5,辽宁,1,二手房,2004
甘井子区华龙南园34-5号34-库4号34-5号,大连,大连运达房地产集团有限公司,甘井子,20190403,38.98270467597865,121.6117222765123,泊岭紫郡,29,13322,大连怡和物业服务有限公司,0.9,辽宁,1,二手房,2009
中山区爱华街13号,大连,威新房地产开发(大连)有限公司,中山,20190403,38.92541607518685,121.6535728031028,中山九号,24,29052,威新物业管理(大连)有限公司,3.5,辽宁,1,二手房,2003
西岗区新田巷27号1-2,大连,大连海苑房屋开发有限公司,西岗,20190403,38.893215932589385,121.64103065169111,半岛故乡,6,16211,大连半岛物业管理有限公司,0.8,辽宁,1,二手房,2002
中山区华乐街107-115号1单元1层2号,大连,大连华旭置业有限公司,中山,20190403,38.92093821499401,121.68879267531725,东港第,19,34364,大连华锐世纪物业管理有限公司,3,辽宁,1,二手房,2015
中山区中南路226号,大连,大连悦泰集团有限公司,中山,20190403,38.90029610333926,121.68178899957817,悦泰林里,15,27480,大连腾馨物业管理有限公司,1.2,辽宁,1,二手房,2006
西岗区长春路334号,大连,大连源通房地产开发有限公司,西岗,20190403,38.89807766522607,121.63221082858387,南石源居,3,16645,大连源通物业管理有限公司,1.3,辽宁,1,二手房,2009
甘井子区榆水街6-9号公建,大连,大连弘润置业有限公司,甘井子,20190403,38.97957540063716,121.52458567456938,万科城市之光,56,22268,大连万科物业服务有限公司,2.8,辽宁,1,二手房,2015
西岗区大同街125号,大连,大连名仕房地产开发有限公司,西岗,20190403,38.920458602340894,121.61445835429899,中央复兴里,9,24544,大连名仕物业管理有限公司,2.1,辽宁,1,二手房,2010
沙河口区鞍山路65号美都园7号1单元1层4号公建,大连,远洋地产有限公司,沙河口,20190403,38.92755211283745,121.60306664748275,绿都园,18,14249,大连峰霖物业管理有限公司,0.6,辽宁,1,二手房,2000
高新园区海苑街36号1单元2号公建,大连,千汇德（大连）置业有限公司,高新园区,20190403,20.06392317589085,110.32302599457326,哈佛映像,17,19283,大连千汇德物业管理有限公司,1.2,辽宁,1,二手房,2009
大连市沙河口区黄河路729号,大连,无开发商,沙河口,20190403,38.91710565765228,121.58954758972729,明阳花园小区,13,12104,无物业管理服务,-,辽宁,1,二手房,2000
西岗区中山路158号唐山街市场外14号,大连,大华集团大连房地产开发有限公司,西岗,20190403,38.91688106727098,121.63201298398174,畅通花园,3,20566,大连亿安物业管理有限公司,0.6,辽宁,1,二手房,2002
西岗区康平街2号（5号楼3-1-3号）,大连,大连新型房地产开发有限公司,西岗,20190403,38.91044414697888,121.61980769264477,新华公寓,4,16679,大连新型物业管理有限公司,0.5,辽宁,1,二手房,1997
甘井子区祥龙街2号楼1单元1楼1号,大连,万象地产房地产开发有限公司,甘井子,20190403,38.988045874482445,121.60439401971377,枣园万象,19,16381,大连润东物业管理有限公司,1.7,辽宁,1,二手房,2012
沙河口区沙能街101号1单元1层1号,大连,大连大力置业有限公司,沙河口,20190403,38.9366316275348,121.59031205759763,机车佳苑,8,15632,大连大力物业管理有限公司,1.5,辽宁,1,二手房,2009
中山区中南路226号,大连,大连海王府房地产开发有限公司,中山,20190403,38.90029610333926,121.68178899957817,海王府现代城,16,17218,街道办事处（居委会）代管物业,1,辽宁,1,二手房,2004
西岗区华北路100号1层5号,大连,大连渤海红旗集团有限公司,沙河口,20190403,38.92047268927287,121.61862512554262,碧海花园,2,14193,无物业管理服务,0.5,辽宁,1,二手房,2002
甘井子辛吉街150号-7号,大连,大连新星房地产开发有限公司,甘井子,20190403,38.96368508446978,121.52671221254214,新星绿城三期,55,13093,大连生生物业管理有限公司,0.5,辽宁,1,二手房,2006
甘井子区锦城东园1号3单元1层2号,大连,大连易合房地产开发有限公司,甘井子,20190403,38.952805477462775,121.55656194973994,易和紫园,8,25259,大连易兴物业服务有限公司,0.9,辽宁,1,二手房,2009
开发区松苑街23号,大连,无开发商,开发区,20190403,22.52087435807652,113.40156105086167,松峪里一期,15,11804,大连中信物业管理有限公司,0.5,辽宁,1,二手房,2000
中山区中南路226号,大连,大连市建设控股有限公司,中山,20190403,38.90029610333926,121.68178899957817,欧洲小镇,12,18784,大连大众物业管理有限公司,0.8,辽宁,1,二手房,2004
沙河口区连山街10号2-1-2,大连,大连城市建设集团有限公司,沙河口,20190403,38.89637522563413,121.57143690983219,城建花园,8,17237,大连城建开发集团物业管理有限公司,0.5,辽宁,1,二手房,2002
西岗区绕山路31号公建一层东侧,大连,大连泰安房地产开发有限公司,西岗,20190403,38.90257514466717,121.61412736644739,同香山庄,16,16107,同香物业管理有限公司,0.5,辽宁,1,二手房,1989
无门店信息,大连,大连万科房地产开发有限公司,旅顺口,20190403,34.52713835999158,118.76812980670795,万科樱花园,48,13038,大连万科物业服务有限公司,2.4,辽宁,1,二手房,2014
西岗区中山路158号唐山街市场外14号,大连,海运集团大连房屋开发有限公司,西岗,20190403,38.91688106727098,121.63201298398174,宝居佳苑,6,26461,大连城建开发集团物业管理有限公司,2,辽宁,1,二手房,2011
沙河口区西南路358号1—2号,大连,大连弘晟房地产开发有限公司,沙河口,20190403,38.90839654326566,121.56908246905662,明月山庄,10,16380,大连衡德物业管理有限公司,0.6,辽宁,1,二手房,2003
沙河口区黄河路883号,大连,大连亿达房地产股份有限公司,沙河口,20190403,38.919826721475204,121.57749657966676,亿达学苑,10,20892,亿达物业管理有限公司,0.7,辽宁,1,二手房,2003
西岗区黄河路90号公建部分,大连,大连兴昌房屋开发有限公司,西岗,20190403,38.92234529815978,121.62829331825485,兴昌都市首府,6,32038,大连戴德梁行物业管理有限公司,1.5,辽宁,1,二手房,2005
大连市甘井子区丰收路3-5号,大连,大连壹高房地产发展有限公司,甘井子,20190403,38.965377255081755,121.58288415324094,朗香小镇,16,21780,大连顶点物业管理有限公司,1.3,辽宁,1,二手房,2011
沙河口区星海广场B3区14-2号1层,大连,华润置地（大连）有限公司,沙河口,20190403,38.88693148294673,121.58735631267305,星海湾壹号,39,50780,华润物业（大连）有限公司,4.8,辽宁,1,二手房,2008
沙河口区西南路358号1—2号,大连,大连恒安房地产开发有限公司,沙河口,20190403,38.90839654326566,121.56908246905662,水芙山竹,8,20865,大连上达物业管理有限公司,0.6,辽宁,1,二手房,2005
中山区三八广场5号,大连,大连华丽山庄有限公司,中山,20190403,38.92540000551715,121.6642911149562,华丽山庄,16,18583,华丽山庄物业公司,1.5,辽宁,1,二手房,1999
大连市沙河口区西南路875号1层21号,大连,大连泰安房地产开发有限公司,沙河口,20190403,38.94485969061231,121.58418648447764,春柳河小区,18,11536,大连三宝物业有限公司,0.5,辽宁,1,二手房,2001
中山区武昌街武昌公寓6号公建,大连,大连中盛集团有限公司,中山,20190403,38.912280913445784,121.64921130527547,武昌花园,10,13123,无物业管理服务,0.3,辽宁,1,二手房,1990
沙河口区民权街324号,大连,无开发商,沙河口,20190403,38.92064616208148,121.59777611850379,79中恒泰大厦,6,21480,大连衡德物业管理有限公司,0.4,辽宁,1,二手房,1996
沙河口区西南路851号3单元1层3号,大连,大连振屹房屋开发有限公司,沙河口,20190403,38.94344210837944,121.58246796944378,柳馨家园,6,12008,街道办事处（居委会）代管物业,0.6,辽宁,1,二手房,2000
中山区共建巷61号,大连,无开发商,中山,20190403,38.91828093658718,121.66259221532148,39中明泽街,17,24327,无物业管理服务,-,辽宁,1,二手房,1993
大连市甘井子区钻石湾和信园13-5,大连,远洋地产有限公司,甘井子,20190403,38.958699272665584,121.61903564217761,远洋钻石湾二期,35,24124,大连远洋基业物业管理有限公司,3.2,辽宁,1,二手房,2015
中山区南山路59号1层4号,大连,大连恒一嘉元置业有限公司,中山,20190403,38.91992239075882,121.6479206962747,南山首府,4,33527,大连恒信物业服务有限公司,4,辽宁,1,二手房,2015
沙河口区昌黎街77号楼第1层公建,大连,暂无信息,沙河口,20190403,38.91974518366595,121.5902918379551,尚品天城,9,21012,大连永嘉物业管理公司,1.2,辽宁,1,二手房,1999
中山区山屏街116号1-1,大连,大连恒悦房地产开发有限公司,中山,20190403,38.90729438486833,121.68598159980013,悦泰德里,5,22845,大连百安物业管理有限公司,1.9,辽宁,1,二手房,2008
甘井子区凌秀路37号-1链家地产,大连,无开发商,高新园区,20190403,38.883794285403965,121.52361997548515,凌秀小区,15,15057,大连远洋基业物业管理有限公司,0.6,辽宁,1,二手房,1993
高新园区海苑街36号1单元2号公建,大连,大连金华兴房地产开发有限公司,高新园区,20190403,20.06392317589085,110.32302599457326,华兴山庄,14,14944,大连华兴物业管理有限公司,0.5,辽宁,1,二手房,2004
大连经济技术开发区同和里7栋-9号,大连,开发区城建局,开发区,20190403,39.04901984220615,121.7885236929847,东山花园,16,13552,大连戎旅物业管理有限公司,0.8,辽宁,1,二手房,2006
甘井子区泉水B2区19-1号,大连,北方沿海房地产开发（大连）有限公司,甘井子,20190403,39.0101309886317,121.60812584213187,沿海鉴筑二期,23,16398,美佳物业管理（深圳）有限公司大连分公司,1.5,辽宁,1,二手房,2012
中山区山屏街116号1-1,大连,大连毅腾房屋开发有限公司,中山,20190403,38.90729438486833,121.68598159980013,中南苑,12,18233,大连中南苑物业有限公司,1,辽宁,1,二手房,2001
中山区武昌街武昌公寓6号公建,大连,暂无信息,中山,20190403,38.912280913445784,121.64921130527547,新兴小区,5,8982,暂无信息,0.5,辽宁,1,二手房,2000
西岗区华北路100号1层5号,大连,大连双振房屋开发有限公司,沙河口,20190403,38.92047268927287,121.61862512554262,香茗苑,7,15774,大连双振物业有限公司,0.5,辽宁,1,二手房,2003
甘井子区汇仁街19号12号楼1单元102室,大连,大连华南房地产开发有限公司,甘井子,20190403,38.99746297497168,121.58917714380617,名贵山庄金盛园,14,15246,大连弘益达物业管理有限公司,0.5,辽宁,1,二手房,2004
甘井子区华北路花锦园28号23-3-1-2建筑物,大连,大连东特房地产开发有限公司,甘井子,20190403,38.951627958411166,121.5739439799003,东特金星公馆,34,15985,大连东特祥禾物业管理有限公司,1.2,辽宁,1,二手房,2009
中山区武昌街武昌公寓6号公建,大连,大连海昌房屋开发有限公司,中山,20190403,38.912280913445784,121.64921130527547,海昌华城,8,17069,大连海昌欣城物业管理有限公司,1.1,辽宁,1,二手房,1997
甘井子区知音园20号3单元1层1号,大连,无开发商,高新园区,20190403,38.95800216293212,121.53151895549547,老年公寓,7,19096,无物业管理服务,0.2,辽宁,1,二手房,1995
高新园区硅谷假日小区25号楼地下室,大连,浦项（大连）软件园开发有限公司,高新园区,20190403,38.86467854992112,121.53720784613759,浦项道,24,23835,浦项(大连)物业管理有限公司,3.4,辽宁,1,二手房,2015
甘井子辛吉街150号-7号,大连,大连新星房地产开发有限公司,甘井子,20190403,38.96368508446978,121.52671221254214,新星绿城二期,21,13096,大连生生物业管理有限公司,0.5,辽宁,1,二手房,2005
甘井子区金家街17-7号,大连,大连衡锐房屋开发有限公司,甘井子,20190403,38.97493697764367,121.60110987128529,温莎小镇,7,20302,大连长波物业管理有限公司,1.5,辽宁,1,二手房,2013
开发区松苑街23号,大连,暂无信息,开发区,20190403,22.52087435807652,113.40156105086167,松峪里二期,7,13372,大连中信物业管理有限公司,0.5,辽宁,1,二手房,2000
沙河口区鞍山路65号美都园7号1单元1层4号公建,大连,大连诚瑞项目管理有限公司,沙河口,20190403,38.92755211283745,121.60306664748275,万向城,38,11697,大连好管家物业管理有限公司,1.9,辽宁,1,二手房,2010
中山区三八广场5号,大连,大连宏正房地产开发有限公司,中山,20190403,38.92540000551715,121.6642911149562,宏都嘉园,2,22559,大连宏进物业管理有限公司,1.5,辽宁,1,二手房,2002
中山区共建巷61号,大连,大连新型房地产开发总公司,中山,20190403,38.91828093658718,121.66259221532148,南山苑,13,34258,大连新型物业管理有限公司,1.5,辽宁,1,二手房,1990
西岗区香炉礁24号1-1,大连,大连大骏达房地产开发有限公司,西岗,20190403,38.92047268927287,121.61862512554262,骏达阅阳楼,10,11013,街道办事处（居委会）代管物业,1.2,辽宁,1,二手房,2010
沙河口区民权街324号,大连,大连中源翔房屋开发有限公司,沙河口,20190403,38.92064616208148,121.59777611850379,79中五四华庭,5,27914,大连祥益物业管理有限公司,2.6,辽宁,1,二手房,2008
中山区共建巷61号,大连,无开发商,中山,20190403,38.91828093658718,121.66259221532148,39中永青街,11,25037,街道办事处（居委会）代管物业,0.5,辽宁,1,二手房,1995
西岗区胜利路33号,大连,大连恒盛房屋开发有限公司,西岗,20190403,38.91309771954841,121.62500886627636,盛阳山庄,9,11018,大连佳捷物业管理有限公司,0.5,辽宁,1,二手房,1999
沙河口区连山街44-2号半地下一层（地上一层部分）,大连,无开发商,沙河口,20190403,38.892991456958086,121.57299542767161,星海嘉园,3,16329,街道办事处（居委会）代管物业,0.5,辽宁,1,二手房,2001
中山区共建巷61号,大连,无开发商,中山,20190403,38.91828093658718,121.66259221532148,39中望海街,11,25777,街道办事处（居委会）代管物业,0.5,辽宁,1,二手房,1995
甘井子区华东路33-5号,大连,大连凯祥房地产开发有限公司,甘井子,20190403,38.97497080220593,121.59479866243332,商城花园,20,11572,大连凯祥物业管理有限公司,0.5,辽宁,1,二手房,2000
甘井子区华东路33-5号,大连,大连景和房屋开发有限公司,甘井子,20190403,38.97497080220593,121.59479866243332,怡景园,8,16835,大连景和物业管理有限公司,0.5,辽宁,1,二手房,2002
沙河口区连山街10号2-1-2,大连,大连国合嘉汇房地产开发有限公司,沙河口,20190403,38.89637522563413,121.57143690983219,嘉汇星海,4,18642,大连国合物业管理有限公司,0.5,辽宁,1,二手房,2004
开发区翠竹小区33栋4-1-1号,大连,大连宏济开发经济有限公司,开发区,20190403,30.635492106460237,119.69169575745704,宏城金棕榈,50,10447,大连宏景物业管理有限公司,1.3,辽宁,1,二手房,2006
甘井子区绿洲园63—14号,大连,大连房地产开发集团,甘井子,20190403,38.956121454819055,121.59418735295752,和润佳园,3,22004,大连益嘉物业管理有限公司,1,辽宁,1,二手房,2007
沙河口区五四路207-1-9号,大连,大连华邦房地产开发有限公司,沙河口,20190403,38.913544290955585,121.59450670056631,华邦上都,20,19145,大连华邦物业有限公司,1.7,辽宁,1,二手房,2006
沙河口区兰田街33号,大连,大连大力房地产开发有限公司,沙河口,20190403,38.926138912221084,121.56486022834609,电业逸彩园,6,17911,大连亿安物业管理有限公司,0.5,辽宁,1,二手房,2002
西岗区黄河路362号公建,大连,亿达集团大连房地产开发有限公司,西岗,20190403,38.91819905243802,121.61365779430986,亿达新世界,11,16642,亿达物业管理有限公司,0.5,辽宁,1,二手房,2001
甘井子区虹港路16号楼1层公建,大连,大连鑫奇房地产开发有限公司,甘井子,20190403,38.9645939333502,121.553851837474,鑫境界,77,12133,大连鑫境界物业管理有限公司,1.3,辽宁,1,二手房,2009
甘井子区迎客路郭东街一品蓝天公建14号,大连,沈阳军区后勤部,甘井子,20190403,38.958456949708726,121.556756277476,金寓花园三期,8,17605,大连瑞祥物业管理有限公司,1,辽宁,1,二手房,2009
甘井子区锦城东园1号3单元1层2号,大连,大连福田房屋开发有限公司,甘井子,20190403,38.952805477462775,121.55656194973994,福典人家,27,20632,大连福田房屋物业管理有限公司,0.6,辽宁,1,二手房,2006
甘井子区柳树南街45-10号,大连,大连顺达房屋开发有限公司,甘井子,20190403,38.92567666296449,121.4841330254372,顺达温泉花园三期,38,11647,大连顺达物业服务有限公司,0.6,辽宁,1,二手房,2007
沙河口区星海广场B3区14-9,大连,大连科宏房屋开发有限公司,沙河口,20190403,38.88708614275256,121.58732027085938,科宏花园,6,15231,无物业管理服务,-,辽宁,1,二手房,2000
中山区金城街26号一楼,大连,无开发商,中山,20190403,38.922282529515634,121.65214466263014,九中武汉街,6,38759,无物业管理服务,-,辽宁,1,二手房,1991
金州区小平岛B组团4号楼3号商铺,大连,大连圣岛房地产开发有限公司,高新园区,20190403,39.05643299166072,121.78943558267059,小平岛揽海名寓,25,20189,大连凯尔富物业管理有限公司,1.7,辽宁,1,二手房,2010
中山区民运巷 47号1层2号,大连,大连新型房地产开发总公司,中山,20190403,38.905955122300846,121.64798148011702,葵英小区,10,12706,街道办事处（居委会）代管物业,0.3,辽宁,1,二手房,1999
中山区碧浪园4号-3号,大连,大连三寰房地产开发有限公司,中山,20190403,38.89147289460474,121.69329560326236,碧浪园二期,10,16820,大连峰霖物业管理有限公司,0.3,辽宁,1,二手房,2002
中山区鲁迅路184号1层B—A,大连,大连华顺房地产开发公司,中山,20190403,38.92590875965419,121.67594393403164,春和花园,11,15807,大连华富物业管理有限公司,0.5,辽宁,1,二手房,2004
西岗区鞍山路65-5号,大连,大连大重房屋开发有限公司,沙河口,20190403,38.926971569913064,121.60260230348328,江都春华园,2,27417,大连万兴物业管理有限公司,0.8,辽宁,1,二手房,2008
中山区安居巷7号,大连,大连华鹏房地产有限公司,中山,20190403,38.92451111549568,121.65154739366945,海派优座,14,15862,第一东方（大连）物业服务有限公司,2.5,辽宁,1,二手房,2008
中山区东港龙湖水晶郦湾7-102,大连,大连一方东港置地有限公司,中山,20190403,38.924700620463895,121.70344398518496,中庚当代艺术,15,26024,大连中庚物业管理有限公司,4.5,辽宁,1,二手房,2015
无门店信息,大连,大连景和房屋开发有限公司,甘井子,20190403,34.52713835999158,118.76812980670795,怡华园,14,17144,大连景和物业管理有限公司,0.5,辽宁,1,二手房,2001
经济技术开发区红星海-A区81-2号1层,大连,远洋地产有限公司,开发区,20190403,39.027851194371685,121.80327394132297,红星海三期境界,84,14026,大连远洋基业物业管理有限公司,2.2,辽宁,1,二手房,2012
沙河口区华北路404号,大连,大连元泰房屋开发有限公司,沙河口,20190403,38.8862815932937,121.59082948696123,福居家园,3,13452,渤海吉祥物业管理有限公司,0.5,辽宁,1,二手房,2003
沙河口区黄河路535号,大连,大连春达房屋开发有限公司,沙河口,20190403,38.91773777159567,121.60217159922856,79中数控大厦,10,24872,大连欧德物业管理有限公司,1.2,辽宁,1,二手房,2000
甘井子区华北路花锦园28号23-3-1-2建筑物,大连,大连东特房地产开发有限公司,甘井子,20190403,38.951627958411166,121.5739439799003,东特星中环,18,16374,大连东特祥禾物业管理有限公司,0.8,辽宁,1,二手房,2006
大连市沙河口区黄河路729号,大连,大连天河房地产开发集团有限公司,沙河口,20190403,38.91710565765228,121.58954758972729,天河100,4,19876,大连天河物业管理有限公司,0.8,辽宁,1,二手房,2004
沙河口区黑石礁街5号1层1号,大连,大连鹏生房地产开发有限公司,沙河口,20190403,38.879813345473714,121.56313742300513,鹏莱花园,9,14896,大连新兴物业管理有限公司,0.3,辽宁,1,二手房,1998
中山区东港龙湖水晶郦湾7-102,大连,大连创富房地产开发有限公司,中山,20190403,38.924700620463895,121.70344398518496,中国铁建国滨苑,23,25508,北京国贸物业,4.3,辽宁,1,二手房,2015
西岗区平等街21号1层2号,大连,远洋地产有限公司,西岗,20190403,38.92251066253164,121.63236845125735,丽都花园,11,18112,无物业管理服务,1.5,辽宁,1,二手房,1997
大连市甘井子区七贤路8-3号,大连,大连高新万达广场投资有限公司,高新园区,20190403,38.86602612116956,121.53842265737707,万达海公馆,28,30533,大连万达物业管理有限公司,4.5,辽宁,1,二手房,2015
西岗区华北路100号1层5号,大连,无开发商,西岗,20190403,38.92047268927287,121.61862512554262,远东小区,1,12637,无物业管理服务,-,辽宁,1,二手房,1999
中山区中南路店212号门头房,大连,峰尚房屋开发有限公司,中山,20190403,38.91149759691359,121.67700561077149,峰尚中南,14,16492,大连银洲物业管理有限公司,2.2,辽宁,1,二手房,2011
沙河口区连山街44-2号半地下一层（地上一层部分）,大连,大连富华房地产有限公司,沙河口,20190403,38.892991456958086,121.57299542767161,富华山庄,7,15947,大连城建开发集团物业管理有限公司,0.5,辽宁,1,二手房,1998
中山区南山路59号1层4号,大连,深圳市东山开发有限公司,中山,20190403,38.91992239075882,121.6479206962747,昆明花园,5,20944,深圳市东山物业管理有限公司,0.5,辽宁,1,二手房,2000
中山区安居巷7号,大连,大连长荣房屋开发有限公司,中山,20190403,38.92451111549568,121.65154739366945,休斯顿公寓,36,13533,大连长荣物业管理有限公司,2.6,辽宁,1,二手房,2003
沙河口区星海广场B3区14-9,大连,半岛集团,沙河口,20190403,38.88708614275256,121.58732027085938,半岛听涛,13,23164,大连半岛物业管理有限公司,2.6,辽宁,1,二手房,2007
中山区安居巷7号,大连,大连铁路房地产开发有限责任公司,西岗,20190403,38.92451111549568,121.65154739366945,沈铁铭悦（大菜市商圈）,10,17527,大连铁路物业管理有限公司,1.5,辽宁,1,二手房,2014
沙河口区民权街324号,大连,大连天河房地产开发集团有限公司,沙河口,20190403,38.92064616208148,121.59777611850379,宝发金钻,27,15211,大连天河物业管理有限公司,2.3,辽宁,1,二手房,2007
沙河口区联合路133号,大连,暂无信息,沙河口,20190403,38.91608561262676,121.60480987310456,21中天兴花园二期,5,19691,大连万泰物业管理有限公司,0.5,辽宁,1,二手房,1998
岭前街53-5,大连,大连市桃源雅居房地产开发有限公司,中山,20190403,38.89487069426055,121.65795959631497,桃源雅居,3,21836,大连远洋基业物业管理有限公司,1,辽宁,1,二手房,2010
金州区小平岛B组团4号楼3号商铺,大连,大连圣岛房地产开发有限公司,高新园区,20190403,39.05643299166072,121.78943558267059,小平岛邻海园H组团,10,20164,大连凯尔富物业管理有限公司,1.3,辽宁,1,二手房,2009
甘井子区甘井子街3号公建,大连,无开发商,甘井子,20190403,38.982086281836246,121.63426694995971,东翠鸣苑,20,14179,大连亿新物业管理有限公司,0.5,辽宁,1,二手房,2006
甘井子区华北路花锦园28号23-3-1-2建筑物,大连,大连东特房地产开发有限公司,甘井子,20190403,38.951627958411166,121.5739439799003,星中环广场,27,19088,大连东特物业管理有限公司,1.2,辽宁,1,二手房,2009
开发区小孤山西里3栋-11号,大连,大连九龙汇房地产开发有限公司,开发区,20190403,39.02715282297674,121.80682183666346,九龙汇,49,9021,大连宏亮红物业管理有限公司,1.9,辽宁,1,二手房,2009
中山区鲁迅路184号1层B—A,大连,大连泰达新城建设发展有限公司,中山,20190403,38.92590875965419,121.67594393403164,泰达花园,8,21690,大连国合物业管理有限公司,1,辽宁,1,二手房,2000
沙河口区南沙街36号台二2号1-1-37,大连,大连三寰房屋开发有限公司,沙河口,20190403,38.90741410359388,121.57685699961822,南平花园,5,19243,大连上达物业管理有限公司,0.3,辽宁,1,二手房,2001
西岗区绕山路31号公建一层东侧,大连,暂无信息,西岗,20190403,38.90257514466717,121.61412736644739,商都花园,7,13672,大连天河物业管理有限公司,0.3,辽宁,1,二手房,1993
经济技术开发区城润万家4-5号公建,大连,志广房地产有限公司,开发区,20190403,39.05716325096989,121.75946281983826,恒安花园,21,9166,大连志广物业管理有限责任公司,0.9,辽宁,1,二手房,2004
西岗区长春路334号,大连,大连天源房屋开发有限公司,西岗,20190403,38.89807766522607,121.63221082858387,天源山庄,22,9711,大连弘益达物业管理有限公司,0.2,辽宁,1,二手房,1997
中山区秀月街37号1层2号,大连,无开发商,中山,20190403,38.88757907576307,121.66311065527876,桃仙小区,24,12744,街道办事处（居委会）代管物业,0.5,辽宁,1,二手房,1992
沙河口区兰田街33号,大连,无开发商,沙河口,20190403,38.926138912221084,121.56486022834609,858家园,6,12628,无物业管理服务,-,辽宁,1,二手房,2000
红星海A区126-4,大连,暂无信息,开发区,20190403,39.027851194371685,121.80327394132297,红星海一期艺墅,43,16860,大连远洋基业物业管理有限公司,0.5,辽宁,1,二手房,2009
甘井子区山东路137号,大连,大连华南房地产开发有限公司,甘井子,20190403,38.99129404608926,121.59172125999353,名贵山庄华美园,7,13424,大连弘益达物业管理有限公司,0.5,辽宁,1,二手房,2002
甘井子区汇仁街19号12号楼1单元102室,大连,大连华南房地产开发有限公司,甘井子,20190403,38.99746297497168,121.58917714380617,名贵山庄华秋园,14,13527,大连弘益达物业管理有限公司,0.5,辽宁,1,二手房,2002
沙河口区民权街324号,大连,无开发商,沙河口,20190403,38.92064616208148,121.59777611850379,富鸿国际大厦,8,14083,北京凯莱物业管理有限公司大连分公司,1.5,辽宁,1,二手房,2000
沙河口区西南路40号楼,大连,无开发商,沙河口,20190403,38.94143337232082,121.58616557598133,黑石礁景山,11,12209,无物业管理服务,-,辽宁,1,二手房,1990
中山区益民街16号1层1号,大连,大连上方房地产开发有限公司,中山,20190403,38.93092761298906,121.66470740073377,上方港景,32,18391,北京世邦魏理仕物业管理服务有限公司大连分公司,3.5,辽宁,1,二手房,2011
西岗区黄河路90号公建部分,大连,无开发商,西岗,20190403,38.92234529815978,121.62829331825485,长江杰座,11,26011,大连长江物业管理有限公司,1.5,辽宁,1,二手房,2004
甘井子区泉水B5区27-9,大连,大连华智房地产开发有限公司,甘井子,20190403,39.01477152073682,121.60970286326823,华远新都汇广场,32,12370,街道办事处（居委会）代管物业,1,辽宁,1,二手房,2010
高新园区红凌路732-4号,大连,大华集团大连置业有限公司,高新园区,20190403,38.90204708664442,121.53244406374695,大华锦绣华城叁号院,8,31551,大连大华物业管理有限公司,2.5,辽宁,1,二手房,2016
中山区同心街72号1楼公建,大连,大连振屹房屋开发有限公司,中山,20190403,38.91979245940674,121.64769198230202,城市广场,15,15922,大连振屹物业有限公司,3.5,辽宁,1,二手房,2006
中山区民建街10号1单元1号,大连,大连安达房地产开发有限公司,中山,20190403,38.925444479476894,121.66915026954452,39中安达大厦,28,15236,大连凯尔物业管理有限责任公司,0.5,辽宁,1,二手房,2008
中山区华乐街71号公建,大连,首开集团,中山,20190403,38.923187679200566,121.6843197903016,首开铂郡,12,25650,北京燕侨物业管理有限公司大连分公司,3.8,辽宁,1,二手房,2016
甘井子区泉水P3区35-2号,大连,大连鑫成置业有限公司,甘井子,20190403,39.01530162252779,121.63546089163083,欧尚广场,39,17132,大连宏华物业服务有限公司,1.5,辽宁,1,二手房,2014
沙河口区兰田街33号,大连,无开发商,沙河口,20190403,38.926138912221084,121.56486022834609,兰玉街,23,11983,街道办事处（居委会）代管物业,0.4,辽宁,1,二手房,1990
甘井子区红旗西路104-7,大连,大连盛达基业房地产开发有限公司,甘井子,20190403,38.940335495502666,121.52722586363274,依山云水二期,5,15752,大连盛新物业管理有限公司,0.6,辽宁,1,二手房,2007
中山区中南路226号,大连,大连澳南房屋开发有限公司,中山,20190403,38.90029610333926,121.68178899957817,伊顿山庄,12,24204,大连澳南物业管理有限公司,0.8,辽宁,1,二手房,2005
沙河口区中山路417A-4号,大连,无开发商,沙河口,20190403,38.90740323140171,121.59484801084653,同泰街,19,12693,无物业管理服务,0.5,辽宁,1,二手房,1999
沙河口区兰田街33号,大连,无开发商,沙河口,20190403,38.926138912221084,121.56486022834609,马栏广场,10,11458,无物业管理服务,0.4,辽宁,1,二手房,2000
中山区杏林街66—5号,大连,大连嘉和房地产集团有限公司,中山,20190403,38.92572771377599,121.66490555592502,嘉和园,3,24417,大连嘉和物业管理有限公司,3,辽宁,1,二手房,2005
中山区金城街26号一楼,大连,暂无信息,中山,20190403,38.922282529515634,121.65214466263014,枫林苑,2,21142,无物业管理服务,-,辽宁,1,二手房,1998
甘井子区泉水H3区15号3单元1层2号,大连,大连新型房地产开发有限公司,甘井子,20190403,39.00158439075201,121.62616882572375,龙畔金泉一期,13,11410,大连新型物业管理有限公司,0.5,辽宁,1,二手房,2002
中山区民建街10号1单元1号,大连,无开发商,中山,20190403,38.925444479476894,121.66915026954452,39中太阳街,18,22592,无物业管理服务,-,辽宁,1,二手房,1996
无门店信息,大连,新兴际华集团有限公司,甘井子,20190403,34.52713835999158,118.76812980670795,中华城,22,15936,大连仲邦维行物业管理有限公司,2.5,辽宁,1,二手房,2017
沙河口区西南路96号1层2号,大连,无开发商,沙河口,20190403,38.890863095482466,121.56788114713203,大医物业,8,13189,街道办事处（居委会）代管物业,0.5,辽宁,1,二手房,1990
中山区北斗街53号1层1号,大连,大连名仕房地产开发有限公司,中山,20190403,38.92727355733075,121.67002970974048,名仕财富中心,41,11245,holiday inn酒店物业管理有限公司,4.3,辽宁,1,二手房,2006
沙河口区西南路40号楼,大连,大连金通房屋开发有限公司,沙河口,20190403,38.94143337232082,121.58616557598133,海韵花园,10,14241,大连金通物业管理有限公司,0.4,辽宁,1,二手房,2000
