address,city,developer,district,index_date,lat,lng,name,osv,price,property,property_fee,province,tv,type,year
沙河口区沙能街101号1单元1层1号,大连,大连新型房地产开发有限公司,沙河口,20190514,38.9366316275348,121.59031205759763,侯二小区,179,11073,街道办事处（居委会）代管物业,0.1,辽宁,32,二手房,1985
开发区湾里南12栋-16-17-18号,大连,大连金湾实业有限公司,开发区,20190514,39.070782084451,121.8506739675913,湾里南小区,360,8671,大连金湾物业管理有限公司,0.3,辽宁,37,二手房,2003
沙河口区华新苑10号楼4号公建,大连,大连新型房地产开发有限公司,沙河口,20190514,38.94033750532864,121.58990295130229,侯一小区,151,11183,大连新兴物业管理有限公司,0.3,辽宁,28,二手房,1989
金州区金润花园B区47号1单元1层1号2号,大连,大连辽大房地产开发有限公司,金州,20190514,39.10434716151341,121.74517862677146,金润小区B区,189,8195,大连新兴物业管理有限公司,0.4,辽宁,28,二手房,2005
甘井子区泉水D1区37-7号,大连,大连运腾房地产开发有限公司,甘井子,20190514,39.013992871679214,121.61921940045104,锦泉源D2区,213,13226,大连嘉毅物业管理有限公司,0.5,辽宁,29,二手房,2005
甘井子区榆林街37号-12公建,大连,大连新型房地产开发有限公司,甘井子,20190514,38.980133141940186,121.52779506952932,泡崖美林园,262,11502,大连新型物业管理有限公司,0.6,辽宁,57,二手房,2003
大连经济技术开发区东城天下98-14,大连,大连乾豪集团有限公司,开发区,20190514,39.069195091289004,121.8502099927954,东城天下,332,8601,大连远洋基业物业管理有限公司,0.9,辽宁,46,二手房,2005
甘井子区宜居园10-1号房屋,大连,大连万科房地产开发有限公司,甘井子,20190514,38.99913094587405,121.52084969112292,万科魅力之城,220,14628,大连万科物业服务有限公司,1.5,辽宁,32,二手房,2012
大连经济技术开发区时代城4-3号1-2号,大连,远洋地产有限公司,开发区,20190514,39.0992481321252,121.83007860699459,远洋时代城一期,175,9204,大连远洋基业物业管理有限公司,1.5,辽宁,23,二手房,2012
大连市金州区站前街道生辉第一城14-3号1-2层,大连,大连新希望家园房地产有限公司,金州,20190514,39.0569681786798,121.74773530665969,新希望家园,193,8705,大连新希望物业服务有限公司,1.2,辽宁,23,二手房,2009
甘井子区玉湖街25号2单元1层3号,大连,大连新型房地产开发有限公司,甘井子,20190514,38.97626265183615,121.54617349027997,泡崖四区,151,10532,大连新型物业管理有限公司,0.5,辽宁,26,二手房,2002
甘井子区祥溢园4号1单元1层9号公建,大连,大连长鹭房屋开发有限公司,甘井子,20190514,38.92981664067587,121.54940314023253,亲亲家园,71,15170,渤海吉祥物业管理有限公司,0.5,辽宁,26,二手房,2004
大连开发区金马路169-2-8号,大连,大连亿锋房地产实业有限公司,开发区,20190514,39.057398235688176,121.78261137849105,亿锋现代城,162,9958,亿锋豪景物业管理有限公司,1.1,辽宁,27,二手房,2006
沙河口区五一路177-1-1-1,大连,无开发商,沙河口,20190514,38.913544290955585,121.59450670056631,台山,85,11772,街道办事处（居委会）代管物业,0.5,辽宁,20,二手房,1987
开发区东北三街94号1层,大连,大连欣达房地产开发有限公司,开发区,20190514,39.05723508011585,121.80570768630555,倚山里小区,235,7462,大连经济技术开发区聚盛达物业管理有限公司,0.2,辽宁,20,二手房,1996
甘井子区汇仁街22号,大连,远洋地产有限公司,甘井子,20190514,38.99712640764999,121.58834420439493,远洋广场,190,17551,大连远洋基业物业管理有限公司,1.4,辽宁,19,二手房,2010
甘井子区宜居园10-1号房屋,大连,大连万科房地产开发有限公司,甘井子,20190514,38.99913094587405,121.52084969112292,万科朗润园,106,14884,大连万科物业服务有限公司,1.5,辽宁,19,二手房,2010
西岗区香炉礁24号1-1,大连,无开发商,西岗,20190514,38.92047268927287,121.61862512554262,香炉礁,196,10927,街道办事处（居委会）代管物业,0.1,辽宁,19,二手房,1979
沙河口区新生路万客园3-7,大连,大连绿波房屋开发集团有限公司,沙河口,20190514,38.94412875710208,121.57006756704837,绿波小区,145,10813,大连绿波建设发展有限公司,0.2,辽宁,25,二手房,1998
甘井子区玉丽街2号楼1单元4号公建,大连,大连新型房地产开发有限公司,甘井子,20190514,38.98705071699301,121.55513043130172,泡崖七区,115,10705,大连新兴物业管理有限公司,0.3,辽宁,19,二手房,1999
金州区鹏程家园53#-8,大连,大连光伸房地产开发有限公司,开发区,20190514,39.03523987258615,121.80826248065051,绿洲半岛北岸,125,9244,大连经济技术开发区光伸物业服务有限公司,1.2,辽宁,20,二手房,2007
甘井子区红旗花园23号楼19-24轴公建,大连,大连红旗兴达房地产开发有限公司,甘井子,20190514,38.93108029984587,121.54902145022133,兴达花园,77,12679,大连万泰物业管理有限公司,0.3,辽宁,20,二手房,2000
无门店信息,大连,大连益宁房地产开发有限公司,开发区,20190514,34.52713835999158,118.76812980670795,岭湾峰尚一期,150,8636,大连鸿达物业管理有限公司,1.3,辽宁,18,二手房,2010
沙河口区富民路120号4-1-1,大连,大连渤海红旗集团有限公司,沙河口,20190514,38.930937859528605,121.5647274237578,马栏小学北,77,10466,街道办事处（居委会）代管物业,0.2,辽宁,20,二手房,1994
开发区正恒园1-16,大连,大连华宇房地产开发有限公司,开发区,20190514,39.04823944344617,121.76165468797754,左岸经典,249,9028,大连豪之英物业管理有限公司,1.8,辽宁,20,二手房,2009
金州新区先进街道渤海街7-4号1-2层、7-3号1-2层,大连,原金州纺织厂房地产公司,金州,20190514,39.09342713035472,121.74590886291374,金纺小区,169,6937,街道办事处（居委会）代管物业,0.5,辽宁,20,二手房,1985
大连市甘井子区柳林园8-7号,大连,大连万科置业有限公司,甘井子,20190514,38.91290525308349,121.47673750074993,万科溪之谷,206,14558,大连万科物业服务有限公司,0.6,辽宁,20,二手房,2007
甘井子区玉丽街2号楼1单元4号公建,大连,大连新型房地产开发总公司,甘井子,20190514,38.98705071699301,121.55513043130172,泡崖康顺园,147,10976,大连新兴物业管理有限公司,0.5,辽宁,21,二手房,2007
沙河口区华北路448号楼1-4公建,大连,无开发商,沙河口,20190514,38.903224944733765,121.56809734950556,刘家桥,90,10771,街道办事处（居委会）代管物业,0.1,辽宁,21,二手房,1981
开发区湾里南12栋-16-17-18号,大连,大连金湾实业有限公司,开发区,20190514,39.070782084451,121.8506739675913,湾里东,196,8128,大连金湾物业管理有限公司,0.5,辽宁,23,二手房,2004
沙河口区数码路北段18—20号,大连,大连软景房地产开发有限公司,高新园区,20190514,38.892000603999115,121.5494486394066,软景E居,84,27148,亿达物业管理有限公司,2.6,辽宁,18,二手房,2011
大连市开发区左岸经典正恒园1-17,大连,大连神洲众益集团有限公司,开发区,20190514,39.049057070649155,121.76187404250511,万国宫馆一期,132,13193,加拿大高力国际物业服务有限公司,2.4,辽宁,13,二手房,2009
甘井子区泉水D6区51号,大连,大连锦丰和源祥房地产开发有限公司,甘井子,20190514,39.00897610161069,121.61789300655198,泉水人家幸福里,124,13840,大连泽霖物业管理有限公司,0.9,辽宁,13,二手房,2009
甘井子区泉水D6区51号,大连,大连锦丰和源祥房地产开发有限公司,甘井子,20190514,39.00897610161069,121.61789300655198,泉水家年华,98,13435,街道办事处（居委会）代管物业,0.9,辽宁,13,二手房,2009
天河路173-2号 华润考拉22号公建,大连,华润置地（大连）开发有限公司,甘井子,20190514,23.14720645345518,113.3277414923158,华润考拉住区,83,15161,华润物业（大连）有限公司,2.5,辽宁,13,二手房,2015
沙河口区黄浦路18号—5号公建,大连,无开发商,高新园区,20190514,38.8771225143479,121.54427480390662,凌源街,25,13338,大连凌电物业管理有限公司,0.1,辽宁,13,二手房,1981
大连经济技术开发区时代城4-3号1-2号,大连,远洋地产有限公司,开发区,20190514,39.0992481321252,121.83007860699459,远洋时代城三期,83,8719,大连远洋基业物业管理有限公司,1.5,辽宁,13,二手房,2012
无门店信息,大连,大连万德房地产集团有限公司,开发区,20190514,34.52713835999158,118.76812980670795,万德悦城,100,8222,大连万德物业管理有限公司,1.5,辽宁,13,二手房,2010
沙河口区新生路万客园3-7,大连,大连鹏生房地产开发有限公司,沙河口,20190514,38.94412875710208,121.57006756704837,枫林绿洲,38,13994,大连鹏辉物业管理有限公司,0.3,辽宁,13,二手房,2008
沙河口区西南路643号,大连,无开发商,沙河口,20190514,38.943483429804665,121.5833555851182,北甸街,42,11493,无物业管理服务,-,辽宁,14,二手房,1983
开发区景和园1-7,大连,大连市政府工程建设指挥部,开发区,20190514,30.41892168817929,120.30896459202738,小孤山中里,104,7679,大连广谊物业管理有限公司,0.4,辽宁,14,二手房,1999
甘井子区泉水A2区10-3号,大连,源祥房地产开发有限公司,甘井子,20190514,39.00419463553784,121.61128690376383,美域盛景,132,12592,大连新华物业管理有限公司,0.8,辽宁,14,二手房,2008
开发区润海园中区62-9,大连,华润（大连）房地产有限公司,开发区,20190514,39.04047273176333,121.76392358042445,华润海中国四期,128,14054,华润物业（大连）有限公司,3.1,辽宁,14,二手房,2014
沙河口区富国街14号1-1-2,大连,大连浩江房地产开发有限公司,沙河口,20190514,38.901027106600836,121.59047734850638,和平现代城,91,16372,大连万科物业服务有限公司,1,辽宁,15,二手房,2005
开发区黄海西路54号,大连,开发区城建局,开发区,20190514,39.047714586087785,121.76688238228269,青松北里,48,8169,大连经济技术开发区中强物业管理有限公司,0.2,辽宁,14,二手房,1996
无门店信息,大连,大连一方生态城房地产开发有限公司,开发区,20190514,34.52713835999158,118.76812980670795,一方天鹅湖,177,8007,大连一方物业管理有限公司,2,辽宁,15,二手房,2010
甘井子区红凌路109号,大连,大连锦联地产集团有限公司,甘井子,20190514,38.923388478439314,121.54860212120927,锦绣暖山,71,14949,大连锦明物业服务有限公司,1.2,辽宁,15,二手房,2007
金州区金润小区B区861单元102,大连,大连辽大房地产开发有限公司,金州,20190514,39.10615165380565,121.74639264534615,金润小区A区,151,8509,大连新兴物业管理有限公司,0.4,辽宁,15,二手房,2005
开发区兴城路29-81层,大连,大连亿锋房地产实业有限公司,开发区,20190514,39.050214252167194,121.75835946441768,亿锋广场一期,91,14500,大连广恒物业管理有限公司,2.5,辽宁,15,二手房,2013
甘井子区静林街34号4单元1层2,大连,大连祥盛房屋开发有限公司,甘井子,20190514,38.98321485010885,121.58185179833856,千山心城,121,14414,大连百特物业管理有限公司,0.5,辽宁,15,二手房,2003
沙河口区兰田街33号,大连,无开发商,沙河口,20190514,38.926138912221084,121.56486022834609,辽师,42,11977,无物业管理服务,-,辽宁,11,二手房,1970
沙河口区西南路40号楼,大连,无开发商,沙河口,20190514,38.94143337232082,121.58616557598133,星海公园,48,12621,无物业管理服务,0.5,辽宁,15,二手房,1990
中山区解放路604号,大连,无开发商,西岗,20190514,38.89026319122045,121.66407876092346,桃源小学,24,15216,无物业管理服务,-,辽宁,10,二手房,1990
西岗区平等街21号1层2号,大连,暂无信息,西岗,20190514,38.92251066253164,121.63236845125735,实验小学英华街,87,21301,无物业管理服务,0.6,辽宁,11,二手房,1989
沙河口区恒利园42号-8,大连,大连新华房屋开发有限公司,沙河口,20190514,38.93357562498634,121.57914091532649,新华同仁轩,40,17285,大连新华物业管理有限公司,0.6,辽宁,10,二手房,2000
沙河口区锦霞南园13号4单元1层3号,大连,大连锦绣房地产开发有限公司,沙河口,20190514,38.947634390493555,121.5510543155904,锦华中园,60,12151,大连锦绣物业管理有限公司,0.5,辽宁,11,二手房,2001
沙河口区富民路120号4-1-1,大连,大连渤海红旗集团有限公司,沙河口,20190514,38.930937859528605,121.5647274237578,马栏小学南,52,10891,大连辽南物业管理有限公司,0.2,辽宁,11,二手房,1995
沙河口区西南路851号3单元1层3号,大连,无开发商,沙河口,20190514,38.94344210837944,121.58246796944378,李家街,26,11382,无物业管理服务,0.1,辽宁,11,二手房,1985
甘井子区泉水H3区15号3单元1层2号,大连,大连新型房地产开发有限公司,甘井子,20190514,39.00158439075201,121.62616882572375,龙畔金泉四期,71,13131,大连新型物业管理有限公司,0.4,辽宁,11,二手房,2005
无门店信息,大连,大连聚达房地产开发有限公司,旅顺口,20190514,34.52713835999158,118.76812980670795,海尚明珠,154,9903,大连合生物业管理有限公司,1.5,辽宁,11,二手房,2016
沙河口区锦石路8号,大连,大连锦绣房地产开发有限公司,沙河口,20190514,38.94771288948481,121.56110903658733,锦泉南园,56,11412,大连锦绣物业管理有限公司,0.3,辽宁,11,二手房,1996
沙河口区五一路219-1,大连,大连亿达房地产股份有限公司,沙河口,20190514,38.913544290955585,121.59450670056631,桃山小区,77,9878,街道办事处（居委会）代管物业,0.5,辽宁,11,二手房,1998
甘井子区泉水D1区37-7号,大连,大连运腾房地产开发有限公司,甘井子,20190514,39.013992871679214,121.61921940045104,锦泉源D3区,61,12378,大连南虹物业管理有限公司,0.5,辽宁,11,二手房,2007
甘井子区锦城西园4#3-1-1,大连,大连锦绣房地产开发有限公司,沙河口,20190514,38.95286223185571,121.55129044777,锦霞北园,114,11802,大连锦绣物业管理有限公司,0.3,辽宁,12,二手房,1998
金州区凤翔路220号,大连,大连润景房地产开发有限公司,金州,20190514,39.08410553937731,121.77700083356399,恒盛阳光美麓,170,9586,沈阳阳光鑫地物业管理有限公司大连分公司,1.6,辽宁,11,二手房,2011
开发区安盛里5栋-4,大连,大连盛铭资产管理有限公司,开发区,20190514,23.112106678834838,113.27801046214822,安盛花园,78,9176,大连经济技术开发区海青物业有限公司,1.1,辽宁,12,二手房,2003
大连市甘井子区七贤路8-3号,大连,大连万达商业地产有限公司,高新园区,20190514,38.86602612116956,121.53842265737707,万达海景公寓,122,11953,大连万达物业管理有限公司,2.9,辽宁,12,二手房,2013
高新园区火炬路18号,大连,大连海脉房地产开发有限公司,高新园区,20190514,38.937738080520404,117.39340752036043,MINI印象,135,15191,大连豪斯威物业管理有限公司,2.2,辽宁,12,二手房,2012
开发区润海园中区30-1,大连,华润（大连）房地产有限公司,开发区,20190514,39.04047273176333,121.76392358042445,华润海中国三期,161,14345,华润物业（大连）有限公司,3.1,辽宁,12,二手房,2011
开发区安盛里5栋-4,大连,大连汽贸房屋开发有限公司,开发区,20190514,23.112106678834838,113.27801046214822,东北明珠,61,12217,大连汽贸物业管理有限公司,1.5,辽宁,10,二手房,2007
沙河口区南沙街36号台二2号1-1-37,大连,无开发商,沙河口,20190514,38.90741410359388,121.57685699961822,南沙,79,11120,无物业管理服务,1,辽宁,12,二手房,1995
金州区先进街道陶然居公建2-2号1层,大连,大连金信集团房地产有限公司,金州,20190514,39.08283372756215,121.76170982507143,金信陶然居,66,9340,北京瑞思特物业管理有限公司,0.5,辽宁,9,二手房,2007
经济技术开发区城润万家4-5号公建,大连,大连山河永好置业有限公司,开发区,20190514,39.05716325096989,121.75946281983826,山河秀景,50,9805,大连山河物业管理有限公司,1.5,辽宁,9,二手房,2010
金州区金润小区B区861单元102,大连,大连中连房地产开发有限公司,金州,20190514,39.10615165380565,121.74639264534615,自然天城B区,67,7197,大连新生活物业管理有限公司,0.4,辽宁,9,二手房,2010
金州区金润花园B区47号1单元1层1号2号,大连,暂无信息,金州,20190514,39.10434716151341,121.74517862677146,民馨小区,82,7038,无物业管理服务,0.3,辽宁,9,二手房,2008
甘井子区红旗中路143号1层4号,大连,大连保利红旗房地产开发有限公司,甘井子,20190514,38.93169566676921,121.5426632438217,保利西山林语,78,20270,保利物业服务有限公司,1.5,辽宁,9,二手房,2014
大连市金州新区中长街道碧海尚城5-4号1-2层,大连,无开发商,金州,20190514,39.100290954587514,121.7304796052032,碧海尚城,122,8153,街道办事处（居委会）代管物业,0.8,辽宁,9,二手房,2007
沙河口区中山路417A-4号,大连,大连海孚房地产开发有限公司,沙河口,20190514,38.90740323140171,121.59484801084653,华业玫瑰东方,78,26610,深圳华业物业管理有限公司大连分公司,3.5,辽宁,9,二手房,2011
沙河口区联合路133号,大连,无开发商,沙河口,20190514,38.91608561262676,121.60480987310456,79中永平,100,26860,无物业管理服务,-,辽宁,9,二手房,1994
开发区红梅小区19栋-2-1-1号,大连,香港北海集团,开发区,20190514,29.906498897603264,121.5913630631805,君悦豪庭,50,11064,街道办事处（居委会）代管物业,1.2,辽宁,9,二手房,2004
高新园区黄浦路901S号1单元1层3号,大连,大连海创房地产开发有限公司,高新园区,20190514,38.85845801548294,121.51687109601923,谷歌里,40,14728,大连海创物业管理有限公司,1.2,辽宁,9,二手房,2009
大连市沙河口区文萃街1号1-2-2；大连市沙河口区由家五小区五号楼1单元2层1,大连,大连理工科技城建设开发有限公司,高新园区,20190514,38.88596852074166,121.54389553303217,文萃轩小区,36,17082,大连理工物业管理中心,0.2,辽宁,9,二手房,1990
开发区杏树里10栋-14,大连,无开发商,开发区,20190514,39.08113818354046,121.78505742127606,松苑山庄,78,5789,大连市金州区先进物业管理中心,0.5,辽宁,9,二手房,1999
甘井子区促进路200号,大连,大连航宇房屋开发有限公司,甘井子,20190514,38.95810188892782,121.58530036264898,促进小区,26,11953,大连顺达物业服务有限公司,0.2,辽宁,9,二手房,1997
大连市高新园区软件园路1A-3号,大连,亿达房地产开发有限公司,高新园区,20190514,38.89360013642285,121.54653763548625,软件园小区,54,14778,业主自筹物业,0.2,辽宁,9,二手房,1995
沙河口区长江路946号-9,大连,大连机车商业城有限公司,沙河口,20190514,38.913544290955585,121.59450670056631,兴工街,74,12713,街道办事处（居委会）代管物业,0.2,辽宁,10,二手房,1985
甘井子金地艺境博艺西园2-1号,大连,暂无信息,甘井子,20190514,39.04402110608829,121.665484498555,欣家园二期,16,9186,街道办事处（居委会）代管物业,0.5,辽宁,10,二手房,2000
甘井子金地艺境博艺西园2-1号,大连,大连恒昇房地产开发有限公司,甘井子,20190514,39.04402110608829,121.665484498555,福佳新城一期,59,9174,暂无信息,1.6,辽宁,10,二手房,2010
甘井子区山东路315号14栋1单元1跃2层13号,大连,华润置地（大连）开发有限公司,甘井子,20190514,39.00206212579579,121.59357231641214,华润置地广场一期,53,19902,华润物业（大连）有限公司,2.8,辽宁,10,二手房,2013
甘井子区红旗西路104-23,大连,大连万科房地产开发有限公司,甘井子,20190514,38.94013845868325,121.5282577714263,万科假日风景,70,16863,大连万科物业服务有限公司,1,辽宁,10,二手房,2007
甘井子区千山路66号楼2单元1楼2号,大连,大连宜和房地产开发有限公司,甘井子,20190514,38.985716774397915,121.58287796391829,盛世闲庭,58,15126,大连衡德物业管理有限公司,0.5,辽宁,10,二手房,2003
沙河口区红凌路137号,大连,大连大实企业集团房屋开发有限公司,甘井子,20190514,38.922699288974506,121.54713601744747,叠翠山庄,33,10996,大连弘实物业管理有限公司,0.4,辽宁,10,二手房,2000
金州新区站前街道生辉第一城5号楼1-2层4号,大连,大连新希望家园房地产有限公司,金州,20190514,39.05819721414208,121.74650438736514,新希望乐城,66,10216,大连新希望物业服务有限公司,1.6,辽宁,10,二手房,2013
大连市经济技术开发区东城园98-14,大连,大连金湾实业有限公司,开发区,20190514,39.06925526014871,121.8505146710752,裕民新苑,46,8300,大连金湾物业管理有限公司,0.3,辽宁,10,二手房,2006
沙河口区南沙街36号台二2号1-1-37,大连,大连康加立置业有限公司,沙河口,20190514,38.90741410359388,121.57685699961822,台四小区,38,13067,大连弘达物业管理有限公司,-,辽宁,8,二手房,1996
沙河口区西南路161号,大连,无开发商,沙河口,20190514,38.89269676588945,121.56639953951542,孙家沟,76,12187,无物业管理服务,-,辽宁,8,二手房,1990
甘井子区柳树南街45-10号,大连,中体产业集团大连乐百年置业有限公司,甘井子,20190514,38.92567666296449,121.4841330254372,中体奥林匹克花园,71,13547,广东中奥物业有限公司大连分公司,1.9,辽宁,8,二手房,2010
中山区碧浪园4号-3号,大连,大连万达房地产开发有限公司,中山,20190514,38.89147289460474,121.69329560326236,虎滩路,45,12626,大连虎滩置业物业管理有限公司,0.2,辽宁,8,二手房,1995
金州新区先进街道五一路350-1号1-2层,大连,大连市金州区育才房地产开发有限公司,金州,20190514,39.078667146419825,121.77094423323935,康居小区,54,7625,街道办事处（居委会）代管物业,-,辽宁,8,二手房,1998
大连市甘井子区钻石湾和信园13-5,大连,远洋地产有限公司,甘井子,20190514,38.958699272665584,121.61903564217761,远洋钻石湾三期,68,21040,远洋亿家物业服务股份有限公司大连分公司,1.5,辽宁,8,二手房,2014
中山区共建巷61号,大连,无开发商,中山,20190514,38.91828093658718,121.66259221532148,39中共建巷,31,26864,街道办事处（居委会）代管物业,0.5,辽宁,8,二手房,1990
沙河口区锦石路8号,大连,大连锦绣房地产开发有限公司,沙河口,20190514,38.94771288948481,121.56110903658733,锦云中园,73,10608,大连锦绣物业管理有限公司,0.3,辽宁,8,二手房,1996
沙河口区绿波路34号楼5单元1楼3号,大连,大连东北房屋开发有限公司,沙河口,20190514,38.94049893962156,121.57316620632874,帝欧花园,32,17402,大连绿波建设发展有限公司,0.6,辽宁,8,二手房,2005
西岗区黄河路90号公建部分,大连,大连鼎森房地产开发有限公司,西岗,20190514,38.92234529815978,121.62829331825485,金宸国际,48,17284,英联华（香港）物业管理顾问有限公司,2.2,辽宁,8,二手房,2004
甘井子区虹韵路114号,大连,大连亿达美加房地产开发有限公司,甘井子,20190514,38.95653310483457,121.5329869995972,第五郡五号地,84,27478,亿达物业管理有限公司,2,辽宁,8,二手房,2009
沙河口区富国街14号1-1-2,大连,大连永辉房地产开发有限公司,沙河口,20190514,38.901027106600836,121.59047734850638,百年汇,110,18524,大连百年城物业管理有限公司,2.8,辽宁,8,二手房,2007
大连市开发区左岸经典正恒园1-17,大连,大连众益神州地产开发有限公司,开发区,20190514,39.049057070649155,121.76187404250511,万国宫馆三期,119,14218,大连万佳物业管理有限公司,2,辽宁,8,二手房,2011
沙河口区绿清街12号,大连,大连绿波房屋开发集团有限公司,沙河口,20190514,38.93851335419565,121.57334844377094,绿波花园,26,13099,大连绿波建设发展有限公司,0.6,辽宁,8,二手房,2001
沙河口区锦江园30号1层公建,大连,大连锦绣房地产开发有限公司,沙河口,20190514,38.949985113183935,121.56560955976859,锦江园,88,10428,大连锦绣物业管理有限公司,0.3,辽宁,9,二手房,1983
金州新区先进街道渤海街7-4号1-2层、7-3号1-2层,大连,大连九鼎置地有限公司,金州,20190514,39.09342713035472,121.74590886291374,万科城,90,11082,大连万科物业服务有限公司,2.2,辽宁,9,二手房,2015
沙河口区星海广场B3区20—3号,大连,大连亿达房地产股份有限公司,沙河口,20190514,38.88782715536473,121.5869168319735,亿达杰特,113,19653,亿达物业管理有限公司,3.8,辽宁,9,二手房,2005
甘井子区千山路26号,大连,大连市大钢集团,甘井子,20190514,38.985697948031984,121.58768860037272,山东路,81,12663,街道办事处（居委会）代管物业,0.2,辽宁,9,二手房,1986
无门店信息,大连,大连乐启房地产开发有限公司,甘井子,20190514,34.52713835999158,118.76812980670795,三寰融创城,111,13073,融创物业,2.2,辽宁,9,二手房,2015
大连市沙河口区黄河路729号,大连,无开发商,沙河口,20190514,38.91710565765228,121.58954758972729,南昌平小区,51,12807,街道办事处（居委会）代管物业,0.8,辽宁,7,二手房,1986
大连市甘井子区辛如街35号1单元1层1号,大连,大连新星房地产开发有限公司,甘井子,20190514,38.96862607066881,121.52294869064194,新星绿城五期,67,13965,大连生生物业有限公司,0.8,辽宁,7,二手房,2009
沙河口区兰田街33号,大连,无开发商,沙河口,20190514,38.926138912221084,121.56486022834609,马栏广场东,18,11080,大连辽南物业管理有限公司,0.2,辽宁,7,二手房,1995
开发区鹏程家园66#-6、66#-7公建,大连,大连新天润企业集团有限公司,开发区,20190514,37.92440451755906,112.59861436589645,水御兰庭,38,9820,大连港力物业管理有限公司,1.1,辽宁,7,二手房,2007
无门店信息,大连,大连中海新城置业有限公司,甘井子,20190514,34.52713835999158,118.76812980670795,中海凤凰熙岸,62,13687,大连中海物业管理有限公司,2.3,辽宁,7,二手房,2016
甘井子区金北路17号,大连,无开发商,甘井子,20190514,38.97553393692831,121.59969720502335,76中学桥北,79,18124,无物业管理服务,-,辽宁,8,二手房,1970
沙河口区富静街26号1单元1层5号,大连,大连正源房地产开发有限公司,沙河口,20190514,38.908727606250466,121.58667844684369,幸福e家五期,185,37935,大连正源物业服务有限公司,1.8,辽宁,8,二手房,2008
金州区南棉路310号,大连,无开发商,金州,20190514,39.09939229372624,121.72414976100345,南棉小区,160,7139,街道办事处（居委会）代管物业,0.5,辽宁,8,二手房,1990
金州区先进街道渤海街1-4号1-2层,大连,无开发商,金州,20190514,39.09512910553563,121.74578812616167,金元小区,57,7084,街道办事处（居委会）代管物业,0.1,辽宁,8,二手房,1993
开发区黄海西路54号,大连,中国铁路十三局,开发区,20190514,39.047714586087785,121.76688238228269,翠竹小区,113,7773,大连经济技术开发区中强物业管理有限公司,0.3,辽宁,8,二手房,1996
无门店信息,大连,大连金地房地产开发有限公司,金州,20190514,34.52713835999158,118.76812980670795,金地新里程,41,6790,大连金铭物业管理有限公司,0.8,辽宁,7,二手房,2008
大连市金州新区中长街道碧海尚城5-4号1-2层,大连,大连集品置业有限公司,金州,20190514,39.100290954587514,121.7304796052032,东林世家,45,14972,大连百安物业管理有限公司,1,辽宁,8,二手房,2008
中山区华乐街107-115号,大连,大连华顺房地产开发公司,中山,20190514,38.92093821499401,121.68879267531725,海景园,66,15694,大连华富物业管理有限公司,0.3,辽宁,8,二手房,1997
甘井子区泉水K2区1号-7,大连,大连新型房地产开发有限公司,甘井子,20190514,39.01148211821007,121.63131997900962,龙畔金泉五期K4区,132,12363,大连新兴物业管理有限公司,0.5,辽宁,8,二手房,2008
甘井子区虹城路503号1-1号,大连,大连新星房地产开发有限公司,甘井子,20190514,38.981193588625004,121.49964051837122,艾维尼小城,83,15488,大连生生物业有限公司,1.8,辽宁,8,二手房,2010
开发区兴城路29-81层,大连,大连兆佳房地产开发有限公司,开发区,20190514,39.050214252167194,121.75835946441768,自由向,54,13977,大连华安物业管理有限公司,2.4,辽宁,8,二手房,2008
甘井子区金家街17-7号,大连,暂无信息,甘井子,20190514,38.97493697764367,121.60110987128529,金二街,45,19548,无物业管理服务,-,辽宁,7,二手房,1970
金州区胜利西小区44号楼,大连,大连金宸集团,金州,20190514,39.10507689383061,121.71536524220103,连大文润金宸一二期,51,10330,大连四通物业管理有限公司,0.9,辽宁,8,二手房,2010
开发区润海园中区65-7号1-2号,大连,华润（大连）房地产有限公司,开发区,20190514,39.04047273176333,121.76392358042445,华润海中国五期,102,14651,华润物业（大连）有限公司,3.1,辽宁,7,二手房,2015
中山区华乐街107-115号1单元1层2号,大连,大连海昌房地产开发有限公司,中山,20190514,38.92093821499401,121.68879267531725,海昌欣城,88,16903,大连海昌欣城物业管理有限公司,1.2,辽宁,7,二手房,2002
大连市甘井子区椒房街24号楼2-104链家地产,大连,无开发商,甘井子,20190514,38.985363789837166,121.61034055597686,椒房,90,13738,无物业管理服务,0.5,辽宁,7,二手房,1985
开发区高新里6栋-8,大连,无开发商,开发区,20190514,39.0710895068195,121.82860134358343,高民里,63,6624,街道办事处（居委会）代管物业,0.2,辽宁,7,二手房,1996
沙河口区红旗东路18-22号2单元1楼3号,大连,大连渤海红旗集团有限公司,甘井子,20190514,38.913544290955585,121.59450670056631,红旗东路,45,11912,渤海吉祥物业管理有限公司,0.4,辽宁,7,二手房,1992
开发区润海园中区18#2号,大连,华润（大连）房地产有限公司,开发区,20190514,39.04047273176333,121.76392358042445,华润海中国六期,59,14561,华润物业（大连）有限公司,3.1,辽宁,7,二手房,2016
沙河口区西南路643号,大连,大连泰安房地产开发有限公司,沙河口,20190514,38.943483429804665,121.5833555851182,幸福小区(沙河口),32,12302,大连三宝物业发展有限公司,0.3,辽宁,7,二手房,1998
沙河口区红旗东路18-22号2单元1楼3号,大连,大连益嘉房屋开发有限公司,沙河口,20190514,38.913544290955585,121.59450670056631,益嘉广场,48,17003,大连益嘉物业管理有限公司,1.8,辽宁,7,二手房,2012
甘井子区红旗西路104-7,大连,大连盛达基业房地产开发有限公司,甘井子,20190514,38.940335495502666,121.52722586363274,依山云水,22,14572,大连盛新物业管理有限公司,0.4,辽宁,7,二手房,2004
开发区润海园中区30-1,大连,华润置地（大连）开发有限公司,开发区,20190514,39.04047273176333,121.76392358042445,华润海中国一期,151,16226,华润物业（大连）有限公司,1.8,辽宁,7,二手房,2009
甘井子区泉水H3区15号3单元1层2号,大连,大连新型房地产开发有限公司,甘井子,20190514,39.00158439075201,121.62616882572375,龙畔金泉二期,79,12769,大连新型物业管理有限公司,0.5,辽宁,7,二手房,2004
甘井子区华龙南园12-4-3-1-3,大连,大连鹏德房屋开发有限公司,甘井子,20190514,38.98528794231248,121.61028969481718,乐活源,70,12914,大连三和住邦物业管理有限公司,0.5,辽宁,7,二手房,2009
甘井子区华龙南园12-4-3-1-3,大连,大连长鹭房屋开发有限公司,甘井子,20190514,38.98528794231248,121.61028969481718,晶品枫林,49,13685,北京房修一物业管理有限公司,0.5,辽宁,7,二手房,2008
高新园区硅谷假日小区25号楼地下室,大连,大连志恒房地产开发有限公司,高新园区,20190514,38.86467854992112,121.53720784613759,菁英汇,54,15605,大连海创物业管理有限公司,1.2,辽宁,7,二手房,2007
沙河口区锦霞南园13号3-1-1,大连,大连锦绣房地产开发有限公司,沙河口,20190514,38.94761264366187,121.55126272246873,锦霞南园,44,11011,大连锦绣物业管理有限公司,0.3,辽宁,7,二手房,1998
甘井子区甘井子路32号楼1单元1楼9号,大连,无开发商,甘井子,20190514,38.982488275116516,121.63345389253514,松江小区,39,10070,街道办事处（居委会）代管物业,0.5,辽宁,7,二手房,1995
甘井子区千山路26号,大连,大连嘉兴房地产开发有限公司,甘井子,20190514,38.985697948031984,121.58768860037272,千山路,67,12053,无物业管理服务,0.5,辽宁,7,二手房,1989
沙河口区恒利园42号-8,大连,大连新型房地产开发有限公司,沙河口,20190514,38.93357562498634,121.57914091532649,中铁十三局,17,13191,大连新兴物业管理有限公司,0.3,辽宁,7,二手房,1993
无门店信息,大连,大连鼎新房地产开发有限公司,甘井子,20190514,34.52713835999158,118.76812980670795,鼎新鼎润府,27,19919,大连鼎新物业管理有限公司,0.6,辽宁,7,二手房,2006
开发区黄海西路54号,大连,大连凯伦房地产开发股份有限公司,开发区,20190514,39.047714586087785,121.76688238228269,凯伦凯悦,109,8695,大连凯悦物业管理有限公司,3.1,辽宁,7,二手房,2008
开发区安盛里5栋-4,大连,大连华宇房地产开发有限公司,开发区,20190514,23.112106678834838,113.27801046214822,叠翠花香,28,9225,大连经济技术开发区永嘉物业管理有限公司,0.5,辽宁,6,二手房,2000
金州区同济路44号,大连,大连阿尔滨中辰置业有限公司,金州,20190514,39.10476859984152,121.71234684495865,瀛海金洲,94,8444,大连阿尔滨汇城物业服务有限公司,0.5,辽宁,6,二手房,2011
无门店信息,大连,大连经开万达广场投资有限公司,开发区,20190514,34.52713835999158,118.76812980670795,大连开发区万达广场,118,9209,大连万达物业管理有限公司,2.5,辽宁,6,二手房,2015
沙河口区华北路448号楼1-4公建,大连,无开发商,甘井子,20190514,38.903224944733765,121.56809734950556,周山街,20,16382,街道办事处（居委会）代管物业,0.5,辽宁,6,二手房,1989
开发区红星海B区212-1,大连,远洋地产有限公司,开发区,20190514,39.027851194371685,121.80327394132297,红星海时光的岸,72,13549,大连远洋基业物业管理有限公司,2.2,辽宁,6,二手房,2015
沙河口区绿清街12号,大连,大连中海新城置业有限公司,沙河口,20190514,38.93851335419565,121.57334844377094,中海英伦观邸,55,23080,大连中海物业管理有限公司,1.8,辽宁,6,二手房,2009
西岗区长红街4号1号公建,大连,无开发商,西岗,20190514,38.91377414665191,121.6302525225721,34中林荫巷,10,26532,无物业管理服务,-,辽宁,6,二手房,1997
开发区高新里6栋-8,大连,无开发商,开发区,20190514,39.0710895068195,121.82860134358343,高志里小区,42,6564,街道办事处（居委会）代管物业,0.3,辽宁,6,二手房,1993
甘井子区泉水B5区27-9,大连,大连运达房地产集团有限公司,甘井子,20190514,39.01477152073682,121.60970286326823,锦泉源B5区,66,12733,政治物业管理有限公司,0.1,辽宁,6,二手房,1999
甘井子区哲林北园17-6号,大连,大连恒德房屋开发有限公司,甘井子,20190514,38.9600267109581,121.53876726228256,恒德橄榄季,60,21809,大连恒德物业服务有限公司,1.4,辽宁,6,二手房,2009
甘井子区西南路979-7号公建,大连,大连祥盛房屋开发有限公司,甘井子,20190514,38.96275592929325,121.5958698791777,金盛家园,49,17078,大连宏华物业管理有限公司,0.5,辽宁,6,二手房,2001
甘井子区山东路315号14栋1单元1跃2层13号,大连,华润置地（大连）有限公司,甘井子,20190514,39.00206212579579,121.59357231641214,华润置地广场二期,56,20474,华润物业（大连）有限公司,2.9,辽宁,6,二手房,2013
开发区湾里南12栋-16-17-18号,大连,无开发商,开发区,20190514,39.070782084451,121.8506739675913,东城国际,46,8626,大连乾豪物业管理有限公司,1,辽宁,6,二手房,2006
甘井子区虹港路16号楼1层公建,大连,无开发商,甘井子,20190514,38.9645939333502,121.553851837474,迎客路（机场商圈）,28,11845,街道办事处（居委会）代管物业,0.2,辽宁,6,二手房,1990
沙河口区恒利园42号-8,大连,大连天河房地产开发集团有限公司,沙河口,20190514,38.93357562498634,121.57914091532649,天河新苑,37,13013,大连天河物业管理有限公司,0.4,辽宁,6,二手房,2000
大连市甘井子区融田西园52-11,大连,大连圣安房地产开发有限公司,甘井子,20190514,38.95800216293212,121.53151895549547,亿达春田晴湾,73,17255,亿达物业管理有限公司,2.2,辽宁,6,二手房,2013
中山区爱华街13号,大连,无开发商,中山,20190514,38.92541607518685,121.6535728031028,39中安阳街,36,26051,无物业管理服务,-,辽宁,5,二手房,1990
沙河口区西南路161号,大连,无开发商,沙河口,20190514,38.89269676588945,121.56639953951542,大医物业,6,13028,街道办事处（居委会）代管物业,0.5,辽宁,5,二手房,1990
大连市开发区裕民新苑42-7,大连,无开发商,开发区,20190514,39.070771020021674,121.85093056856022,澳东世纪,28,11476,街道办事处（居委会）代管物业,0.5,辽宁,5,二手房,2002
无门店信息,大连,大连世茂嘉年华置业有限公司,金州,20190514,34.52713835999158,118.76812980670795,世茂御龙海湾,243,11475,经纬物业(中国)有限公司,2,辽宁,6,二手房,2014
经济技术开发区城润万家62-8公建,大连,大连海汇房地产开发有限公司,开发区,20190514,39.06883436780937,117.72669530355309,正源吉祥e家祥福园,57,11399,大连正源物业服务有限公司,1.5,辽宁,6,二手房,2015
中山区中南路226号,大连,大连亿泰房屋开发有限公司,中山,20190514,38.90029610333926,121.68178899957817,亿泰庄园,14,14837,大连远洋基业物业管理有限公司,0.7,辽宁,5,二手房,1999
金州新区润海园中区18#2号,大连,华润置地（大连）有限公司,开发区,20190514,39.04047273176333,121.76392358042445,华润海中国二期,154,14297,华润物业（大连）有限公司,2.8,辽宁,6,二手房,2011
君悦晟景,大连,-,甘井子,20190514,38.91364837532266,121.53731203789877,君悦晟景,22,12414,-,-,辽宁,6,二手房,-
甘井子区山东路398号,大连,大连盛铭资产管理有限公司,甘井子,20190514,38.99821826443242,121.59274974973462,亿合城,73,18418,大连盛安物业管理有限公司,1.5,辽宁,6,二手房,2013
体育场小区,大连,-,金州,20190514,39.1035878192167,121.72943802086267,体育场小区,70,7232,-,-,辽宁,6,二手房,-
中山区武昌街武昌公寓6号公建,大连,无开发商,中山,20190514,38.912280913445784,121.64921130527547,宪立巷,20,9850,无物业管理服务,-,辽宁,6,二手房,1988
高新园敬贤街23-11号,大连,中海东丰地产（大连）有限公司,高新园区,20190514,38.869456648212356,121.53023725049893,中海华庭,67,20293,大连中海物业管理有限公司,2,辽宁,6,二手房,2009
中山区解放路471-22号,大连,大连圣北开发有限公司,中山,20190514,38.901309943567504,121.65419095766659,亿达云集,97,19912,亿达物业管理有限公司,1.9,辽宁,6,二手房,2015
甘井子区华龙南园12-4-3-1-3,大连,大连瑞祥房地产开发有限公司,甘井子,20190514,38.98528794231248,121.61028969481718,今都小区,45,12006,大连泰安物业管理有限公司,0.2,辽宁,5,二手房,1996
沙河口区富民路120号4-1-1,大连,大连银地置业发展有限公司,沙河口,20190514,38.930937859528605,121.5647274237578,观山蝶恋花,36,14742,大连新展物业管理有限公司,1,辽宁,6,二手房,2011
金州区金湾路132-2号,大连,大连金新房地产开发有限公司,金州,20190514,39.10269111644727,121.72221060686516,金州福佳新天地广场,98,8360,大连福佳物业管理有限公司,1.8,辽宁,6,二手房,2011
无门店信息,大连,大连宏港房地产开发有限公司,开发区,20190514,34.52713835999158,118.76812980670795,港湾观海,65,8653,大连宏港物业管理有限公司,0.5,辽宁,6,二手房,2013
甘井子区玉丽街2号楼1单元4号公建,大连,大连新型房地产开发有限公司,甘井子,20190514,38.98705071699301,121.55513043130172,泡崖康居园,44,10207,大连新兴物业管理有限公司,0.5,辽宁,5,二手房,2000
开发区高新里6栋-8,大连,无开发商,开发区,20190514,39.0710895068195,121.82860134358343,怡海花园二期,15,7755,街道办事处（居委会）代管物业,0.2,辽宁,5,二手房,2002
甘井子区华北路花锦园28号23-3-1-2建筑物,大连,大连市中联房地产开发有限公司,甘井子,20190514,38.951627958411166,121.5739439799003,香周路（甘）,24,16660,街道办事处（居委会）代管物业,0.1,辽宁,5,二手房,1987
金州区同济路44号,大连,大连金宸集团,金州,20190514,39.10476859984152,121.71234684495865,连大文润金宸三期,60,11155,大连四通物业管理有限公司,1,辽宁,5,二手房,2010
中山区清溪南街11号,大连,大连锦绣房地产开发有限公司,中山,20190514,38.88919604283904,121.66466481004835,秀月广场,24,12271,无物业管理服务,0.5,辽宁,5,二手房,1994
金州区小平岛B组团4号楼3号商铺,大连,大连圣岛房地产开发有限公司,高新园区,20190514,39.05643299166072,121.78943558267059,小平岛海角七号,43,21278,大连凯尔富物业管理有限公司,1.7,辽宁,5,二手房,2011
无门店信息,大连,大连亿达房地产股份有限公司,旅顺口,20190514,34.52713835999158,118.76812980670795,亿达玉龙湾,57,9347,亿达物业管理有限公司,1.5,辽宁,5,二手房,2013
金州区南棉路310号,大连,大连金连房地产开发有限公司,金州,20190514,39.09939229372624,121.72414976100345,金连福地,29,7900,街道办事处（居委会）代管物业,0.5,辽宁,5,二手房,2010
中山区民运巷 47号1层2号,大连,无开发商,中山,20190514,38.905955122300846,121.64798148011702,民运巷,16,10887,无物业管理服务,-,辽宁,5,二手房,1996
沙河口区知心园10号公建,大连,大连软件园开发有限公司,高新园区,20190514,38.893977135945136,121.55667141994431,亿达国际新城,42,22510,亿达物业管理有限公司,1,辽宁,5,二手房,2004
甘井子区虹港路16号楼1层公建,大连,亿达房地产开发有限公司,甘井子,20190514,38.9645939333502,121.553851837474,虹港路（机场商圈）,36,12264,亿达物业管理有限公司,0.2,辽宁,5,二手房,1996
高新园区红凌路732-4号,大连,大华集团大连置业有限公司,高新园区,20190514,38.90204708664442,121.53244406374695,大华锦绣华城二期,44,25777,大连大华物业管理有限公司,2.5,辽宁,5,二手房,2013
甘井子区锦城东园1号3单元1层2号,大连,大连锦绣房地产开发有限公司,沙河口,20190514,38.952805477462775,121.55656194973994,锦城东园,41,17897,大连锦绣物业管理有限公司,0.6,辽宁,5,二手房,2006
无门店信息,大连,大连天启房地产开发有限公司,高新园区,20190514,34.52713835999158,118.76812980670795,百合IT家园,39,12648,大连亮泰安邦物业有限公司,0.6,辽宁,5,二手房,2008
无门店信息,大连,大连明和房地产开发有限公司,开发区,20190514,34.52713835999158,118.76812980670795,知语山园,31,10736,大连大众物业管理有限公司,1.3,辽宁,5,二手房,2012
无门店信息,大连,暂无信息,甘井子,20190514,34.52713835999158,118.76812980670795,亿达春田蝶园,59,17058,亿达物业管理有限公司,2.2,辽宁,5,二手房,2014
中山区碧浪园4号-3号,大连,无开发商,中山,20190514,38.89147289460474,121.69329560326236,碧海园,22,17921,大连远洋基业物业管理有限公司,0.5,辽宁,5,二手房,2000
甘井子区哲林北园17-6号,大连,大连科宏房屋开发有限公司,甘井子,20190514,38.9600267109581,121.53876726228256,虹港新居,24,13454,大连空港物业管理有限公司,0.4,辽宁,5,二手房,1996
沙河口区西南路643号,大连,无开发商,沙河口,20190514,38.943483429804665,121.5833555851182,恒达花园（沙河口）,13,11944,无物业管理服务,-,辽宁,5,二手房,1990
无门店信息,大连,大连运达房地产集团有限公司,甘井子,20190514,34.52713835999158,118.76812980670795,运达诺维溪谷一期,42,16531,大连运达物业有限公司,1.8,辽宁,5,二手房,2010
沙河口区五一路270-274号,大连,大连亿达房地产股份有限公司,高新园区,20190514,38.913544290955585,121.59450670056631,city one,19,14073,亿达物业管理有限公司,0.5,辽宁,5,二手房,2006
金州新区先进街道五一路350-1号1-2层,大连,大连中连房地产开发有限公司,金州,20190514,39.078667146419825,121.77094423323935,聚鑫小区二期,40,7755,大连新生活物业管理有限公司,0.5,辽宁,5,二手房,2008
沙河口区黄河路883号,大连,大连正源房地产开发有限公司,沙河口,20190514,38.919826721475204,121.57749657966676,幸福e家四期,66,33140,大连正源物业服务有限公司,1.2,辽宁,5,二手房,2007
开发区小孤山西里3栋-11号,大连,大连开建房地产开发有限公司,开发区,20190514,39.02715282297674,121.80682183666346,瑞仕尚城,53,11125,大连阿尔滨汇城物业服务有限公司,1.1,辽宁,5,二手房,2008
开发区小孤山西里3栋-11号,大连,大连九龙汇房地产开发有限公司,开发区,20190514,39.02715282297674,121.80682183666346,九龙汇,52,8835,大连宏亮红物业管理有限公司,1.9,辽宁,5,二手房,2009
中山区中南路店212号门头房,大连,无开发商,中山,20190514,38.91149759691359,121.67700561077149,中南路,61,12822,街道办事处（居委会）代管物业,-,辽宁,5,二手房,1989
沙河口区联合路133号,大连,大连新型房地产开发有限公司,沙河口,20190514,38.91608561262676,121.60480987310456,21中天兴花园一期,29,19742,大连万泰物业管理有限公司,0.5,辽宁,5,二手房,1998
开发区大开高吉里33栋6号,大连,大连开建集团有限公司,开发区,20190514,39.07355836059941,121.8280439450145,高城北花园,38,8905,大连经济技术开发区聚盛达物业管理有限公司,0.2,辽宁,5,二手房,1998
沙河口区红旗东路18-22号2单元1楼3号,大连,无开发商,甘井子,20190514,38.913544290955585,121.59450670056631,天泉山庄,18,12634,大连铁龙安居物业管理有限公司,0.5,辽宁,5,二手房,2000
沙河口区黑石礁街3号1层1-1号,大连,无开发商,沙河口,20190514,38.880058010307856,121.56313403908827,浪花街,42,11307,无物业管理服务,-,辽宁,5,二手房,1991
沙河口区前程街46号4—1—2号,大连,大连渤海红旗集团有限公司,甘井子,20190514,38.913544290955585,121.59450670056631,前程街,44,11821,渤海吉祥物业管理有限公司,0.4,辽宁,5,二手房,2000
甘井子区惠泽南园3-4号,大连,大连全统房地产开发有限公司,甘井子,20190514,38.939326611323615,121.52337842113351,全统西山丽水,16,14729,大连新华物业管理有限公司,0.5,辽宁,5,二手房,2008
甘井子辛吉街150号-7号,大连,大连金马房屋开发有限公司,甘井子,20190514,38.96368508446978,121.52671221254214,金马圣隆,26,13067,大连金马圣隆物业管理有限公司,0.5,辽宁,5,二手房,2006
沙河口区长江路738号,大连,无开发商,西岗,20190514,38.913544290955585,121.59450670056631,21中五一广场,24,20578,无物业管理服务,-,辽宁,5,二手房,1976
大连市甘井子区丰收路3-5号,大连,大连铁路房地产开发有限责任公司,甘井子,20190514,38.965377255081755,121.58288415324094,王家桥小区,22,12762,大连铁路物业管理有限公司,0.1,辽宁,5,二手房,1989
甘井子区促进路30号2-1-1,大连,福佳集团有限公司,甘井子,20190514,38.954133128707575,121.58355746311207,府佳名都,43,17948,大连富佳物业管理有限公司,0.5,辽宁,5,二手房,2002
甘井子区泉水B2区19-1号,大连,大连运达房地产集团有限公司,甘井子,20190514,39.0101309886317,121.60812584213187,锦泉源B1区,67,13264,大连佳泰物业管理有限公司,0.5,辽宁,5,二手房,2001
中山区安居巷7号,大连,大连锦联地产集团有限公司,中山,20190514,38.92451111549568,121.65154739366945,经典生活,33,8268,大连锦联物业管理有限公司,2.2,辽宁,5,二手房,2003
开发区东北三街94号1层,大连,大连同济房地产开发有限公司,开发区,20190514,39.05723508011585,121.80570768630555,新东方公寓三期,90,6623,大连同济物业管理有限公司,1.5,辽宁,5,二手房,2007
甘井子区西南路979-7号公建,大连,暂无信息,甘井子,20190514,38.96275592929325,121.5958698791777,八十中红咀街,132,15707,街道办事处（居委会）代管物业,0.2,辽宁,5,二手房,1988
中山区同心街72号1楼公建,大连,大连泰宸房地产开发有限责任公司,中山,20190514,38.91979245940674,121.64769198230202,伊景华园,64,26006,街道办事处（居委会）代管物业,2.2,辽宁,5,二手房,2006
开发区润海园中区30-1,大连,暂无信息,开发区,20190514,39.04047273176333,121.76392358042445,华润海中国七期,69,16698,华润物业（大连）有限公司开发区分公司,3.1,辽宁,5,二手房,2016
高新园区海苑街30号1单元1号公建,大连,大连大有文园房屋开发有限公司,高新园区,20190514,20.06392317589085,110.32302599457326,大有文园,61,17603,大连大有恬园物业管理有限公司,2,辽宁,5,二手房,2012
沙河口区前程街46号4—1—2号,大连,大连台安房屋开发有限公司开发,甘井子,20190514,38.913544290955585,121.59450670056631,彩虹园,38,10919,渤海吉祥物业管理有限公司,0.4,辽宁,5,二手房,2000
沙河口区黄河路562号,大连,大连新型房地产开发有限公司,沙河口,20190514,38.9167961764482,121.60352063132478,79中科学家公寓,48,21720,大连新兴物业管理有限公司,0.8,辽宁,5,二手房,1995
甘井子区华北路花锦园28号23-3-1-2建筑物,大连,大连东特房地产开发有限公司,甘井子,20190514,38.951627958411166,121.5739439799003,东特爱俪舍,38,15937,大连东特祥禾物业管理有限公司,0.6,辽宁,5,二手房,2004
沙河口区联合路133号,大连,大连万达房地产开发有限公司,沙河口,20190514,38.91608561262676,121.60480987310456,79中万泰花园,35,26748,大连万泰物业管理有限公司,0.8,辽宁,5,二手房,1998
无门店信息,大连,大连馨悦房地产开发有限公司,金州,20190514,34.52713835999158,118.76812980670795,悦泰山里,85,10251,大连百安物业管理有限公司,0.5,辽宁,5,二手房,2009
无门店信息,大连,开发区城建局,开发区,20190514,34.52713835999158,118.76812980670795,东居里,131,6904,大连经济技术开发区海青物业有限公司,0.2,辽宁,5,二手房,1996
开发区红星海B区212-1,大连,远洋地产有限公司,开发区,20190514,39.027851194371685,121.80327394132297,红星海五期岚谷,115,14112,大连远洋基业物业管理有限公司,2.2,辽宁,5,二手房,2012
无门店信息,大连,大连宏鼎房地产开发有限公司,旅顺口,20190514,34.52713835999158,118.76812980670795,国宝星月湾,60,11761,大连星海国宝物业管理有限公司,2.5,辽宁,5,二手房,2015
中山区金城街26号一楼,大连,无开发商,中山,20190514,38.922282529515634,121.65214466263014,九中洛川街,21,35430,无物业管理服务,-,辽宁,5,二手房,1995
甘井子区圣林南园3-3号,大连,大连广泰房屋开发有限公司,甘井子,20190514,38.95191781681833,121.54394961192217,美树日记,74,22384,大连华安物业管理有限公司,1.6,辽宁,5,二手房,2009
甘井子区红旗西路104-7,大连,大连盛华房地产开发有限公司,甘井子,20190514,38.940335495502666,121.52722586363274,水映西山,49,16312,大连长青物业管理中心,0.9,辽宁,5,二手房,2007
甘井子区金家街17-7号,大连,大连嘉兴房地产开发有限公司,甘井子,20190514,38.97493697764367,121.60110987128529,青林美地,41,21071,大连嘉盛物业管理有限公司,0.5,辽宁,4,二手房,2003
沙河口区前程街46号4—1—2号,大连,大连渤海红旗集团有限公司,甘井子,20190514,38.913544290955585,121.59450670056631,兰丰巷,16,10496,大连辽南物业管理有限公司,0.2,辽宁,5,二手房,1992
金州区站前街道盛滨花园B区13号楼2号公建,大连,大连建兴房屋开发有限公司,金州,20190514,39.09609011892329,121.7335816409767,建兴花园,41,7313,街道办事处（居委会）代管物业,0.5,辽宁,4,二手房,1999
甘井子区红旗中路143号1层4号,大连,大连红旗兴达房地产开发有限公司,甘井子,20190514,38.93169566676921,121.5426632438217,兴达福山居,26,14689,大连万泰物业管理有限公司,0.4,辽宁,5,二手房,2006
西岗区平等街21号1层2号,大连,无开发商,西岗,20190514,38.92251066253164,121.63236845125735,香榭里,47,10364,大连金地物业管理有限公司,3.6,辽宁,4,二手房,2010
开发区黄海西路201号107公建,大连,无开发商,开发区,20190514,39.04942604506828,121.80126318235419,自由港,45,6889,大连安洁物业管理服务有限公司,0.5,辽宁,4,二手房,2006
西岗区香炉礁24号1-1,大连,大连新型房地产开发有限公司,西岗,20190514,38.92047268927287,121.61862512554262,金海花园东园,26,12886,大连新兴物业管理有限公司,0.5,辽宁,4,二手房,2001
大连经济技术开发区同和里7栋-9号,大连,无开发商,开发区,20190514,39.04901984220615,121.7885236929847,新星里,44,7947,大连广谊物业管理有限公司,0.3,辽宁,4,二手房,2003
开发区黄海西路201号107公建,大连,中信开发商,开发区,20190514,39.04942604506828,121.80126318235419,金海里,64,7213,大连中信物业管理有限公司,0.1,辽宁,4,二手房,2000
沙河口区富国街14号1-1-2,大连,无开发商,沙河口,20190514,38.901027106600836,121.59047734850638,星云街,18,11219,无物业管理服务,-,辽宁,4,二手房,1995
沙河口区黑石礁街5号1层1号,大连,无开发商,沙河口,20190514,38.879813345473714,121.56313742300513,黑石礁,14,11868,无物业管理服务,-,辽宁,4,二手房,1990
甘井子区凌秀路37号-1链家地产,大连,大连九九集团有限公司,高新园区,20190514,38.883794285403965,121.52361997548515,文荟小区,5,12460,大连理工物业管理中心,0.5,辽宁,4,二手房,1994
开发区杏树里10栋-14,大连,大连华宇房地产开发有限公司,开发区,20190514,39.08113818354046,121.78505742127606,华宇凤凰城,71,8368,大连华宇物业管理有限公司,1,辽宁,4,二手房,2007
沙河口区民权街324号,大连,大连天河房地产开发集团有限公司,沙河口,20190514,38.92064616208148,121.59777611850379,民权小区,39,12599,大连福港物业管理有限公司,0.2,辽宁,4,二手房,1992
大连市沙河口区知邻街50号,大连,无开发商,沙河口,20190514,38.913544290955585,121.59450670056631,玉门街,18,11930,无物业管理服务,-,辽宁,4,二手房,1993
开发区景和园1-7,大连,开发区城建局,开发区,20190514,30.41892168817929,120.30896459202738,小孤山东里,87,6282,大连广谊物业管理有限公司,0.4,辽宁,4,二手房,2000
沙河口区黄埔路427号,大连,大连名仕房地产开发有限公司,高新园区,20190514,38.913544290955585,121.59450670056631,名仕乐居,17,20411,大连万祥物业管理有限公司,1.3,辽宁,4,二手房,2008
甘井子区虹港路391号第五幢1单元1跃2层3号,大连,大连加尔伦房地产开发有限公司,甘井子,20190514,38.96606635942528,121.53201387432493,万科金域华府,30,22048,大连万科物业服务有限公司,3,辽宁,4,二手房,2016
中山区中南路店212号门头房,大连,无开发商,中山,20190514,38.91149759691359,121.67700561077149,转山小区,15,12941,大连怡和物业服务有限公司,0.3,辽宁,4,二手房,1990
大连市高新园区软件园路1A-3号,大连,大连软景房地产开发有限公司,高新园区,20190514,38.89360013642285,121.54653763548625,亿达软景中心,16,22201,亿达物业管理有限公司,3.5,辽宁,4,二手房,2014
中山区高尚路28-1号,大连,无开发商,中山,20190514,38.892673425111305,121.67148833870213,高家沟,24,10617,大连景山物业管理有限公司,0.5,辽宁,4,二手房,1996
高新园区红凌路732-4号,大连,大连亿达房地产股份有限公司,高新园区,20190514,38.90204708664442,121.53244406374695,亿达峦翠园,36,20434,亿达物业管理有限公司,1.3,辽宁,4,二手房,2009
无门店信息,大连,大连亚联房地产开发有限公司,甘井子,20190514,34.52713835999158,118.76812980670795,翡翠春城,80,14611,大连亚联物业管理有限公司,1.6,辽宁,4,二手房,2012
沙河口区黑石礁街3号1层1-1号,大连,大连辰熙房地产开发有限公司,沙河口,20190514,38.880058010307856,121.56313403908827,辰熙星海国际,25,15738,大连世邦友好物业管理有限公司,2.2,辽宁,4,二手房,2006
金州区凤翔路220号,大连,大连德泰控股有限公司,金州,20190514,39.08410553937731,121.77700083356399,德泰岭秀逸城B区,80,10830,大连德泰物业管理有限公司,1.9,辽宁,4,二手房,2013
沙河口区西南路358号1—2号,大连,大连泰安房地产开发有限公司,沙河口,20190514,38.90839654326566,121.56908246905662,泰安花园,21,14951,大连三宝物业发展有限公司,0.5,辽宁,4,二手房,1998
大连经济技术开发区时代城4-3号1-2号,大连,远洋地产有限公司,开发区,20190514,39.0992481321252,121.83007860699459,远洋时代城四期,55,8738,大连远洋基业物业管理有限公司,1.5,辽宁,4,二手房,2012
西岗区九三街64号,大连,润德集团有限公司,西岗,20190514,38.92047268927287,121.61862512554262,润德广场,57,15442,大连润德物业管理有限公司,3.8,辽宁,4,二手房,2011
甘井子区祥龙街2号楼1单元1楼1号,大连,大连美辰房地产开发有限公司,甘井子,20190514,38.988045874482445,121.60439401971377,美辰香醒,53,15688,大连众和物业管理有限公司,1.4,辽宁,4,二手房,2012
开发区鹏程家园66#-6、66#-7公建,大连,大连神洲众益集团有限公司,开发区,20190514,37.92440451755906,112.59861436589645,众益阳光海岸,89,10539,大连万佳物业管理有限公司,1.2,辽宁,4,二手房,2005
中山区职工街96号1-3层公建,大连,大连嘉和房地产开发有限公司,中山,20190514,38.92565613737007,121.66193575790903,嘉和花样年华一期,72,20245,大连嘉和物业管理有限公司,3,辽宁,4,二手房,2003
沙河口区华北路404号,大连,暂无信息,沙河口,20190514,38.8862815932937,121.59082948696123,柳华街,23,11003,无物业管理服务,0.1,辽宁,4,二手房,1985
沙河口区锦石园24-7号第A2-13幢1单元1层1号,大连,大连锦绣房地产开发有限公司,沙河口,20190514,38.913544290955585,121.59450670056631,锦城园C区,30,15265,大连锦绣物业管理有限公司,0.6,辽宁,4,二手房,2006
甘井子区祥龙街2号楼1单元1楼1号,大连,大连世隆房地产开发有限公司,甘井子,20190514,38.988045874482445,121.60439401971377,玉树临居,19,13988,北京房修一物业管理有限公司,1.3,辽宁,4,二手房,2009
高新园区海苑街30号1单元1号公建,大连,大连大有房屋开发有限公司,高新园区,20190514,20.06392317589085,110.32302599457326,大有恬园二期,42,17523,大连家园物业有限公司,1.2,辽宁,4,二手房,2010
开发区大开高吉里33栋6号,大连,大连开建集团有限公司,开发区,20190514,39.07355836059941,121.8280439450145,高城花园,30,7664,嘉兴物业管理有限公司,0.2,辽宁,4,二手房,2002
西岗区八一路196号1-3,大连,无开发商,西岗,20190514,38.92047268927287,121.61862512554262,新泉巷,19,9391,无物业管理服务,-,辽宁,4,二手房,1990
开发区红梅小区19栋-2-1-1号,大连,大连开发区世元房地产开发有限公司,开发区,20190514,29.906498897603264,121.5913630631805,世元国际公寓,27,11023,大连世元物业管理有限公司,2,辽宁,4,二手房,2009
金州新区先进街道渤海街7-4号1-2层、7-3号1-2层,大连,大连金连房地产开发有限公司,金州,20190514,39.09342713035472,121.74590886291374,金纺馨公寓,23,6663,金州区物业管理有限公司,-,辽宁,4,二手房,2006
甘井子区山东路137号,大连,大连华南房地产开发有限公司,甘井子,20190514,38.99129404608926,121.59172125999353,名贵山庄青年公寓,6,14785,大连弘益达物业管理有限公司,0.5,辽宁,4,二手房,2004
沙河口区连山街10号2-1-2,大连,大连城市建设集团有限公司,沙河口,20190514,38.89637522563413,121.57143690983219,莱州街,27,10972,无物业管理服务,-,辽宁,4,二手房,1990
沙河口区红凌路137号,大连,大连大实企业集团房屋开发有限公司,甘井子,20190514,38.922699288974506,121.54713601744747,泊林阳光A区,17,13503,大连弘实物业管理有限公司,0.6,辽宁,4,二手房,2007
甘井子区金家街17-7号,大连,无开发商,甘井子,20190514,38.97493697764367,121.60110987128529,金二小学北,20,21224,无物业管理服务,-,辽宁,4,二手房,1970
中山区东港龙湖水晶郦湾7-102,大连,大连龙湖东港房地产有限公司,中山,20190514,38.924700620463895,121.70344398518496,龙湖水晶郦湾,73,28202,大连龙湖物业服务有限公司,4.5,辽宁,4,二手房,2015
金州区南棉路310号,大连,无开发商,金州,20190514,39.09939229372624,121.72414976100345,胜利小区,94,7958,无物业管理服务,0.5,辽宁,4,二手房,1986
中山区民运巷 47号1层2号,大连,无开发商,中山,20190514,38.905955122300846,121.64798148011702,西山巷,33,10514,无物业管理服务,0.3,辽宁,4,二手房,1992
开发区兴城路29-81层,大连,中合北大荒（大连）置业有限公司,开发区,20190514,39.050214252167194,121.75835946441768,银帆国际,45,12332,大连中合物业管理有限公司,2,辽宁,4,二手房,2015
甘井子区新兴路36号3-1-3,大连,大连新型房地产开发有限公司,甘井子,20190514,38.95800216293212,121.53151895549547,泡崖二区,93,10385,大连新兴物业管理有限公司,0.5,辽宁,4,二手房,1997
甘井子区鹏辉新世纪1幢1单元1-3号房屋（海口路99号）,大连,暂无信息,甘井子,20190514,38.96077365187575,121.60514653016222,鹏辉新世纪一期,9,17411,大连鹏辉物业管理有限公司,0.6,辽宁,4,二手房,2003
中山区民建街10号1单元1号,大连,无开发商,中山,20190514,38.925444479476894,121.66915026954452,39中顺阳街,35,20230,无物业管理服务,-,辽宁,4,二手房,1995
沙河口区锦石园24-7号第A2-13幢1单元1层1号,大连,大连鼎新美地置业有限公司,甘井子,20190514,38.913544290955585,121.59450670056631,鼎新鼎润四季,23,20225,大连中原物业代理有限公司,1.2,辽宁,4,二手房,2010
甘井子区促进路30号2-1-1,大连,大连天河房地产开发集团有限公司,甘井子,20190514,38.954133128707575,121.58355746311207,促进路,14,11931,无物业管理服务,0.1,辽宁,4,二手房,1982
西岗区八一路102号,大连,无开发商,西岗,20190514,38.92047268927287,121.61862512554262,杏环街,15,9699,无物业管理服务,-,辽宁,4,二手房,1994
沙河口区前程街46号4—1—2号,大连,大连渤海红旗集团有限公司,甘井子,20190514,38.913544290955585,121.59450670056631,里程巷,19,9152,大连台安物业管理中心,0.4,辽宁,4,二手房,1990
甘井子区美域盛景A2区10-6,大连,大连泉水园房屋开发有限公司,甘井子,20190514,39.006221362805846,121.61022278003976,骏腾名苑,78,13993,大连衡德物业管理有限公司,0.5,辽宁,4,二手房,2006
甘井子区泉水D1区37-7号,大连,大连运腾房地产开发有限公司,甘井子,20190514,39.013992871679214,121.61921940045104,锦泉源D4区,25,14081,大连嘉和物业管理有限公司,0.5,辽宁,4,二手房,2007
沙河口区富国街34-3,大连,无开发商,沙河口,20190514,38.90159716600704,121.58930603357904,星海街,31,12183,无物业管理服务,-,辽宁,4,二手房,1990
开发区安盛里5栋-4,大连,中房集团大连房地产有限公司,开发区,20190514,23.112106678834838,113.27801046214822,盛德嘉洲,10,13824,大连中鸣物业服务有限公司,1.8,辽宁,4,二手房,2009
中山区清溪南街11号,大连,无开发商,中山,20190514,38.88919604283904,121.66466481004835,桃仙小区,23,12832,街道办事处（居委会）代管物业,0.5,辽宁,4,二手房,1992
中山区高尚路28-1号,大连,无开发商,中山,20190514,38.892673425111305,121.67148833870213,高原街,26,10555,街道办事处（居委会）代管物业,0.5,辽宁,4,二手房,1996
中山区爱华街13号,大连,无开发商,中山,20190514,38.92541607518685,121.6535728031028,九中安乐街,41,36433,无物业管理服务,-,辽宁,4,二手房,1990
甘井子区虹城路503号1-1号,大连,大连易和房地产集团有限公司,甘井子,20190514,38.981193588625004,121.49964051837122,岭秀滨城悦和西园,28,14366,大连易兴物业服务有限公司,1.3,辽宁,4,二手房,2009
沙河口区兰田街33号,大连,无开发商,沙河口,20190514,38.926138912221084,121.56486022834609,兰玉街,21,12108,街道办事处（居委会）代管物业,0.4,辽宁,4,二手房,1990
沙河口区昌黎街77号楼第1层公建,大连,大连金新房地产开发有限公司,沙河口,20190514,38.91974518366595,121.5902918379551,福佳新天地,73,14390,大连福佳物业管理有限公司,1.8,辽宁,3,二手房,2003
沙河口区沙能街101号1单元1层1号,大连,大连政府城区改造办公室,沙河口,20190514,38.9366316275348,121.59031205759763,新居佳园,7,13019,大连大力物业管理有限公司,1.5,辽宁,3,二手房,2012
沙河口区五一路270-274号,大连,大连誉园房地产开发有限公司,高新园区,20190514,38.913544290955585,121.59450670056631,斯坦福院落,19,21187,第一太平戴维斯物业顾问（北京）有限公司大连分公司,1.2,辽宁,3,二手房,2008
中山区武昌街武昌公寓6号公建,大连,暂无信息,中山,20190514,38.912280913445784,121.64921130527547,学府林居,24,10454,暂无信息,1,辽宁,4,二手房,2000
西岗区黄河路362号公建,大连,大连万佳房地产开发有限公司,西岗,20190514,38.91819905243802,121.61365779430986,优豪斯,13,25712,大连万佳物业管理有限公司,1.6,辽宁,3,二手房,2003
甘井子区鹏辉新世纪1幢1单元1-3号房屋（海口路99号）,大连,暂无信息,甘井子,20190514,38.96077365187575,121.60514653016222,鹏辉新世纪三期北园,29,16505,大连鹏辉物业管理有限公司,0.6,辽宁,3,二手房,2003
大连市沙河口区西南路875号1层21号,大连,大连新型房地产开发有限公司,沙河口,20190514,38.94485969061231,121.58418648447764,春晖巷,4,10376,无物业管理服务,-,辽宁,3,二手房,1990
中山区益民街16号1层1号,大连,无开发商,中山,20190514,38.93092761298906,121.66470740073377,兴盛里（三八广场）,11,13283,无物业管理服务,-,辽宁,3,二手房,1993
大连市沙河口区西南路875号1层21号,大连,暂无信息,沙河口,20190514,38.94485969061231,121.58418648447764,凌云街,3,10944,无物业管理服务,-,辽宁,3,二手房,1999
中山区北斗街53号1层1号,大连,无开发商,中山,20190514,38.92727355733075,121.67002970974048,勤俭街（二七商圈）,4,11613,无物业管理服务,-,辽宁,3,二手房,1985
中山区东港龙湖水晶郦湾7-102,大连,大连金广地产集团有限公司,中山,20190514,38.924700620463895,121.70344398518496,金广东海岸,80,23506,大连金广物业有限公司,2.2,辽宁,4,二手房,2009
中山区高尚路28-1号,大连,无开发商,中山,20190514,38.892673425111305,121.67148833870213,高洁巷,26,11217,街道办事处（居委会）代管物业,0.5,辽宁,4,二手房,1993
甘井子区虹港路16号楼1层公建,大连,大连鑫奇房地产开发有限公司,甘井子,20190514,38.9645939333502,121.553851837474,鑫境界,86,11898,大连鑫境界物业管理有限公司,1.3,辽宁,4,二手房,2009
甘井子区玉丽街39号楼3号公建,大连,大连新型房地产开发有限公司,甘井子,20190514,38.98706755029984,121.55605471197089,玉浓街,43,10211,大连新兴物业管理有限公司,0.2,辽宁,4,二手房,2002
天河路173-2号 华润考拉22号公建,大连,大连世隆房地产开发有限公司,甘井子,20190514,23.14720645345518,113.3277414923158,桑尼小镇,19,15185,大连大家物业管理有限公司,1.9,辽宁,4,二手房,2014
甘井子区山东路127-2号,大连,大连市大钢集团,甘井子,20190514,38.99065559549029,121.59126483545545,苍山路,49,12709,街道办事处（居委会）代管物业,0.4,辽宁,4,二手房,1989
金州区南棉路310号,大连,无开发商,金州,20190514,39.09939229372624,121.72414976100345,劳动局小区,106,7929,无物业管理服务,0.1,辽宁,4,二手房,1990
金州区同济路44号,大连,大连金州金山房地产开发有限公司,金州,20190514,39.10476859984152,121.71234684495865,金山小区,100,7189,大连金山物业管理有限公司,-,辽宁,4,二手房,1999
甘井子区山东路商业街D区12号公建,大连,无开发商,甘井子,20190514,39.001060021502965,121.58883960371418,七绣路,21,11550,街道办事处（居委会）代管物业,0.5,辽宁,4,二手房,1996
甘井子区祥龙街2号楼1单元1楼1号,大连,大连市大钢集团,甘井子,20190514,38.988045874482445,121.60439401971377,华南沃尔玛六一路,21,10905,街道办事处（居委会）代管物业,0.5,辽宁,3,二手房,1990
沙河口区昌黎街22号,大连,大连城市建设集团有限公司,沙河口,20190514,38.91975785098891,121.59109628369768,天兴罗斯福,51,15870,大连天兴物业管理有限公司,1.6,辽宁,3,二手房,2004
大连市开发区湾里东5-6号,大连,大连明和房地产开发有限公司,开发区,20190514,39.07275772231556,121.85888789351343,青国青城,56,11277,大连豪斯沃克物业有限公司,1.5,辽宁,4,二手房,2014
金州区先进街道渤海街1-4号1-2层,大连,无开发商,金州,20190514,39.09512910553563,121.74578812616167,金星小区,24,7679,街道办事处（居委会）代管物业,0.1,辽宁,3,二手房,1993
中山区武昌街武昌公寓6号公建,大连,无开发商,中山,20190514,38.912280913445784,121.64921130527547,气象街,19,22004,街道办事处（居委会）代管物业,0.5,辽宁,4,二手房,1989
大连市甘井子区辛如街35号1单元1层1号,大连,大连新星房地产开发有限公司,甘井子,20190514,38.96862607066881,121.52294869064194,新星绿城六期,39,14708,大连生生物业管理有限公司,1,辽宁,3,二手房,2008
高新园区海苑街36号1单元2号公建,大连,大连鸿越房地产开发有限公司,高新园区,20190514,20.06392317589085,110.32302599457326,康桥小镇,24,20121,大连长青物业管理中心,1.3,辽宁,3,二手房,2010
甘井子区红旗中路143号1层4号,大连,大连红旗兴达房地产开发有限公司,甘井子,20190514,38.93169566676921,121.5426632438217,吉祥街,5,11169,大连金诚物业管理有限公司,0.2,辽宁,3,二手房,1996
沙河口区五一路219-1,大连,大连圣北房地产有限公司,沙河口,20190514,38.913544290955585,121.59450670056631,电业花园,10,14454,大连市沙河口房产物业管理有限公司,0.3,辽宁,3,二手房,1999
沙河口区西南路40号楼,大连,无开发商,沙河口,20190514,38.94143337232082,121.58616557598133,杭州街,17,12231,无物业管理服务,-,辽宁,3,二手房,1990
甘井子区知音园20号3单元1层1号,大连,大连诚信万奕房地产开发有限公司,高新园区,20190514,38.95800216293212,121.53151895549547,万奕学院派,22,27186,大连空港物业管理有限公司,1.2,辽宁,3,二手房,2010
沙河口区黄河路535号,大连,大连城市建设集团有限公司,沙河口,20190514,38.91773777159567,121.60217159922856,79中金光小区,43,25736,无物业管理服务,-,辽宁,3,二手房,1993
西岗区黄河路82号,大连,大连民兴房地产开发有限公司,西岗,20190514,38.92243503020161,121.6287927913896,前城国际二期,33,23318,大连前城花园物业管理有限公司,1.5,辽宁,3,二手房,2000
大连市甘井子区软件园路122号,大连,大连理工科技城建设开发有限公司,高新园区,20190514,38.89286578891647,121.53266600180116,理工园,14,13825,街道办事处（居委会）代管物业,1,辽宁,3,二手房,2000
沙河口区杨树街4-4号公建,大连,大连金弘基房地产开发有限公司,高新园区,20190514,38.88444587249751,121.55130620045541,弘基二期,31,22565,大连金弘基物业管理有限公司,0.6,辽宁,3,二手房,2003
高新园区黄浦路901S号1单元1层3号,大连,大连金真源集团房地产开发有限公司,高新园区,20190514,38.85845801548294,121.51687109601923,山海一家三期,14,18274,大连龙海物业管理有限公司,1.2,辽宁,3,二手房,2010
高新园敬贤街23-11号,大连,大连晟远房地产开发有限公司,高新园区,20190514,38.869456648212356,121.53023725049893,恒瑞坦城,64,17872,大连恒德物业服务有限公司,2.4,辽宁,3,二手房,2015
金州新区先进街道渤海街7-4号1-2层、7-3号1-2层,大连,大连海洋房地产开发有限公司,金州,20190514,39.09342713035472,121.74590886291374,金海嘉园,21,8191,大连辽渔物业管理有限公司,0.8,辽宁,3,二手房,2007
甘井子区金北路17号,大连,暂无信息,甘井子,20190514,38.97553393692831,121.59969720502335,金二小学南,47,20101,无物业管理服务,-,辽宁,3,二手房,1976
高新园区聚贤路36号5幢1单元1层1号,大连,大连海创房地产开发有限公司,高新园区,20190514,32.31472011562832,119.46141263909165,海创半山壹号,61,17138,大连海创物业管理有限公司,1.8,辽宁,3,二手房,2011
无门店信息,大连,大连百年港湾商业开发有限公司,西岗,20190514,34.52713835999158,118.76812980670795,百年港湾,51,18098,大连百年城物业管理有限公司,3.5,辽宁,3,二手房,2014
西岗区新田巷27号1-2,大连,无开发商,西岗,20190514,38.893215932589385,121.64103065169111,新河街,13,10524,无物业管理服务,-,辽宁,3,二手房,1995
无门店信息,大连,大连金宸集团,金州,20190514,34.52713835999158,118.76812980670795,金宸联郡,24,8722,大连四通物业管理有限公司,1.4,辽宁,3,二手房,2015
中山区杏林街66—5号,大连,大连开建集团有限公司,中山,20190514,38.92572771377599,121.66490555592502,花香维也纳,49,23922,大连开利物业管理有限公司,0.5,辽宁,3,二手房,2003
中山区爱华街13号,大连,大连一方地产有限公司,中山,20190514,38.92541607518685,121.6535728031028,大连国际酒店,22,22529,大连一方物业管理有限公司,3.0,辽宁,3,二手房,2006
沙河口区西南路161号,大连,无开发商,沙河口,20190514,38.89269676588945,121.56639953951542,西沟小区,29,12196,无物业管理服务,-,辽宁,3,二手房,1990
沙河口区西南路643号,大连,大连海昌房屋开发有限公司,沙河口,20190514,38.943483429804665,121.5833555851182,兴港花园,6,11628,大连永佳物业管理有限公司,0.3,辽宁,3,二手房,1999
开发区黄海西路201号107公建,大连,大连开建房地产开发有限公司,开发区,20190514,39.04942604506828,121.80126318235419,芙蓉花园(开发区),46,6896,嘉兴物业管理有限公司,0.4,辽宁,3,二手房,2001
甘井子区促进路200号,大连,大连亿达房地产股份有限公司,甘井子,20190514,38.95810188892782,121.58530036264898,林语家话,36,25602,亿达物业管理有限公司,1.2,辽宁,3,二手房,2005
沙河口区五一路177-1-1-1,大连,大华集团大连房地产开发有限公司,沙河口,20190514,38.913544290955585,121.59450670056631,大华御庭,53,22465,大连乐尔居物业服务有限公司,1.4,辽宁,3,二手房,2009
中山区中青街43号,大连,大连亿达房地产股份有限公司,中山,20190514,38.90150598268117,121.65711014604845,青云映山,18,26588,亿达物业管理有限公司,1.3,辽宁,3,二手房,2005
中山区民建街10号1单元1号,大连,无开发商,中山,20190514,38.925444479476894,121.66915026954452,39中明阳街,35,19595,无物业管理服务,-,辽宁,3,二手房,1993
甘井子区玉丽街2号楼1单元4号公建,大连,暂无信息,甘井子,20190514,38.98705071699301,121.55513043130172,玉山路,25,10384,大连新兴物业管理有限公司,0.5,辽宁,3,二手房,2002
甘井子区哲林北园17-6号,大连,大连大力房屋开发有限公司,甘井子,20190514,38.9600267109581,121.53876726228256,圆梦园,7,19949,大连嘉禾物业管理服务有限公司,1.6,辽宁,3,二手房,2015
西岗区绕山路31号公建一层东侧,大连,无开发商,西岗,20190514,38.90257514466717,121.61412736644739,康庄街,3,9463,无物业管理服务,-,辽宁,3,二手房,1991
大连市高新园区七贤中路63号,大连,大连招宇房地产有限公司,高新园区,20190514,38.86053006357667,121.53273606963094,招商兰溪谷,30,22338,招商局物业管理有限公司大连分公司,2.6,辽宁,3,二手房,2015
金州新区八一路金都嘉园1号楼1号公建,大连,大连锦阳房地产开发有限公司,金州,20190514,39.05525210261778,121.74865634199398,古城天下,9,7201,大连锦阳房地产开发有限公司,1,辽宁,3,二手房,2004
开发区黄海西路201号107公建,大连,大连中信海港投资有限公司,开发区,20190514,39.04942604506828,121.80126318235419,润泽园小区,59,9649,大连新华物业管理有限公司,1.2,辽宁,3,二手房,2010
甘井子区玉云路27-3-1-3,大连,大连新型房地产开发有限公司,甘井子,20190514,38.97896234099927,121.55865563488358,泡崖三区,68,10837,大连新兴物业管理有限公司,0.5,辽宁,3,二手房,1995
甘井子区泉水B5区27-9,大连,大连运达房地产集团有限公司,甘井子,20190514,39.01477152073682,121.60970286326823,锦泉源B6区,20,14248,政治物业管理有限公司,0.5,辽宁,3,二手房,2012
中山区杏林街66—5号,大连,嘉和房地产集团有限公司,中山,20190514,38.92572771377599,121.66490555592502,嘉和花样年华二期,57,21964,大连嘉和物业管理有限公司,2,辽宁,3,二手房,2005
甘井子区辛寨子街道中冶蓝城辛虹园39-7号公建,大连,大连中冶京诚置业有限公司,甘井子,20190514,38.98155611421408,121.49259383356096,中冶蓝城E区,37,14916,大连添翼物业服务有限公司,2,辽宁,3,二手房,2010
开发区兴城路29-81层,大连,大连亿锋集团有限公司,开发区,20190514,39.050214252167194,121.75835946441768,亿锋广场三期,61,15127,大连广恒物业管理有限公司,2.8,辽宁,3,二手房,2015
甘井子区泉水H1区54号3单元1层1号,大连,暂无信息,甘井子,20190514,39.0074937564393,121.62382856020916,龙畔金泉五期K1区,32,12866,大连新兴物业管理有限公司,0.5,辽宁,3,二手房,2008
无门店信息,大连,大华集团大连置业有限公司,高新园区,20190514,34.52713835999158,118.76812980670795,大华锦绣华城四期,39,22792,大连大华物业管理有限公司,2.5,辽宁,3,二手房,2015
甘井子区辛寨子街道中冶蓝城辛虹园39-7号公建,大连,大连中冶京诚置业有限公司,甘井子,20190514,38.98155611421408,121.49259383356096,中冶蓝城D区,38,15536,大连添翼物业服务有限公司,2,辽宁,3,二手房,2011
经济技术开发区城润万家4-5号公建,大连,大连海汇房地产开发有限公司,开发区,20190514,39.05716325096989,121.75946281983826,正源吉祥e家,48,12112,大连正源物业服务有限公司,1,辽宁,3,二手房,2013
大连市甘井子区丰收路3-5号,大连,无开发商,甘井子,20190514,38.965377255081755,121.58288415324094,顺发路,21,12886,街道办事处（居委会）代管物业,0.2,辽宁,3,二手房,1993
沙河口区锦云北园9号2单元1层2号,大连,大连锦绣房地产开发有限公司,沙河口,20190514,38.94836395772248,121.55744845421044,锦云北园,24,10291,大连锦绣物业管理有限公司,0.3,辽宁,3,二手房,1996
西岗区三元街73号3单元1层2,大连,暂无信息,西岗,20190514,38.91459734722941,121.63112153703432,34中三元街,47,27679,无物业管理服务,-,辽宁,3,二手房,1990
甘井子区泉水D1区10-2#1-1-7,大连,大连春达房屋开发有限公司,甘井子,20190514,39.01504676175047,121.61751269364314,景富铭苑,14,12687,庄河金城物业管理有限公司,0.5,辽宁,3,二手房,2004
甘井子区玉云路27-3-1-3,大连,暂无信息,甘井子,20190514,38.97896234099927,121.55865563488358,泡崖新六区,40,10957,大连新型物业管理有限公司,0.3,辽宁,3,二手房,2003
甘井子区甘井子路32号楼1单元1楼9号,大连,大连市建设控股有限公司,甘井子,20190514,38.982488275116516,121.63345389253514,胜景家园,13,12420,街道办事处（居委会）代管物业,0.9,辽宁,3,二手房,2009
沙河口区新生路万客园3-7,大连,大连万科锦绣花城开发有限公司,沙河口,20190514,38.94412875710208,121.57006756704837,万科城市花园,50,20040,大连万科物业服务有限公司,1.5,辽宁,3,二手房,2005
大连市甘井子区钻石湾和信园13-5,大连,远洋地产有限公司,甘井子,20190514,38.958699272665584,121.61903564217761,远洋钻石湾一期,89,23251,大连远洋基业物业管理有限公司,2.7,辽宁,3,二手房,2014
西岗区长春路334号,大连,无开发商,西岗,20190514,38.89807766522607,121.63221082858387,石峰街,16,11266,大连大众物业管理有限公司,0.3,辽宁,3,二手房,1995
大连市甘井子区七贤路8-3号,大连,大连瑞恒置业有限公司,高新园区,20190514,38.86602612116956,121.53842265737707,未名山,45,25610,大连龙湖物业服务有限公司,3,辽宁,3,二手房,2015
沙河口区锦霞南园1号1层公建,大连,大连锦绣房地产开发有限公司,沙河口,20190514,38.947367114450536,121.55342584213675,锦虹南园,19,10765,大连锦绣物业管理有限公司,0.3,辽宁,3,二手房,1998
沙河口区长江路738号,大连,大连大和中盛房地产有限公司,西岗,20190514,38.913544290955585,121.59450670056631,颐和香榭,42,29232,大连颐和物业管理有限公司,2.5,辽宁,3,二手房,2008
开发区东北三街94号1层,大连,大连同济房地产开发有限公司,开发区,20190514,39.05723508011585,121.80570768630555,新东方公寓二期,51,5638,大连同济物业管理有限公司,1.5,辽宁,3,二手房,2007
大连市甘井子区宜居园10-1号房屋,大连,大连万科置业有限公司,甘井子,20190514,38.99913094587405,121.52084969112292,万科现在城,22,14906,大连万科物业服务有限公司,2.2,辽宁,3,二手房,2015
大连市甘井子区丰收路3-5号,大连,大连智和房地产开发有限公司,甘井子,20190514,38.965377255081755,121.58288415324094,华锦铭苑,44,18723,大连东昌物业管理有限公司,1.3,辽宁,3,二手房,2009
无门店信息,大连,大连新跃房地产开发有限公司,金州,20190514,34.52713835999158,118.76812980670795,金海国际花园,231,7957,盘锦瀚新物业管理有限公司,1,辽宁,3,二手房,2010
大连市甘井子区泉水N2区3-13号,大连,大连半岛集团有限公司,甘井子,20190514,39.021116079001885,121.64659997607325,半岛泉水欣座,33,14853,大连半岛物业管理有限公司,1.5,辽宁,3,二手房,2010
无门店信息,大连,暂无信息,旅顺口,20190514,34.52713835999158,118.76812980670795,熙龙山庄,88,8352,大连市辰馨物业服务有限公司,1,辽宁,3,二手房,2005
无门店信息,大连,大连众仕房地产开发有限公司,开发区,20190514,34.52713835999158,118.76812980670795,山河御景,13,8157,大连山河物业管理有限公司,1.5,辽宁,3,二手房,2015
大连市甘井子区银田北园14号,大连,暂无信息,甘井子,20190514,38.9742441034389,121.47189841879823,亿达春田银杏园,64,18755,亿达物业管理有限公司,2.2,辽宁,3,二手房,2011
沙河口区成仁街91号,大连,大连万达房地产开发有限公司,沙河口,20190514,38.91539947107844,121.59585638842556,龙祥花园,21,24064,大连万达物业管理有限公司,0.8,辽宁,3,二手房,2001
中山区中青街87号一单元107,大连,大连亿达房地产股份有限公司,中山,20190514,38.90213494248529,121.65806522267005,青云林海,45,20971,亿达物业管理有限公司,1,辽宁,3,二手房,2001
高新园区红凌路732-4号,大连,大华集团大连置业有限公司,高新园区,20190514,38.90204708664442,121.53244406374695,大华锦绣华城一期,50,25244,大连大华物业管理有限公司,2.5,辽宁,3,二手房,2010
无门店信息,大连,暂无信息,开发区,20190514,34.52713835999158,118.76812980670795,十里岗小区,58,5842,大连经济技术开发区盛辉物业服务有限公司,0.5,辽宁,3,二手房,1996
金州区鹏程家园53#-8,大连,大连软微房地产开发有限公司,开发区,20190514,39.03523987258615,121.80826248065051,深蓝半英里,19,9929,大连豪斯威物业管理有限公司,1.2,辽宁,3,二手房,2007
甘井子区小平岛路66-4号,大连,大连软件园瑞安发展有限公司,高新园区,20190514,38.84623138470555,121.51516818634872,悦丽海湾,62,19810,上海丰城物业管理有限公司,2.8,辽宁,3,二手房,2014
沙河口区兰田街33号,大连,大连万合房地产开发有限公司,沙河口,20190514,38.926138912221084,121.56486022834609,万合新家园,8,17255,大连佳宜物业管理有限公司,0.6,辽宁,3,二手房,2004
甘井子区红南东街7-7号,大连,大连良运房地产开发有限公司,甘井子,20190514,38.92880462247992,121.54144910207062,山居笔记,19,16332,大连良运物业管理有限公司,1.5,辽宁,3,二手房,2009
甘井子区红旗花园23号楼19-24轴公建,大连,大连银泰房地产有限公司,甘井子,20190514,38.93108029984587,121.54902145022133,祥和园,19,14400,无物业管理服务,0.5,辽宁,3,二手房,2002
甘井子区红旗中路143号1层4号,大连,暂无信息,甘井子,20190514,38.93169566676921,121.5426632438217,湾家花园,9,11097,街道办事处（居委会）代管物业,0.2,辽宁,3,二手房,2000
甘井子区红旗西路104-7,大连,大连盛达实业总公司,甘井子,20190514,38.940335495502666,121.52722586363274,盛新园,32,11794,大连盛新物业管理有限公司,0.3,辽宁,3,二手房,2000
沙河口区西南路851号3单元1层3号,大连,暂无信息,沙河口,20190514,38.94344210837944,121.58246796944378,凌山三街,3,11267,无物业管理服务,-,辽宁,3,二手房,-
甘井子区金北路17号,大连,暂无信息,甘井子,20190514,38.97553393692831,121.59969720502335,76中学桥南,81,16136,大连新华物业管理有限公司,0.2,辽宁,3,二手房,1970
沙河口区五一路270-274号,大连,无开发商,高新园区,20190514,38.913544290955585,121.59450670056631,由家村,24,12477,无物业管理服务,-,辽宁,3,二手房,1990
高新园区火炬路18号,大连,大连奥泰房地产开发有限公司,高新园区,20190514,38.937738080520404,117.39340752036043,因特摩尔,56,17932,大连奥泰物业服务有限公司,2.6,辽宁,3,二手房,2011
经济技术开发区城润万家4-5号公建,大连,无开发商,开发区,20190514,39.05716325096989,121.75946281983826,西山小区,7,7992,街道办事处（居委会）代管物业,0.5,辽宁,3,二手房,1996
西岗区黄河路362号公建,大连,大连万峰房地产开发有限公司,西岗,20190514,38.91819905243802,121.61365779430986,万达华府一期,59,28024,大连万景物业管理有限公司,1.3,辽宁,3,二手房,2005
甘井子区虹港路16号楼1层公建,大连,大连建园房地产开发有限公司,甘井子,20190514,38.9645939333502,121.553851837474,城市印象,55,15453,大连天兴物业管理有限公司,1.8,辽宁,3,二手房,2011
开发区松苑街23号,大连,大连天安房地产开发有限公司,开发区,20190514,22.52087435807652,113.40156105086167,天安海景花园,16,13763,大连港力物业管理有限公司,1.2,辽宁,3,二手房,2006
沙河口区富国街14号1-1-2,大连,无开发商,沙河口,20190514,38.901027106600836,121.59047734850638,星月街,9,11617,街道办事处（居委会）代管物业,0.5,辽宁,2,二手房,-
中山区民运巷 47号1层2号,大连,大连新型房地产开发总公司,中山,20190514,38.905955122300846,121.64798148011702,葵英小区,11,13023,街道办事处（居委会）代管物业,0.3,辽宁,2,二手房,1999
甘井子区华北路花锦园28号23-3-1-2建筑物,大连,暂无信息,甘井子,20190514,38.951627958411166,121.5739439799003,周水子广场,2,14731,无物业管理服务,0.5,辽宁,2,二手房,1990
甘井子区汇仁街19号12号楼1单元102室,大连,大连华南房地产开发有限公司,甘井子,20190514,38.99746297497168,121.58917714380617,名贵山庄金盛园,10,14958,大连弘益达物业管理有限公司,0.5,辽宁,2,二手房,2004
金州区南棉路310号,大连,暂无信息,金州,20190514,39.09939229372624,121.72414976100345,光明现代城,8,7168,无物业管理服务,1,辽宁,2,二手房,2004
中山区中南路226号,大连,大连华谊地产房屋有限公司,中山,20190514,38.90029610333926,121.68178899957817,晨光山水,4,14432,大连格林物业管理有限公司,-,辽宁,2,二手房,2004
甘井子区华北路花锦园28号23-3-1-2建筑物,大连,无开发商,甘井子,20190514,38.951627958411166,121.5739439799003,迎客石广场（锦绣商圈）,11,13540,街道办事处（居委会）代管物业,0.5,辽宁,2,二手房,2000
甘井子区西南路979-7号公建,大连,无开发商,甘井子,20190514,38.96275592929325,121.5958698791777,八十中,0,14351,街道办事处（居委会）代管物业,0.9,辽宁,2,二手房,1999
中山区中南路店212号门头房,大连,大连金广地产集团有限公司,中山,20190514,38.91149759691359,121.67700561077149,迎宾花园,0,13066,大连德一物业管理有限公司,1.2,辽宁,2,二手房,2003
甘井子区惠泽南园3-4号,大连,大连九衡房地产开发有限公司,甘井子,20190514,38.939326611323615,121.52337842113351,易和熙园,25,20723,大连易兴物业服务有限公司,2.3,辽宁,3,二手房,2013
甘井子区华龙南园12-4-3-1-3,大连,大连融汇置业有限公司,甘井子,20190514,38.98528794231248,121.61028969481718,格林翠庭,10,14809,北京房修一物业管理有限公司,1.3,辽宁,3,二手房,2009
甘井子区佳林北园2-7号,大连,大连瑞泰祥房地产开发有限公司,甘井子,20190514,38.96331610956877,121.52802328494242,缇香漫城,51,20536,大连瑞泰祥物业服务有限公司,2,辽宁,3,二手房,2013
沙河口区黄河路883号,大连,无开发商,沙河口,20190514,38.919826721475204,121.57749657966676,沙区医院,28,12933,无物业管理服务,-,辽宁,3,二手房,1990
沙河口区恒利园42号-8,大连,无开发商,沙河口,20190514,38.93357562498634,121.57914091532649,新建小区,7,11006,无物业管理服务,-,辽宁,3,二手房,1980
甘井子区泉水H3区15号3单元1层2号,大连,大连新型房地产开发有限公司,甘井子,20190514,39.00158439075201,121.62616882572375,龙畔金泉三期,55,13276,大连新型物业管理有限公司,0.5,辽宁,3,二手房,2004
甘井子区玉湖街25号2单元1层3号,大连,大连新型房地产开发有限公司,甘井子,20190514,38.97626265183615,121.54617349027997,书香府第一期,12,11964,大连新兴物业管理有限公司,0.5,辽宁,3,二手房,2002
沙河口区成仁街91号,大连,无开发商,沙河口,20190514,38.91539947107844,121.59585638842556,西安路公寓,17,13325,大连协和物业管理有限公司,0.5,辽宁,3,二手房,2000
甘井子区祥龙街2号楼1单元1楼1号,大连,大连宏孚房屋开发有限公司,甘井子,20190514,38.988045874482445,121.60439401971377,宏孚小区,33,10856,无物业管理服务,-,辽宁,3,二手房,1995
沙河口区西南路40号楼,大连,无开发商,沙河口,20190514,38.94143337232082,121.58616557598133,尖山街,18,13311,无物业管理服务,-,辽宁,3,二手房,1990
甘井子金地艺境博艺西园2-1号,大连,暂无信息,甘井子,20190514,39.04402110608829,121.665484498555,欣家园一期,31,9195,街道办事处（居委会）代管物业,1,辽宁,3,二手房,2004
西岗区鞍山路65-5号,大连,无开发商,沙河口,20190514,38.926971569913064,121.60260230348328,美辰臻品,9,17998,大连众和物业管理有限公司,1,辽宁,2,二手房,2007
中山区中南路店212号门头房,大连,大连鸿业房地产开发有限公司,中山,20190514,38.91149759691359,121.67700561077149,中南风景,15,17851,大连自然物业管理有限公司,0.8,辽宁,2,二手房,2004
沙河口区杨树街4—2号,大连,无开发商,高新园区,20190514,38.8832931099998,121.55440002481825,龙江路（学府商圈）,6,13874,无物业管理服务,-,辽宁,2,二手房,1992
甘井子区甘井子路32号楼1单元1楼9号,大连,大连和华房地产开发有限公司,甘井子,20190514,38.982488275116516,121.63345389253514,万成御园,9,14302,大连银力物业管理有限公司,1.3,辽宁,2,二手房,2015
沙河口区新生路万客园3-7,大连,暂无信息,沙河口,20190514,38.94412875710208,121.57006756704837,中海天赋山二期,20,19562,大连中海物业管理有限公司,2.8,辽宁,2,二手房,2017
中山区中南路226号,大连,大连大业房屋开发有限公司,中山,20190514,38.90029610333926,121.68178899957817,阳光花园二期,6,13843,大连全得利物业管理有限公司,0.5,辽宁,2,二手房,1997
无门店信息,大连,大连腾达房地产开发有限公司,中山,20190514,34.52713835999158,118.76812980670795,紫竹轩,9,16027,大连市晟阳物业管理有限公司,1,辽宁,2,二手房,2003
无门店信息,大连,大连亿达房地产股份有限公司,高新园区,20190514,34.52713835999158,118.76812980670795,亿达悦龙居,16,14912,亿达物业管理有限公司,2.8,辽宁,2,二手房,2015
甘井子区华北路花锦园28号23-3-1-2建筑物,大连,大连东特房地产开发有限公司,甘井子,20190514,38.951627958411166,121.5739439799003,星加坡花园,28,17738,大连东特祥禾物业管理有限公司,0.6,辽宁,2,二手房,2004
沙河口区中山路417A-4号,大连,无开发商,沙河口,20190514,38.90740323140171,121.59484801084653,同泰街,22,12936,无物业管理服务,0.5,辽宁,2,二手房,1999
开发区杏树里10栋-14,大连,大连经济技术开发区城市建设开发有限公司,开发区,20190514,39.08113818354046,121.78505742127606,颐馨园,13,9084,大连经济技术开发区杏林物业管理有限公司,0.8,辽宁,2,二手房,2005
沙河口区知心园10号公建,大连,亿达房地产开发有限公司,高新园区,20190514,38.893977135945136,121.55667141994431,亿达康派,7,18640,亿达物业管理有限公司,1.5,辽宁,2,二手房,2006
莲花山路89-3号,大连,大连铁路房地产开发有限责任公司,西岗,20190514,38.902848261803356,121.6041720815823,新华小区(西岗),13,13363,大连铁路物业管理有限公司,0.3,辽宁,2,二手房,1998
沙河口区黄浦路18号—5号公建,大连,大连高新技术产业园区建设开发总公司,高新园区,20190514,38.8771225143479,121.54427480390662,学府1+1公寓,9,15879,街道办事处（居委会）代管物业,0.6,辽宁,2,二手房,2007
中山区益民街16号1层1号,大连,无开发商,中山,20190514,38.93092761298906,121.66470740073377,益民街（三八广场）,8,14687,无物业管理服务,-,辽宁,2,二手房,1992
无门店信息,大连,大连光伸房地产开发有限公司,开发区,20190514,34.52713835999158,118.76812980670795,光伸卧龙港湾,18,8952,大连经济技术开发区光伸物业服务有限公司,1.5,辽宁,2,二手房,2015
沙河口区富国街14号1-1-2,大连,无开发商,沙河口,20190514,38.901027106600836,121.59047734850638,西安路（和平广场商圈）,4,13040,无物业管理服务,-,辽宁,2,二手房,1996
开发区红梅小区19栋-2-1-1号,大连,无开发商,开发区,20190514,29.906498897603264,121.5913630631805,金玛海景,6,11686,街道办事处（居委会）代管物业,1,辽宁,2,二手房,2007
沙河口区连山街44-2号半地下一层（地上一层部分）,大连,大连亿达房地产股份有限公司,沙河口,20190514,38.892991456958086,121.57299542767161,星海小区,25,11496,无物业管理服务,-,辽宁,2,二手房,1996
大连市甘井子区辛如街35号1单元1层1号,大连,暂无信息,甘井子,20190514,38.96862607066881,121.52294869064194,苹果公寓（住宅）,48,11594,大连生生物业有限公司,0.8,辽宁,2,二手房,2009
中山区爱华街13号,大连,大连银河房地产开发有限公司,中山,20190514,38.92541607518685,121.6535728031028,银河公寓,10,9620,街道办事处（居委会）代管物业,-,辽宁,2,二手房,1996
西岗区长春路334号,大连,无开发商,西岗,20190514,38.89807766522607,121.63221082858387,曙光巷,13,11118,无物业管理服务,-,辽宁,2,二手房,1990
高新园区火炬路18号,大连,大连海创房地产开发有限公司,高新园区,20190514,38.937738080520404,117.39340752036043,芝麻街,54,14125,大连海创物业管理有限公司,2.4,辽宁,2,二手房,2010
沙河口区五四路207-1-9号,大连,大连华邦房地产开发有限公司,沙河口,20190514,38.913544290955585,121.59450670056631,华邦上都,19,18902,大连华邦物业有限公司,1.7,辽宁,2,二手房,2006
甘井子区华北路花锦园28号23-3-1-2建筑物,大连,大连东特房地产开发有限公司,甘井子,20190514,38.951627958411166,121.5739439799003,东特星中环,25,16454,大连东特祥禾物业管理有限公司,0.8,辽宁,2,二手房,2006
甘井子区山东路商业街D区12号公建,大连,大连市大钢集团,甘井子,20190514,39.001060021502965,121.58883960371418,梅山路,10,12821,街道办事处（居委会）代管物业,0.5,辽宁,2,二手房,1982
开发区红星海-B区89-1号,大连,远洋地产有限公司,开发区,20190514,39.027851194371685,121.80327394132297,红星海五期鼎墅,30,25765,大连远洋基业物业管理有限公司,4.8,辽宁,2,二手房,2012
沙河口区五一路110-4号,大连,大连大重房屋开发有限公司,沙河口,20190514,38.913544290955585,121.59450670056631,星台花园一期,34,15993,大连大重房屋开发公司物业管理中心,-,辽宁,2,二手房,1998
中山区鲁迅路204号百盛新药特药商店一楼西侧部分,大连,无开发商,中山,20190514,38.9258993614899,121.6768880001226,春港街,3,11373,无物业管理服务,-,辽宁,2,二手房,1999
西岗区鞍山路29号龙畔锦城东门,大连,大连万达房地产开发有限公司,西岗,20190514,38.92763470697088,121.61498923399098,长春花园,16,17413,大连万达物业管理有限公司,0.5,辽宁,2,二手房,1996
金州区站前街道盛滨花园B区13号楼2号公建,大连,大连阿尔滨集团房地产开发有限公司,金州,20190514,39.09609011892329,121.7335816409767,盛滨花园A区,51,6284,大连阿尔滨集团物业管理有限公司,0.4,辽宁,2,二手房,2001
沙河口区敦煌路357号10-11轴公建,大连,大连银泰房地产有限公司,沙河口,20190514,38.93891619583455,121.59150694046835,敦煌大厦,5,9761,大连银泰物业管理有限公司,0.5,辽宁,2,二手房,1999
沙河口区兰田街33号,大连,无开发商,沙河口,20190514,38.926138912221084,121.56486022834609,兰玉小区,5,11306,街道办事处（居委会）代管物业,0.4,辽宁,2,二手房,1990
沙河口区鞍山路65号美都园7号1单元1层4号公建,大连,大连良运房地产开发有限公司,沙河口,20190514,38.92755211283745,121.60306664748275,良运缤纷四季,34,21662,大连良运物业管理有限公司,0.8,辽宁,2,二手房,2006
金州区光明街道育才街42-6号1-2层,大连,无开发商,金州,20190514,39.109080894078986,121.7182584929096,味食小区,20,7908,大连大众物业管理有限公司,0.5,辽宁,2,二手房,1988
开发区松苑街23号,大连,无开发商,开发区,20190514,22.52087435807652,113.40156105086167,松林里小区,5,12896,街道办事处（居委会）代管物业,0.5,辽宁,2,二手房,1996
莲花山路89-3号,大连,大连安邦房屋开发公司,沙河口,20190514,38.902848261803356,121.6041720815823,金地海景,17,13462,无物业管理服务,-,辽宁,2,二手房,2005
西岗区黄河路82号,大连,大连富泰房地产开发有限公司,西岗,20190514,38.92243503020161,121.6287927913896,悦泰福里,25,21744,大连百安物业管理有限公司,2.8,辽宁,2,二手房,2014
中山区民建街10号1单元1号,大连,无开发商,中山,20190514,38.925444479476894,121.66915026954452,39中爱阳街,24,19855,无物业管理服务,-,辽宁,2,二手房,1993
沙河口区黄浦路18号—5号公建,大连,大连良运房地产开发有限公司,高新园区,20190514,38.8771225143479,121.54427480390662,翰林观海,28,22699,大连良运物业管理有限公司,0.8,辽宁,2,二手房,2003
中山区鲁迅路184号1层B—A,大连,无开发商,中山,20190514,38.92590875965419,121.67594393403164,海滨住宅小区（寺儿沟商圈）,9,11732,无物业管理服务,-,辽宁,2,二手房,1995
西岗区绕山路31号公建一层东侧,大连,大连胜利路拓宽改造工程建设有限公司,西岗,20190514,38.90257514466717,121.61412736644739,星海绿山城D区,14,21666,无物业管理服务,1.5,辽宁,2,二手房,2016
甘井子区西南路950—1号1层1号,大连,暂无信息,甘井子,20190514,38.96304110156522,121.59665499819343,八十中东海街,33,16061,街道办事处（居委会）代管物业,0.2,辽宁,2,二手房,1980
金州区小平岛B组团4号楼3号商铺,大连,大连安达房地产开发有限公司,高新园区,20190514,39.05643299166072,121.78943558267059,小平岛亲海园A2组团,43,20791,大连凯尔富物业管理有限公司,1.7,辽宁,2,二手房,2007
甘井子区华北路花锦园28号23-3-1-2建筑物,大连,无开发商,甘井子,20190514,38.951627958411166,121.5739439799003,久胜街,18,16268,街道办事处（居委会）代管物业,0.1,辽宁,2,二手房,1989
大连市甘井子区燕南园50号,大连,大连鑫园房屋开发有限公司,高新园区,20190514,38.90172480153224,121.5363466289672,新新园一期,19,14704,大连理工物业管理中心,0.3,辽宁,2,二手房,2000
无门店信息,大连,大连融昇房地产开发有限公司,甘井子,20190514,34.52713835999158,118.76812980670795,鹿港小镇,7,10847,大连三和住邦物业管理有限公司,1.3,辽宁,2,二手房,2015
沙河口区联合路133号,大连,大连三星大厦发展有限公司,西岗,20190514,38.91608561262676,121.60480987310456,三星公寓,4,10591,大连铁道物业管理有限责任公司,0.3,辽宁,2,二手房,1997
无门店信息,大连,无开发商,金州,20190514,34.52713835999158,118.76812980670795,永安四季,34,7203,无物业管理服务,0.5,辽宁,2,二手房,2012
金州新区八一路金都嘉园1号楼1号公建,大连,无开发商,金州,20190514,39.05525210261778,121.74865634199398,老街坊小区,16,8822,街道办事处（居委会）代管物业,0.5,辽宁,2,二手房,1997
沙河口区连山街44-2号半地下一层（地上一层部分）,大连,大连宏都房地产开发有限公司,沙河口,20190514,38.892991456958086,121.57299542767161,宏都筑景Ⅱ期,11,25896,东方百瑞物业有限公司,1.8,辽宁,2,二手房,2012
中山区武昌街武昌公寓6号公建,大连,无开发商,中山,20190514,38.912280913445784,121.64921130527547,合力巷,4,10739,无物业管理服务,-,辽宁,2,二手房,1980
中山区中南路店212号门头房,大连,峰尚房屋开发有限公司,中山,20190514,38.91149759691359,121.67700561077149,峰尚中南,13,16220,大连银洲物业管理有限公司,2.2,辽宁,2,二手房,2011
沙河口区沙能街101号1单元1层1号,大连,大连大力置业有限公司,沙河口,20190514,38.9366316275348,121.59031205759763,机车佳苑,8,15642,大连大力物业管理有限公司,1.5,辽宁,2,二手房,2009
甘井子区凌秀路37号-1链家地产,大连,无开发商,高新园区,20190514,38.883794285403965,121.52361997548515,海事附小,10,14009,街道办事处（居委会）代管物业,0.5,辽宁,2,二手房,1990
西岗区八一路102号,大连,无开发商,西岗,20190514,38.92047268927287,121.61862512554262,河沿巷,13,12204,无物业管理服务,-,辽宁,2,二手房,1996
大连市甘井子区逸林南园1-1号,大连,暂无信息,甘井子,20190514,38.95800216293212,121.53151895549547,三鼎春天A区,21,24121,瑞联德（大连）物业管理有限公司,3.2,辽宁,2,二手房,2015
金州区凤翔路220号,大连,大连鸿玮置业有限公司,金州,20190514,39.08410553937731,121.77700083356399,鸿玮澜山一期,30,15550,大连鸿玮物业服务有限公司,1.8,辽宁,2,二手房,2009
沙河口区联合路133号,大连,大连新型房地产开发有限公司,沙河口,20190514,38.91608561262676,121.60480987310456,21中联德小区,6,21504,大连新型物业管理有限公司,0.5,辽宁,2,二手房,1998
金州新区先进街道五一路350-1号1-2层,大连,无开发商,金州,20190514,39.078667146419825,121.77094423323935,八里河小区,20,6899,街道办事处（居委会）代管物业,0.5,辽宁,2,二手房,2009
中山区爱华街13号,大连,无开发商,中山,20190514,38.92541607518685,121.6535728031028,云程巷（中山友好商圈）,4,13832,无物业管理服务,-,辽宁,2,二手房,1990
沙河口区西南路851号3单元1层3号,大连,暂无信息,沙河口,20190514,38.94344210837944,121.58246796944378,学工街,3,9175,大连新兴物业管理有限公司,0.3,辽宁,2,二手房,1993
中山区职工街96号1-3层公建,大连,大连嘉和房地产集团有限公司,中山,20190514,38.92565613737007,121.66193575790903,嘉和广场,108,18756,大连华安物业管理有限公司,3.8,辽宁,2,二手房,2014
中山区杏林街66—5号,大连,无开发商,中山,20190514,38.92572771377599,121.66490555592502,39中丰阳巷,5,28975,街道办事处（居委会）代管物业,0.5,辽宁,2,二手房,1995
中山区解放路604号,大连,大连雅风房屋开发有限公司,中山,20190514,38.89026319122045,121.66407876092346,秀月风景,5,18413,大连风景物业管理有限公司,1,辽宁,2,二手房,1996
甘井子区金北街17号,大连,大连恒新房地产开发有限公司,甘井子,20190514,38.95800216293212,121.53151895549547,福佳绿都,33,26897,大连福佳物业管理有限公司,1.3,辽宁,2,二手房,2008
中山区中青街87号一单元107,大连,无开发商,中山,20190514,38.90213494248529,121.65806522267005,中青街,5,17356,无物业管理服务,-,辽宁,2,二手房,1996
莲花山路89-3号,大连,大连建兴房屋开发有限公司,沙河口,20190514,38.902848261803356,121.6041720815823,府佳家园,4,17079,大连富佳物业管理有限公司,0.6,辽宁,2,二手房,2002
甘井子区美域盛景A2区10-6,大连,大连百思泰置业有限公司,甘井子,20190514,39.006221362805846,121.61022278003976,钰桥中央庭院,49,18143,大连百嘉物业管理有限公司,1.8,辽宁,2,二手房,2014
沙河口区绿清街12号,大连,大连绿波房屋开发集团有限公司,沙河口,20190514,38.93851335419565,121.57334844377094,绿波公寓,4,9116,大连绿波建设发展有限公司,0.5,辽宁,2,二手房,1999
大连市高新园区七贤中路63号,大连,大连宏都房地产开发有限公司,高新园区,20190514,38.86053006357667,121.53273606963094,宏都峰景,31,20355,大连东方百瑞物业管理有限公司,1.9,辽宁,2,二手房,2012
中山区华乐街71号公建,大连,无开发商,中山,20190514,38.923187679200566,121.6843197903016,春园里,26,12234,无物业管理服务,-,辽宁,2,二手房,1990
沙河口区五四路207-1-9号,大连,无开发商,沙河口,20190514,38.913544290955585,121.59450670056631,集贤街,8,13655,无物业管理服务,-,辽宁,2,二手房,1990
中山区武昌街武昌公寓6号公建,大连,大连武昌房地产开发有限公司,中山,20190514,38.912280913445784,121.64921130527547,部居逸阁,26,13339,大连宜佳物业管理有限公司,1,辽宁,2,二手房,2005
甘井子区祥龙街2号楼1单元1楼1号,大连,大连市大钢集团,甘井子,20190514,38.988045874482445,121.60439401971377,文星街,19,12073,街道办事处（居委会）代管物业,1,辽宁,2,二手房,1982
西岗区新田巷27号1-2,大连,大连海苑房屋开发有限公司,西岗,20190514,38.893215932589385,121.64103065169111,半岛故乡,7,16222,大连半岛物业管理有限公司,0.8,辽宁,2,二手房,2002
开发区东北三街94号1层,大连,鑫鸿房地产开发公司,开发区,20190514,39.05723508011585,121.80570768630555,雍景国际,36,6404,街道办事处（居委会）代管物业,1.2,辽宁,2,二手房,2002
金州区光明街道育才街42-6号1-2层,大连,暂无信息,金州,20190514,39.109080894078986,121.7182584929096,芙蓉花园（金州）,30,9721,大连金州新区建房物业管理中心,0.6,辽宁,2,二手房,2007
开发区大开高吉里33栋6号,大连,无开发商,开发区,20190514,39.07355836059941,121.8280439450145,高吉里,24,6550,广宜物业有限公司,0.2,辽宁,2,二手房,1998
"西岗区泰公街20号2层7号 西岗区久寿街22号1层14号""",大连,大连万达房地产开发有限公司,西岗,20190514,38.92600196862723,121.62141976476381,新春小区,9,15355,大连长青物业管理中心,0.2,辽宁,2,二手房,1997
无门店信息,大连,大连光洋龙驰置业有限公司,开发区,20190514,34.52713835999158,118.76812980670795,泽林苑,15,11800,大连光洋龙驰置业物业有限公司,1.6,辽宁,2,二手房,2015
甘井子区玉丽街2号楼1单元4号公建,大连,暂无信息,甘井子,20190514,38.98705071699301,121.55513043130172,玉意街,52,10247,大连新兴物业管理有限公司,0.3,辽宁,2,二手房,2002
开发区红星海-B区89-1号,大连,远洋地产有限公司,开发区,20190514,39.027851194371685,121.80327394132297,红星海三期视界,49,15021,大连远洋基业物业管理有限公司,2.2,辽宁,2,二手房,2012
甘井子区汇仁街19号12号楼1单元102室,大连,大连华南房地产开发有限公司,甘井子,20190514,38.99746297497168,121.58917714380617,名贵山庄华彩园,9,13658,大连弘益达物业管理有限公司,0.5,辽宁,2,二手房,2004
甘井子区泉水B2区19-1号,大连,大连金广集团,甘井子,20190514,39.0101309886317,121.60812584213187,金色阳光家园,58,14023,大连金广物业服务有限公司,0.5,辽宁,2,二手房,2002
开发区松苑街23号,大连,暂无信息,开发区,20190514,22.52087435807652,113.40156105086167,松峪里二期,9,13698,大连中信物业管理有限公司,0.5,辽宁,2,二手房,2000
金州区拥政街道733号-8号1-2层,大连,大连盛铭资产管理有限公司,金州,20190514,39.11690610445662,121.73030803603723,安盛花园（金州）,20,10535,大连经济技术开发区海青物业有限公司,1,辽宁,2,二手房,2000
开发区翠竹小区33栋4-1-1号,大连,大连福恒房地产开发有限公司,开发区,20190514,30.635492106460237,119.69169575745704,福佳国际,36,5978,大连福佳物业管理有限公司,1.5,辽宁,2,二手房,2007
无门店信息,大连,大连乾豪集团有限公司,开发区,20190514,34.52713835999158,118.76812980670795,乾豪海岸花园,9,14275,大连乾豪物业管理有限公司,2,辽宁,2,二手房,2003
甘井子区泉水K2区1号-7,大连,暂无信息,甘井子,20190514,39.01148211821007,121.63131997900962,龙畔金泉五期K2区,55,13014,大连新兴物业管理有限公司,0.5,辽宁,2,二手房,2008
中山区山屏街116号1-1,大连,无开发商,中山,20190514,38.90729438486833,121.68598159980013,怡和街,32,12142,街道办事处（居委会）代管物业,0.5,辽宁,2,二手房,1990
中山区华乐街71号公建,大连,大连中银房地产开发有限公司,中山,20190514,38.923187679200566,121.6843197903016,澳景园,31,17567,大连衡德物业管理有限公司,1,辽宁,2,二手房,2003
沙河口区长江路738号,大连,大连泰达新城建设发展有限公司,沙河口,20190514,38.913544290955585,121.59450670056631,五一广场长江路北,20,12801,无物业管理服务,-,辽宁,2,二手房,1994
甘井子区华东路22号公建,大连,大连凯祥房地产开发有限公司,甘井子,20190514,38.97736184953593,121.5935814234334,环馨山庄,18,12661,大连凯祥物业管理有限公司,0.5,辽宁,2,二手房,2000
甘井子区虹港路16号楼1层公建,大连,大连祥盛房屋开发有限公司,甘井子,20190514,38.9645939333502,121.553851837474,祥和新家园,10,15626,大连东特祥禾物业管理有限公司,0.5,辽宁,2,二手房,2002
高新园区红凌路732-4号,大连,大华集团大连房地产开发有限公司,高新园区,20190514,38.90204708664442,121.53244406374695,大华爱琴湾,41,21154,大连大华物业管理有限公司,1.8,辽宁,2,二手房,2010
沙河口区西南路358号1—2号,大连,大连东兴置业有限公司,沙河口,20190514,38.90839654326566,121.56908246905662,西山园中园,29,22510,大连东昌物业管理有限公司,1.2,辽宁,2,二手房,2007
沙河口区星海广场B3区20—3号,大连,大连华奇置业有限公司,沙河口,20190514,38.88782715536473,121.5869168319735,星海旺座,21,14002,大连佳和物业管理有限公司,2.5,辽宁,2,二手房,2005
无门店信息,大连,大连顺迈房地产开发有限公司,沙河口,20190514,34.52713835999158,118.76812980670795,星海国宝,59,20049,长城物业集团股份有限大连分公司,3,辽宁,2,二手房,2003
经济技术开发区城润万家4-5号公建,大连,志广房地产有限公司,开发区,20190514,39.05716325096989,121.75946281983826,恒安花园,24,9382,大连志广物业管理有限责任公司,0.9,辽宁,2,二手房,2004
甘井子区甘井子街3号公建,大连,无开发商,甘井子,20190514,38.982086281836246,121.63426694995971,新街,18,9720,无物业管理服务,-,辽宁,2,二手房,1988
中山区中南路226号,大连,大连澳南房屋开发有限公司,中山,20190514,38.90029610333926,121.68178899957817,伊顿山庄,10,24059,大连澳南物业管理有限公司,0.8,辽宁,2,二手房,2005
甘井子区芳韵街31号,大连,亿达集团大连房地产开发有限公司,甘井子,20190514,38.95628814568166,121.59125586946814,亿达世纪城,55,24471,亿达物业管理有限公司,0.9,辽宁,2,二手房,2002
中山区北斗街53号1层1号,大连,大连万众房屋开发有限公司,中山,20190514,38.92727355733075,121.67002970974048,清华园(中山),24,19042,大连万众物业有限公司,1.7,辽宁,2,二手房,2003
甘井子区海口路77—5号,大连,大连圣韬房地产开发有限公司,甘井子,20190514,38.960286398428124,121.60305183172997,万福居,56,18685,大连圣韬物业管理有限公司,0.5,辽宁,2,二手房,2006
西岗区长春路334号,大连,大连源通房地产开发有限公司,西岗,20190514,38.89807766522607,121.63221082858387,南石源居,5,16606,大连源通物业管理有限公司,1.3,辽宁,2,二手房,2009
甘井子区泉水D6区51号,大连,大连时代房地产开发有限公司,甘井子,20190514,39.00897610161069,121.61789300655198,富士庄园,62,15888,大连佳泰物业管理有限公司,1.2,辽宁,2,二手房,2006
沙河口区连山街44-2号半地下一层（地上一层部分）,大连,大连大和中盛房地产有限公司,沙河口,20190514,38.892991456958086,121.57299542767161,颐和星海,86,24424,大连颐和物业管理有限公司,2.5,辽宁,2,二手房,2013
中山区东港龙湖水晶郦湾7-102,大连,大连德威佳业投资有限公司,中山,20190514,38.924700620463895,121.70344398518496,东港天鹅湾,84,27819,哈尔滨德润物业管理有限公司大连分公司,4.8,辽宁,2,二手房,2018
无门店信息,大连,大连鹏辉房地产开发有限公司,甘井子,20190514,34.52713835999158,118.76812980670795,鹏辉新天居三期,58,14028,大连鹏辉物业管理有限公司,0.8,辽宁,2,二手房,2009
中山区高尚路28-1号,大连,无开发商,中山,20190514,38.892673425111305,121.67148833870213,高尚路,25,10356,无物业管理服务,0.5,辽宁,2,二手房,1993
沙河口区前程街15号1层E-C轴36-44轴公建,大连,大连安邦房地产开发有限公司,甘井子,20190514,38.91588050824643,121.60099647548584,阳光百合,13,17257,渤海吉祥物业管理有限公司,0.8,辽宁,2,二手房,2004
大连市经济技术开发区东城园98-14,大连,大连聚美房地产开发有限公司,开发区,20190514,39.06925526014871,121.8505146710752,聚美东湾,63,12135,大连聚美房地产开发有限公司,1.6,辽宁,2,二手房,2016
甘井子区祥龙街2号楼1单元1楼1号,大连,大连源隆房地产开发有限公司,甘井子,20190514,38.988045874482445,121.60439401971377,鑫汇茗苑,10,16599,大连佳和物业管理有限公司,1.6,辽宁,2,二手房,2011
甘井子区辛寨子街道中冶蓝城辛虹园39-7号公建,大连,大连中冶京诚置业有限公司,甘井子,20190514,38.98155611421408,121.49259383356096,中冶蓝城,20,12175,大连添翼物业服务有限公司,2,辽宁,2,二手房,2013
中山区益民街16号1层1号,大连,大连三鑫房地产开发有限公司,中山,20190514,38.93092761298906,121.66470740073377,金和苑,14,22212,大连报业物业管理有限公司三鑫分公司,3.5,辽宁,2,二手房,2004
中山区金城街26号一楼,大连,辽宁远大房屋开发有限公司,中山,20190514,38.922282529515634,121.65214466263014,远大大厦,42,9796,街道办事处（居委会）代管物业,2.5,辽宁,2,二手房,2000
沙河口区华北路404号,大连,无开发商,沙河口,20190514,38.8862815932937,121.59082948696123,园丁巷,5,9698,街道办事处（居委会）代管物业,0.3,辽宁,2,二手房,1990
无门店信息,大连,大连宝泰华置业发展有限公司,金州,20190514,34.52713835999158,118.76812980670795,海天富地,31,12840,大连戴德梁行物业管理有限公司,1.6,辽宁,2,二手房,2012
金州新区先进街道五一路350-1号1-2层,大连,暂无信息,金州,20190514,39.078667146419825,121.77094423323935,聚鑫小区一期,57,7374,大连新生活物业管理有限公司,0.5,辽宁,2,二手房,1993
甘井子区山东路127-2号,大连,无开发商,甘井子,20190514,38.99065559549029,121.59126483545545,七迎路,37,12329,街道办事处（居委会）代管物业,0.2,辽宁,2,二手房,1995
大连市甘井子区丰收路3-5号,大连,大连壹高房地产发展有限公司,甘井子,20190514,38.965377255081755,121.58288415324094,朗香小镇,19,21661,大连顶点物业管理有限公司,1.3,辽宁,2,二手房,2011
西岗区平等街21号1层2号,大连,辽宁宁安房地产开发有限公司,西岗,20190514,38.92251066253164,121.63236845125735,良玖国际,32,15950,大连良玖物业管理有限责任公司,3.7,辽宁,2,二手房,2005
沙河口区黑石礁街3号1层1-1号,大连,大连建隆置业有限公司,沙河口,20190514,38.880058010307856,121.56313403908827,富丽庭,23,19119,达波尔酒店物业管理（大连）有限公司,2.4,辽宁,2,二手房,2010
中山区碧浪园4号-3号,大连,大连三寰房地产开发有限公司,中山,20190514,38.89147289460474,121.69329560326236,碧浪园三期,15,16396,大连峰霖物业管理有限公司,0.3,辽宁,2,二手房,2002
高新园区火炬路18号,大连,大连千业房地产开发有限公司,高新园区,20190514,38.937738080520404,117.39340752036043,第8区,41,17645,大连大管家物业管理有限公司,1.9,辽宁,2,二手房,2012
天河路173-2号 华润考拉22号公建,大连,大连华南房地产开发有限公司,甘井子,20190514,23.14720645345518,113.3277414923158,名贵山庄华丽园,17,13413,大连弘益达物业管理有限公司,0.5,辽宁,2,二手房,2002
甘井子区锦城东园1号3单元1层2号,大连,大连鹏生房地产开发有限公司,甘井子,20190514,38.952805477462775,121.55656194973994,鹏辉新纪元,14,16422,大连鹏辉物业管理有限公司,0.5,辽宁,2,二手房,2006
西岗区八一路102号,大连,无开发商,西岗,20190514,38.92047268927287,121.61862512554262,智勇西二巷,9,9824,无物业管理服务,-,辽宁,2,二手房,1993
金州区站前街道盛滨花园B区13号楼2号公建,大连,大连阿尔滨集团房地产开发有限公司,金州,20190514,39.09609011892329,121.7335816409767,现代雅筑,40,6704,大连阿尔滨集团物业管理有限公司,0.5,辽宁,2,二手房,2009
甘井子区泉水P3区35-2号,大连,大连鑫成置业有限公司,甘井子,20190514,39.01530162252779,121.63546089163083,欧尚广场,40,18018,大连宏华物业服务有限公司,1.5,辽宁,2,二手房,2014
沙河口区五四路207-1-9号,大连,中航国际中航地产,沙河口,20190514,38.913544290955585,121.59450670056631,中航国际广场,28,24021,中航物业管理有限公司大连分公司,3.6,辽宁,2,二手房,2017
沙河口区连山街10号2-1-2,大连,无开发商,沙河口,20190514,38.89637522563413,121.57143690983219,桃山电业楼,3,12951,无物业管理服务,-,辽宁,2,二手房,1998
沙河口区富国街34-3,大连,大连万达房地产开发有限公司,沙河口,20190514,38.90159716600704,121.58930603357904,星海自由港,17,20608,大连万景物业管理有限公司,1.2,辽宁,2,二手房,2003
甘井子区华东路33-5号,大连,暂无信息,甘井子,20190514,38.97497080220593,121.59479866243332,松江路（80中）,30,13197,大连新华物业管理有限公司,-,辽宁,2,二手房,1993
高新园敬贤街23-11号,大连,中海东丰地产（大连）有限公司,高新园区,20190514,38.869456648212356,121.53023725049893,中海紫御观邸三期,32,20611,大连中海物业管理有限公司,2.6,辽宁,2,二手房,2014
大连市甘井子区融田西园52-11,大连,亿达集团大连科技城发展有限公司,甘井子,20190514,38.95800216293212,121.53151895549547,亿达春田馥园,67,20152,亿达物业管理有限公司,1.5,辽宁,2,二手房,2011
无门店信息,大连,无开发商,金州,20190514,34.52713835999158,118.76812980670795,香山翌景,21,7290,街道办事处（居委会）代管物业,0.5,辽宁,2,二手房,2010
甘井子区红旗西路104-7,大连,大连安邦房地产开发有限公司,甘井子,20190514,38.940335495502666,121.52722586363274,水畔香谷,16,14938,大连万科绿色家园物业有限公司,1,辽宁,2,二手房,2007
甘井子区柳树南街45-11号,大连,中海新海汇（大连）置业有限公司,甘井子,20190514,38.92567666296449,121.4841330254372,中海御湖熙谷,71,15160,大连中海物业管理有限公司,2.2,辽宁,2,二手房,2014
甘井子区红旗中路143号1层4号,大连,亿海房地产开发有限公司,甘井子,20190514,38.93169566676921,121.5426632438217,红旗西路,3,11297,大连万泰物业管理有限公司,0.2,辽宁,2,二手房,1997
金州区光明街道育才街42-6号1-2层,大连,无开发商,金州,20190514,39.109080894078986,121.7182584929096,职高西小区,18,8488,街道办事处（居委会）代管物业,0.5,辽宁,2,二手房,1989
沙河口区黄河路883号,大连,无开发商,沙河口,20190514,38.919826721475204,121.57749657966676,黄河路（辽师商圈）,2,11923,大连辽南物业管理有限公司,0.5,辽宁,2,二手房,1970
中山区共建巷61号,大连,无开发商,中山,20190514,38.91828093658718,121.66259221532148,39中明泽街,16,22698,无物业管理服务,-,辽宁,2,二手房,1993
沙河口区西南路40号楼,大连,无开发商,沙河口,20190514,38.94143337232082,121.58616557598133,黑石礁景山,15,12083,无物业管理服务,-,辽宁,2,二手房,1990
沙河口区锦霞南园13号3-1-1,大连,大连锦绣房地产开发有限公司,沙河口,20190514,38.94761264366187,121.55126272246873,锦华南园,19,10407,大连锦绣物业管理有限公司,0.3,辽宁,2,二手房,2002
开发区黄海西路201号107公建,大连,无开发商,开发区,20190514,39.04942604506828,121.80126318235419,倚平里,37,8104,街道办事处（居委会）代管物业,0.5,辽宁,2,二手房,2000
沙河口区鞍山路65号美都园7号1单元1层4号公建,大连,大连美辰房地产开发有限公司,沙河口,20190514,38.92755211283745,121.60306664748275,丽景春天,28,18933,大连远洋基业物业管理有限公司,0.8,辽宁,2,二手房,2003
经济技术开发区红星海-A区81-2号1层,大连,无开发商,开发区,20190514,39.027851194371685,121.80327394132297,西雅图,35,10251,大连维泰物业管理有限公司,0.8,辽宁,2,二手房,2004
无门店信息,大连,大连安邦房地产开发有限公司,甘井子,20190514,34.52713835999158,118.76812980670795,西郊闲庭,20,12525,大连龙城物业服务有限公司,1,辽宁,2,二手房,2010
甘井子区柳树南街45-11号,大连,大连顺达房屋开发有限公司,甘井子,20190514,38.92567666296449,121.4841330254372,顺达温泉花园一期,10,11402,大连顺达物业服务有限公司,0.6,辽宁,2,二手房,2003
西岗区八一路102号,大连,大连澳南房屋开发有限公司,中山,20190514,38.92047268927287,121.61862512554262,明秀山庄A区,59,34227,绿城物业服务集团有限公司大连分公司,1.9,辽宁,2,二手房,2008
中山区民建街10号1单元1号,大连,无开发商,中山,20190514,38.925444479476894,121.66915026954452,39中金域朝阳,4,17811,无物业管理服务,-,辽宁,2,二手房,2000
大连市沙河口区西南路875号1层21号,大连,无开发商,沙河口,20190514,38.94485969061231,121.58418648447764,春风巷,6,11305,街道办事处（居委会）代管物业,0.5,辽宁,2,二手房,1993
中山区民建街10号1单元1号,大连,无开发商,中山,20190514,38.925444479476894,121.66915026954452,39中和阳街,18,18105,无物业管理服务,-,辽宁,2,二手房,1990
沙河口区西南路851号3单元1层3号,大连,无开发商,沙河口,20190514,38.94344210837944,121.58246796944378,凌山二街,4,11076,无物业管理服务,-,辽宁,2,二手房,1985
中山区华乐街93—1号,大连,大连鸿雁房地产开发公司,中山,20190514,38.921950924512124,121.68673151242629,海之恋花园,22,16680,大连鸿雁物业有限公司,0.8,辽宁,2,二手房,2001
中山区民建街10号1单元1号,大连,无开发商,中山,20190514,38.925444479476894,121.66915026954452,39中民建街,11,20207,无物业管理服务,-,辽宁,2,二手房,1995
金州区拥政街道733号-8号1-2层,大连,无开发商,金州,20190514,39.11690610445662,121.73030803603723,414小区,95,7305,街道办事处（居委会）代管物业,0.5,辽宁,2,二手房,1989
高新园区敬贤街25-9,大连,大连东盛房地产开发有限公司,高新园区,20190514,38.86879447142154,121.53007349209936,东盛启城,33,17602,大连东盛物业管理有限公司,2.3,辽宁,2,二手房,2012
沙河口区五四路207-1-9号,大连,无开发商,沙河口,20190514,38.913544290955585,121.59450670056631,五四路,13,12324,无物业管理服务,-,辽宁,2,二手房,1992
沙河口区星海广场B3区14-2号1层,大连,大连友谊合升房地产开发有限公司,沙河口,20190514,38.88693148294673,121.58735631267305,壹品星海公寓,35,18164,大连富丽华物业管理有限公司,1.5,辽宁,2,二手房,2003
开发区湾里南12栋-16-17-18号,大连,开发区城建局,开发区,20190514,39.070782084451,121.8506739675913,宜宁里,46,5812,大连宏港物业管理有限公司,0.2,辽宁,2,二手房,1992
红星海A区126-4,大连,暂无信息,开发区,20190514,39.027851194371685,121.80327394132297,红星海一期艺墅,51,16794,大连远洋基业物业管理有限公司,0.5,辽宁,2,二手房,2009
金州区小平岛B组团4号楼3号商铺,大连,安达圣岛开发有限公司,高新园区,20190514,39.05643299166072,121.78943558267059,小平岛亲海园,60,17275,大连凯尔富物业管理有限公司,1.3,辽宁,2,二手房,2007
经济技术开发区红星海-A区81-2号1层,大连,远洋地产有限公司,开发区,20190514,39.027851194371685,121.80327394132297,红星海三期境界,88,13874,大连远洋基业物业管理有限公司,2.2,辽宁,2,二手房,2012
沙河口区星海广场B3区14-2号1层,大连,大连万达房地产开发有限公司,沙河口,20190514,38.88693148294673,121.58735631267305,大连明珠,72,26401,大连万象美物业管理有限公司,3.5,辽宁,2,二手房,2008
甘井子区迎客路郭东街一品蓝天公建14号,大连,沈阳军区后勤部,甘井子,20190514,38.958456949708726,121.556756277476,虹桥干休所,9,13267,大连虹桥物业管理中心,0.1,辽宁,2,二手房,2000
沙河口区新生路万客园3-7,大连,大连中海兴业房地产开发有限公司,沙河口,20190514,38.94412875710208,121.57006756704837,中海天赋山一期,28,22383,大连中海物业管理有限公司,2.8,辽宁,2,二手房,2016
开发区东北三街94号1层,大连,大连万瑞达房地产投资有限公司,开发区,20190514,39.05723508011585,121.80570768630555,万瑞达国际公馆,20,7964,大连万瑞达物业管理公司,1.2,辽宁,2,二手房,2012
高新园区敬贤街25-9,大连,大连海逸房地产开发有限公司,高新园区,20190514,38.86879447142154,121.53007349209936,海逸诺丁山,28,19901,大连耕海物业服务有限公司,2.5,辽宁,2,二手房,2015
高新园敬贤街23-11号,大连,暂无信息,高新园区,20190514,38.869456648212356,121.53023725049893,中海紫御观邸二期,25,21614,大连中海物业管理有限公司,2.6,辽宁,2,二手房,2013
金州区光明街道育才街42-6号1-2层,大连,无开发商,金州,20190514,39.109080894078986,121.7182584929096,光明小区(金州),13,8747,无物业管理服务,0.5,辽宁,2,二手房,1995
无门店信息,大连,大连新兴海韵房地产开发有限公司,金州,20190514,34.52713835999158,118.76812980670795,通用阳光丽景,77,7038,街道办事处（居委会）代管物业,1.4,辽宁,2,二手房,2013
大连市甘井子中华路街道汇畅街48号,大连,大连嘉盈置业有限公司,甘井子,20190514,39.0059299196697,121.59621871231741,宏都熙景,34,22584,大连宏都物业管理有限公司,2.3,辽宁,2,二手房,2016
西岗区康平街2号（5号楼3-1-3号）,大连,暂无信息,西岗,20190514,38.91044414697888,121.61980769264477,34中民众街,19,28892,无物业管理服务,-,辽宁,2,二手房,1990
中山区同心街72号1楼公建,大连,大连振屹房屋开发有限公司,中山,20190514,38.91979245940674,121.64769198230202,城市广场,22,15376,大连振屹物业有限公司,3.5,辽宁,2,二手房,2006
无门店信息,大连,北方沿海房地产开发（大连）有限公司,沙河口,20190514,34.52713835999158,118.76812980670795,星海大观,197,17341,北京世邦魏理仕物业管理服务有限公司大连分公司,4.4,辽宁,2,二手房,2008
甘井子区华龙南园34-5号34-库4号34-5号,大连,大连运达房地产集团有限公司,甘井子,20190514,38.98270467597865,121.6117222765123,泊岭紫郡,24,13148,大连怡和物业服务有限公司,0.9,辽宁,2,二手房,2009
中山区金城街26号一楼,大连,无开发商,中山,20190514,38.922282529515634,121.65214466263014,九中白兰街,20,36247,无物业管理服务,-,辽宁,2,二手房,1995
沙河口区前程街15号1层E-C轴36-44轴公建,大连,无开发商,甘井子,20190514,38.91588050824643,121.60099647548584,顺河巷,0,12411,无物业管理服务,-,辽宁,1,二手房,1989
开发区金源南里14栋-11号一层部分，14号-12号一层部分,大连,大连经济技术开发区金源实业有限公司,开发区,20190514,39.06148862675436,121.82503941311765,金源名府,29,10656,街道办事处（居委会）代管物业,1,辽宁,2,二手房,2009
沙河口区红旗东路18-22号2单元1楼3号,大连,无开发商,甘井子,20190514,38.913544290955585,121.59450670056631,兰兴巷,0,12616,大连辽南物业管理有限公司,0.2,辽宁,1,二手房,1992
甘井子区泉水B5区27-9,大连,大连万锦房地产开发有限公司,甘井子,20190514,39.01477152073682,121.60970286326823,万锦民悦一期,12,12807,大连瑞祥物业管理有限公司,0.5,辽宁,1,二手房,2007
中山区鲁迅路204号百盛新药特药商店一楼西侧部分,大连,暂无信息,中山,20190514,38.9258993614899,121.6768880001226,华山街,0,10100,无物业管理服务,-,辽宁,1,二手房,-
中山区中南路226号,大连,大连永薪房屋开发有限公司,中山,20190514,38.90029610333926,121.68178899957817,海神花园,4,14531,大连永佳物业管理有限公司,1,辽宁,1,二手房,1999
西岗区胜利路33号,大连,暂无信息,西岗,20190514,38.91309771954841,121.62500886627636,34中云山街,0,39472,暂无信息,-,辽宁,1,二手房,1990
甘井子区迎客路郭东街一品蓝天公建14号,大连,暂无信息,甘井子,20190514,38.958456949708726,121.556756277476,军休家园,0,11191,无物业管理服务,-,辽宁,1,二手房,1995
中山区安居巷7号,大连,暂无信息,西岗,20190514,38.92451111549568,121.65154739366945,群联巷（胜利桥北商圈）,0,10040,暂无信息,-,辽宁,1,二手房,1975
中山区武昌街武昌公寓6号公建,大连,无开发商,中山,20190514,38.912280913445784,121.64921130527547,绿山巷,0,15353,无物业管理服务,-,辽宁,1,二手房,1986
中山区岭前街53-5,大连,无开发商,中山,20190514,38.89487069426055,121.65795959631497,连胜巷,0,10051,无物业管理服务,-,辽宁,1,二手房,1990
沙河口区中山路417A-4号,大连,大连宝嘉房地产有限公司,沙河口,20190514,38.90740323140171,121.59484801084653,德源,7,27374,大连中和信邦物业管理有限公司,1.9,辽宁,1,二手房,2008
中山区岭前街53-5,大连,暂无信息,西岗,20190514,38.89487069426055,121.65795959631497,民主街（青云街商圈）,0,8189,无物业管理服务,-,辽宁,1,二手房,1991
大连市沙河口区西南路875号1层21号,大连,暂无信息,沙河口,20190514,38.94485969061231,121.58418648447764,凌云一街,0,9557,暂无信息,-,辽宁,1,二手房,-
中山区爱华街13号,大连,暂无信息,中山,20190514,38.92541607518685,121.6535728031028,向前街（中山友好商圈）,0,12926,暂无信息,-,辽宁,1,二手房,-
中山区安居巷7号,大连,无开发商,中山,20190514,38.92451111549568,121.65154739366945,宏孚大厦,0,5672,街道办事处（居委会）代管物业,2,辽宁,1,二手房,2008
沙河口区五四路207-1-9号,大连,无开发商,沙河口,20190514,38.913544290955585,121.59450670056631,动力花园,0,20650,无物业管理服务,-,辽宁,1,二手房,2004
沙河口区五四路207-1-9号,大连,无开发商,沙河口,20190514,38.913544290955585,121.59450670056631,新生巷,0,12268,街道办事处（居委会）代管物业,0.5,辽宁,1,二手房,-
中山区解放路471-22号,大连,无开发商,西岗,20190514,38.901309943567504,121.65419095766659,捷庆里,0,9012,街道办事处（居委会）代管物业,-,辽宁,1,二手房,1992
西岗区康平街2号（5号楼3-1-3号）,大连,暂无信息,西岗,20190514,38.91044414697888,121.61980769264477,胜利路（莲花白云商圈）,0,10844,无物业管理服务,-,辽宁,1,二手房,1999
西岗区八一路196号1-3,大连,无开发商,西岗,20190514,38.92047268927287,121.61862512554262,靠山北巷（青云街商圈）,0,10125,无物业管理服务,-,辽宁,1,二手房,1993
"西岗区泰公街20号2层7号 西岗区久寿街22号1层14号""",大连,无开发商,西岗,20190514,38.92600196862723,121.62141976476381,银华双厦,5,11197,无物业管理服务,-,辽宁,1,二手房,1999
莲花山路89-3号,大连,无开发商,沙河口,20190514,38.902848261803356,121.6041720815823,拥民巷,4,11609,无物业管理服务,-,辽宁,1,二手房,2000
中山区安居巷7号,大连,无开发商,中山,20190514,38.92451111549568,121.65154739366945,建华街,4,14708,无物业管理服务,1,辽宁,1,二手房,1995
沙河口区富国街14号1-1-2,大连,无开发商,沙河口,20190514,38.901027106600836,121.59047734850638,星光街,3,12925,街道办事处（居委会）代管物业,0.5,辽宁,1,二手房,-
沙河口区西南路851号3单元1层3号,大连,暂无信息,沙河口,20190514,38.94344210837944,121.58246796944378,凌山四街,2,11781,暂无信息,-,辽宁,1,二手房,-
中山区职工街96号1-3层公建,大连,无开发商,中山,20190514,38.92565613737007,121.66193575790903,明泽街（三八广场）,2,13611,无物业管理服务,-,辽宁,1,二手房,1993
沙河口区五四路207-1-9号,大连,无开发商,沙河口,20190514,38.913544290955585,121.59450670056631,连胜街,7,12734,无物业管理服务,-,辽宁,1,二手房,1999
中山区鲁迅路184号1层B—A,大连,无开发商,中山,20190514,38.92590875965419,121.67594393403164,听海新居,1,22034,大连兆宇物业管理有限公司,0.6,辽宁,1,二手房,2003
大连经济技术开发区同和里7栋-9号,大连,无开发商,开发区,20190514,39.04901984220615,121.7885236929847,绿色家园小区,7,11148,大连经济技术开发区白石物业管理有限公司,0.5,辽宁,1,二手房,2002
中山区爱华街13号,大连,无开发商,中山,20190514,38.92541607518685,121.6535728031028,七一街,4,11697,无物业管理服务,-,辽宁,1,二手房,1993
中山区爱华街13号,大连,无开发商,中山,20190514,38.92541607518685,121.6535728031028,万民街（三八广场）,4,12575,无物业管理服务,-,辽宁,1,二手房,1993
中山区北斗街53号1层1号,大连,无开发商,中山,20190514,38.92727355733075,121.67002970974048,民德街,5,11937,无物业管理服务,-,辽宁,1,二手房,2000
沙河口区联合路133号,大连,无开发商,沙河口,20190514,38.91608561262676,121.60480987310456,21中同泰街,4,20295,无物业管理服务,-,辽宁,1,二手房,1984
中山区安居巷7号,大连,无开发商,中山,20190514,38.92451111549568,121.65154739366945,上海路（中山友好）,5,11337,无物业管理服务,-,辽宁,1,二手房,1995
中山区鲁迅路184号1层B—A,大连,无开发商,中山,20190514,38.92590875965419,121.67594393403164,北斗街（寺儿沟商圈）,2,14109,无物业管理服务,-,辽宁,1,二手房,1999
西岗区黄河路362号公建,大连,无开发商,西岗,20190514,38.91819905243802,121.61365779430986,建业街,5,13003,无物业管理服务,-,辽宁,1,二手房,1995
沙河口区兰田街33号,大连,无开发商,沙河口,20190514,38.926138912221084,121.56486022834609,西苑新区,4,14334,街道办事处（居委会）代管物业,0.3,辽宁,1,二手房,2000
沙河口区成仁街91号,大连,暂无信息,沙河口,20190514,38.91539947107844,121.59585638842556,建和巷,6,17252,无物业管理服务,-,辽宁,1,二手房,-
开发区杏树里10栋-14,大连,大连开建集团有限公司,开发区,20190514,39.08113818354046,121.78505742127606,杏林山庄二期,16,9740,华隆物业管理有限责任公司,0.8,辽宁,1,二手房,2005
无门店信息,大连,无开发商,金州,20190514,34.52713835999158,118.76812980670795,伟桥嘉园,6,7540,无物业管理服务,0.5,辽宁,1,二手房,-
中山区民建街10号1单元1号,大连,大连安达房地产开发有限公司,中山,20190514,38.925444479476894,121.66915026954452,39中安达大厦公寓楼,6,18505,大连凯尔富物业管理有限公司,2.8,辽宁,1,二手房,2009
中山区南山路59号1层4号,大连,深圳市东山开发有限公司,中山,20190514,38.91992239075882,121.6479206962747,昆明花园,5,20731,深圳市东山物业管理有限公司,0.5,辽宁,1,二手房,2000
西岗区长春路334号,大连,无开发商,西岗,20190514,38.89807766522607,121.63221082858387,连桥巷,4,11232,无物业管理服务,-,辽宁,1,二手房,1990
中山区安居巷7号,大连,无开发商,西岗,20190514,38.92451111549568,121.65154739366945,先进街（胜利桥北商圈）,7,10534,无物业管理服务,-,辽宁,1,二手房,1990
无门店信息,大连,暂无信息,金州,20190514,34.52713835999158,118.76812980670795,东方百合海韵生活馆,11,8744,无物业管理服务,-,辽宁,1,二手房,2000
大连市开发区抚顺街30号,大连,无开发商,开发区,20190514,38.92272284555705,121.5977239817503,佳地外商公寓,4,9119,大连豪景酒店物业管理有限公司,0.9,辽宁,1,二手房,2006
甘井子区汇仁街19号12号楼1单元102室,大连,大连华南地产开发有限公司,甘井子,20190514,38.99746297497168,121.58917714380617,华南国际公寓,4,10638,大连顺达物业服务有限公司,1.7,辽宁,1,二手房,2005
金州区南棉路310号,大连,暂无信息,金州,20190514,39.09939229372624,121.72414976100345,金乾公馆,10,8198,无物业管理服务,-,辽宁,1,二手房,-
中山区三八广场5号,大连,大连宏正房地产开发有限公司,中山,20190514,38.92540000551715,121.6642911149562,宏都嘉园,2,22392,大连宏进物业管理有限公司,1.5,辽宁,1,二手房,2002
甘井子区金家街17-7号,大连,大连新型房地产开发有限公司,甘井子,20190514,38.97493697764367,121.60110987128529,翰林苑,7,23007,大连新兴物业管理有限公司,2,辽宁,1,二手房,2014
中山区民建街10号1单元1号,大连,暂无信息,中山,20190514,38.925444479476894,121.66915026954452,港湾街（二七商圈）,5,20180,无物业管理服务,-,辽宁,1,二手房,2000
中山区安居巷7号,大连,大连北方工业房屋开发公司,西岗,20190514,38.92451111549568,121.65154739366945,温馨花园（胜利桥北商圈）,3,10700,北方物业开发有限公司,0.5,辽宁,1,二手房,2000
沙河口区长江路738号,大连,大连民兴房地产开发有限公司,沙河口,20190514,38.913544290955585,121.59450670056631,79中民兴花园一期,8,27951,大连衡德物业管理有限公司,1.2,辽宁,1,二手房,2002
甘井子区华东路22号公建,大连,无开发商,甘井子,20190514,38.97736184953593,121.5935814234334,经二街,2,11736,街道办事处（居委会）代管物业,0.5,辽宁,1,二手房,1993
西岗区九三街64号,大连,暂无信息,西岗,20190514,38.92047268927287,121.61862512554262,珠江国际大厦,1,6535,街道办事处（居委会）代管物业,20,辽宁,1,二手房,2004
金州区先进街道渤海街1-4号1-2层,大连,暂无信息,金州,20190514,39.09512910553563,121.74578812616167,书香苑小区,2,8785,暂无信息,0.5,辽宁,1,二手房,2006
无门店信息,大连,大连运达房地产集团有限公司,甘井子,20190514,34.52713835999158,118.76812980670795,运达诺维溪谷四期,5,16909,大连运达物业有限公司,2,辽宁,1,二手房,2015
大连市沙河口区西南路875号1层21号,大连,暂无信息,沙河口,20190514,38.94485969061231,121.58418648447764,春柳中心,4,12998,大连新兴物业管理有限公司,0.1,辽宁,1,二手房,1985
中山区岭前街53-5,大连,大连市桃源雅居房地产开发有限公司,中山,20190514,38.89487069426055,121.65795959631497,桃源雅居,5,19999,大连远洋基业物业管理有限公司,1,辽宁,1,二手房,2010
西岗区康平街2号（5号楼3-1-3号）,大连,大连新型房地产开发有限公司,西岗,20190514,38.91044414697888,121.61980769264477,新华公寓,3,17104,大连新型物业管理有限公司,0.5,辽宁,1,二手房,1997
甘井子区华东路22号公建,大连,无开发商,甘井子,20190514,38.97736184953593,121.5935814234334,经三街,8,12837,无物业管理服务,-,辽宁,1,二手房,1993
中山区解放路471-22号,大连,无开发商,中山,20190514,38.901309943567504,121.65419095766659,保卫巷,1,17386,无物业管理服务,-,辽宁,1,二手房,1998
中山区金城街26号一楼,大连,无开发商,中山,20190514,38.922282529515634,121.65214466263014,昆明街（阳光巷）,3,15460,无物业管理服务,-,辽宁,1,二手房,1991
中山区鲁迅路204号百盛新药特药商店一楼西侧部分,大连,大连东亚房地产开发有限公司,中山,20190514,38.9258993614899,121.6768880001226,蓝色海岸,8,14348,大连峰霖物业管理有限公司,0.5,辽宁,1,二手房,2002
中山区岭前街53-5,大连,无开发商,西岗,20190514,38.89487069426055,121.65795959631497,文化街（青云街商圈）,2,11473,无物业管理服务,-,辽宁,1,二手房,1985
西岗区中山路158号唐山街市场外14号,大连,大华集团大连房地产开发有限公司,西岗,20190514,38.91688106727098,121.63201298398174,畅通花园,2,20586,大连亿安物业管理有限公司,0.6,辽宁,1,二手房,2002
无门店信息,大连,大连中政房地产开发有限公司,中山,20190514,34.52713835999158,118.76812980670795,龙溪村,7,16227,大连中政物业管理有限公司,0.8,辽宁,1,二手房,2002
中山区碧浪园4号-3号,大连,大连铁路房地产开发有限责任公司,中山,20190514,38.89147289460474,121.69329560326236,山水家园一期,3,18529,大连虎滩置业物业管理有限公司,0.2,辽宁,1,二手房,1999
中山区解放路471-22号,大连,暂无信息,中山,20190514,38.901309943567504,121.65419095766659,青云公寓,2,8882,暂无信息,1,辽宁,1,二手房,1990
大连市沙河口区黄河路729号,大连,无开发商,沙河口,20190514,38.91710565765228,121.58954758972729,黄河路（西安路商圈）,2,9551,无物业管理服务,-,辽宁,1,二手房,1995
中山区解放路604号,大连,无开发商,中山,20190514,38.89026319122045,121.66407876092346,广智巷,1,14506,无物业管理服务,-,辽宁,1,二手房,1996
中山区金城街26号一楼,大连,暂无信息,中山,20190514,38.922282529515634,121.65214466263014,昆明街（一德街）,1,14106,暂无信息,-,辽宁,1,二手房,1992
中山区东港龙湖水晶郦湾7-102,大连,大连广森房地产开发有限公司,中山,20190514,38.924700620463895,121.70344398518496,国合锦府,2,21557,大连国合物业管理有限公司,3,辽宁,1,二手房,2016
甘井子区锦城西园4#3-1-1,大连,沈阳军区后勤部,甘井子,20190514,38.95286223185571,121.55129044777,金寓花园一期,3,15704,大连瑞祥物业管理有限公司,0.5,辽宁,1,二手房,2003
西岗区大同街125号,大连,大连名仕房地产开发有限公司,西岗,20190514,38.920458602340894,121.61445835429899,中央复兴里,7,24124,大连名仕物业管理有限公司,2.1,辽宁,1,二手房,2010
开发区杏花里13#楼-7号,大连,无开发商,开发区,20190514,31.31075067906954,120.63127837058457,杏树里,12,9659,华隆物业管理有限责任公司,0.4,辽宁,1,二手房,2010
沙河口区南沙街36号台二2号1-1-37,大连,大连三寰房屋开发有限公司,沙河口,20190514,38.90741410359388,121.57685699961822,南平花园,5,17960,大连上达物业管理有限公司,0.3,辽宁,1,二手房,2001
大连经济技术开发区同和里7栋-9号,大连,开发区城建局,开发区,20190514,39.04901984220615,121.7885236929847,东山花园,13,13611,大连戎旅物业管理有限公司,0.8,辽宁,1,二手房,2006
西岗区平等街21号1层2号,大连,远洋地产有限公司,西岗,20190514,38.92251066253164,121.63236845125735,丽都花园,9,18148,无物业管理服务,1.5,辽宁,1,二手房,1997
高新园区海苑街36号1单元2号公建,大连,大连宜兴房地产开发有限公司,高新园区,20190514,20.06392317589085,110.32302599457326,彼得公寓,4,14464,宜兴物业管理有限公司,1,辽宁,1,二手房,2008
中山区金城街26号一楼,大连,暂无信息,中山,20190514,38.922282529515634,121.65214466263014,延安路,3,24018,无物业管理服务,-,辽宁,1,二手房,1985
西岗区新田巷27号1-2,大连,无开发商,西岗,20190514,38.893215932589385,121.64103065169111,新联巷,3,11552,无物业管理服务,-,辽宁,1,二手房,1996
中山区解放路471-22号,大连,无开发商,中山,20190514,38.901309943567504,121.65419095766659,望海巷,2,10581,街道办事处（居委会）代管物业,-,辽宁,1,二手房,1985
西岗区康平街2号（5号楼3-1-3号）,大连,暂无信息,西岗,20190514,38.91044414697888,121.61980769264477,34中水仙街,4,30138,无物业管理服务,-,辽宁,1,二手房,1995
西岗区黄河路90号公建部分,大连,大连兴昌房屋开发有限公司,西岗,20190514,38.92234529815978,121.62829331825485,兴昌都市首府,8,32222,大连戴德梁行物业管理有限公司,1.5,辽宁,1,二手房,2005
西岗区新田巷27号1-2,大连,大连安大房屋开发有限公司,西岗,20190514,38.893215932589385,121.64103065169111,仲夏花园,4,14024,大连长风物业管理有限公司,0.4,辽宁,1,二手房,1997
金州区光明街道育才街42-6号1-2层,大连,大连市金州区光明房地产开发有限公司,金州,20190514,39.109080894078986,121.7182584929096,学府世家,2,11521,大连永和物业管理有限公司,1.2,辽宁,1,二手房,2011
中山区南山路59号1层4号,大连,暂无信息,中山,20190514,38.91992239075882,121.6479206962747,平阳街（昆明街）,1,15082,无物业管理服务,-,辽宁,1,二手房,1988
中山区安居巷7号,大连,无开发商,中山,20190514,38.92451111549568,121.65154739366945,德光巷,1,9962,无物业管理服务,-,辽宁,1,二手房,1990
无门店信息,大连,暂无信息,西岗,20190514,34.52713835999158,118.76812980670795,民航大连疗养院,1,15473,无物业管理服务,-,辽宁,1,二手房,1990
沙河口区民权街324号,大连,无开发商,沙河口,20190514,38.92064616208148,121.59777611850379,富鸿国际大厦,6,14032,北京凯莱物业管理有限公司大连分公司,1.5,辽宁,1,二手房,2000
西岗区长春路334号,大连,无开发商,西岗,20190514,38.89807766522607,121.63221082858387,桥东巷,5,11049,无物业管理服务,-,辽宁,1,二手房,1995
中山区武昌街武昌公寓6号公建,大连,无开发商,中山,20190514,38.912280913445784,121.64921130527547,铁山巷（南山商圈）,2,13497,街道办事处（居委会）代管物业,1,辽宁,1,二手房,1990
西岗区新田巷11号三单元103,大连,无开发商,西岗,20190514,38.89276612016956,121.64190731791966,新水巷,1,11977,无物业管理服务,-,辽宁,1,二手房,1990
甘井子区金北路17号,大连,安华房地产开发公司,甘井子,20190514,38.97553393692831,121.59969720502335,金荣园,13,21082,业主自筹物业,0.3,辽宁,1,二手房,1996
开发区东北三街94号1层,大连,暂无信息,开发区,20190514,39.05723508011585,121.80570768630555,辽河石油勘探局家属楼,3,6836,无物业管理服务,0.1,辽宁,1,二手房,2008
开发区松苑街23号,大连,大连开建集团有限公司,开发区,20190514,22.52087435807652,113.40156105086167,皇嘉花园,5,20123,业主自筹物业,1,辽宁,1,二手房,2005
西岗区绕山路31号公建一层东侧,大连,无开发商,西岗,20190514,38.90257514466717,121.61412736644739,山庄北三街,9,10640,无物业管理服务,-,辽宁,1,二手房,1990
金州区拥政街道733号-8号1-2层,大连,暂无信息,金州,20190514,39.11690610445662,121.73030803603723,八一花园,15,7931,暂无信息,0.2,辽宁,1,二手房,2000
开发区润海园中区62-9,大连,大连金广嘉亿置地有限公司,开发区,20190514,39.04047273176333,121.76392358042445,大连海湾城四期,3,13839,大连金广物业服务有限公司,3,辽宁,1,二手房,2016
中山区中南路226号,大连,大连市建设控股有限公司,中山,20190514,38.90029610333926,121.68178899957817,欧洲小镇,12,18039,大连大众物业管理有限公司,0.8,辽宁,1,二手房,2004
西岗区黄河路82号,大连,无开发商,西岗,20190514,38.92243503020161,121.6287927913896,昌乐街（大菜市商圈）,5,11257,无物业管理服务,-,辽宁,1,二手房,1995
西岗区长春路334号,大连,无开发商,西岗,20190514,38.89807766522607,121.63221082858387,花园巷,1,9574,无物业管理服务,-,辽宁,1,二手房,1990
沙河口区西南路851号3单元1层3号,大连,无开发商,沙河口,20190514,38.94344210837944,121.58246796944378,凌山五街,3,10307,街道办事处（居委会）代管物业,0.3,辽宁,1,二手房,1990
中山区武昌街武昌公寓6号公建,大连,无开发商,中山,20190514,38.912280913445784,121.64921130527547,向阳街,11,11343,无物业管理服务,-,辽宁,1,二手房,1980
大连市沙河口区黄河路729号,大连,无开发商,沙河口,20190514,38.91710565765228,121.58954758972729,好利高层,7,12048,无物业管理服务,-,辽宁,1,二手房,1995
中山区中南路226号,大连,大连华钧房地产开发有限公司,中山,20190514,38.90029610333926,121.68178899957817,半山花园,4,12148,大连仁和物业管理有限公司,0.7,辽宁,1,二手房,2000
中山区中南路226号,大连,大连大业房屋开发有限公司,中山,20190514,38.90029610333926,121.68178899957817,阳光花园一期,7,12618,大连全得利物业管理有限公司,0.5,辽宁,1,二手房,1997
中山区华乐街107-115号1单元1层2号,大连,大连华旭置业有限公司,中山,20190514,38.92093821499401,121.68879267531725,东港第,21,34668,大连华锐世纪物业管理有限公司,3,辽宁,1,二手房,2015
甘井子区华龙南园34-5号34-库4号34-5号,大连,大连台安房屋开发有限公司,甘井子,20190514,38.98270467597865,121.6117222765123,台安274,6,11264,街道办事处（居委会）代管物业,0.5,辽宁,1,二手房,2009
无门店信息,大连,中体产业集团大连乐百年置业有限公司,甘井子,20190514,34.52713835999158,118.76812980670795,中体九号院别墅,5,24974,广东中奥物业有限公司大连分公司,4.5,辽宁,1,二手房,2014
西岗区八一路196号1-3,大连,无开发商,西岗,20190514,38.92047268927287,121.61862512554262,三环街（八一路商圈）,2,11489,无物业管理服务,-,辽宁,1,二手房,1990
西岗区胜利路33号,大连,大连万达房地产开发有限公司,西岗,20190514,38.91309771954841,121.62500886627636,信兴花园,4,28004,大连亿安物业管理有限公司,0.5,辽宁,1,二手房,1997
中山区东港龙湖水晶郦湾7-102,大连,大连德银置业有限公司,中山,20190514,38.924700620463895,121.70344398518496,海韵华府,13,25518,大连金地物业管理有限公司,3.8,辽宁,1,二手房,2017
沙河口区西南路40号楼,大连,亿达房地产开发有限公司,沙河口,20190514,38.94143337232082,121.58616557598133,星浦庄园,15,12483,大连香都物业管理有限公司,0.5,辽宁,1,二手房,1997
无门店信息,大连,大连融和房地产开发有限公司,开发区,20190514,34.52713835999158,118.76812980670795,岚山著作,31,9613,大连昌和物业管理有限公司,1.3,辽宁,1,二手房,2014
沙河口区星海广场B3区14-9,大连,大连科宏房屋开发有限公司,沙河口,20190514,38.88708614275256,121.58732027085938,科宏花园,9,15258,无物业管理服务,-,辽宁,1,二手房,2000
沙河口区数码路(北段)20-6号,大连,无开发商,高新园区,20190514,38.890045799133254,121.55191912957606,学子园,8,24020,业主自筹物业,0.5,辽宁,1,二手房,2002
开发区小孤山西里3栋-11号,大连,大连光伸房地产开发有限公司,开发区,20190514,39.02715282297674,121.80682183666346,绿洲半岛一期,30,9557,大连经济技术开发区海青物业有限公司,0.5,辽宁,1,二手房,2004
甘井子区华东路33-5号,大连,暂无信息,甘井子,20190514,38.97497080220593,121.59479866243332,小野田,9,12353,大连新华物业管理有限公司,-,辽宁,1,二手房,1993
红星海A区126-4,大连,远洋地产有限公司,开发区,20190514,39.027851194371685,121.80327394132297,红星海郡墅二号,16,20068,大连远洋基业物业管理有限公司,3.5,辽宁,1,二手房,2012
中山区安居巷7号,大连,大连永高房屋开发有限公司,西岗,20190514,38.92451111549568,121.65154739366945,北海胜利公社(宁海街),9,13098,大连永高物业管理有限公司,0.8,辽宁,1,二手房,2005
甘井子区山东路137号,大连,暂无信息,甘井子,20190514,38.99129404608926,121.59172125999353,山东路北,10,13237,街道办事处（居委会）代管物业,0.5,辽宁,1,二手房,1986
沙河口区联合路133号,大连,大连建兴房屋开发有限公司,沙河口,20190514,38.91608561262676,121.60480987310456,21中学中山南苑,3,21625,大连自然物业管理有限公司,1.3,辽宁,1,二手房,2001
甘井子区华东路33-5号,大连,大连景和房屋开发有限公司,甘井子,20190514,38.97497080220593,121.59479866243332,怡景园,9,16521,大连景和物业管理有限公司,0.5,辽宁,1,二手房,2002
高新园区聚贤路36号5幢1单元1层1号,大连,九成方元房地产（大连）有限公司,高新园区,20190514,32.31472011562832,119.46141263909165,福荣园,8,20333,九成物业（大连）有限公司,2.6,辽宁,1,二手房,2015
大连市金州新区友谊街道和平路59-10号1-2层公建,大连,大连永乐宏业集团有限公司,金州,20190514,39.112168401852266,121.72006917947859,和平丽苑,17,8630,大连永乐宏业集团有限公司,1.1,辽宁,1,二手房,2009
甘井子区汇仁街19号12号楼1单元102室,大连,大连华南房地产开发有限公司,甘井子,20190514,38.99746297497168,121.58917714380617,名贵山庄华春园,3,13031,大连弘益达物业管理有限公司,0.5,辽宁,1,二手房,2004
西岗区康平街2号（5号楼3-1-3号）,大连,大连振屹房屋开发有限公司,西岗,20190514,38.91044414697888,121.61980769264477,水仙名苑,10,24207,大连广信物业管理有限公司,0.5,辽宁,1,二手房,1997
沙河口区连山街10号2-1-2,大连,大连国合嘉汇房地产开发有限公司,沙河口,20190514,38.89637522563413,121.57143690983219,嘉汇星海,4,18571,大连国合物业管理有限公司,0.5,辽宁,1,二手房,2004
西岗区康平街2号（5号楼3-1-3号）,大连,大连圣元房地产开发有限公司,西岗,20190514,38.91044414697888,121.61980769264477,亿达天琴山,30,23331,亿达物业管理有限公司,2.5,辽宁,1,二手房,2013
中山区鲁迅路184号1层B—A,大连,无开发商,中山,20190514,38.92590875965419,121.67594393403164,民寿里,8,14060,无物业管理服务,-,辽宁,1,二手房,1995
甘井子区知音园20号3单元1层1号,大连,亿达集团大连房地产开发有限公司,高新园区,20190514,38.95800216293212,121.53151895549547,亿达知音园,6,22995,亿达物业管理有限公司,0.5,辽宁,1,二手房,2001
甘井子区凌秀路37号-1链家地产,大连,千汇德（大连）置业有限公司,高新园区,20190514,38.883794285403965,121.52361997548515,哈佛世纪,26,19733,大连千汇德物业管理有限公司,2.4,辽宁,1,二手房,2014
甘井子区泉水B2区19-1号,大连,北方沿海房地产开发（大连）有限公司,甘井子,20190514,39.0101309886317,121.60812584213187,沿海鉴筑二期,26,16582,美佳物业管理（深圳）有限公司大连分公司,1.5,辽宁,1,二手房,2012
西岗区中山路158号唐山街市场外14号,大连,海运集团大连房屋开发有限公司,西岗,20190514,38.91688106727098,121.63201298398174,宝居佳苑,9,26800,大连城建开发集团物业管理有限公司,2,辽宁,1,二手房,2011
莲花山路89-3号,大连,无开发商,沙河口,20190514,38.902848261803356,121.6041720815823,新华街,9,13300,无物业管理服务,-,辽宁,1,二手房,1999
沙河口区民权街324号,大连,无开发商,沙河口,20190514,38.92064616208148,121.59777611850379,79中恒泰大厦,5,21516,大连衡德物业管理有限公司,0.4,辽宁,1,二手房,1996
中山区金城街26号一楼,大连,无开发商,中山,20190514,38.922282529515634,121.65214466263014,玉光街,4,16119,无物业管理服务,-,辽宁,1,二手房,1982
中山区解放路471-22号,大连,大连长策房屋开发有限公司,中山,20190514,38.901309943567504,121.65419095766659,捷山街（青云街商圈）,6,11806,无物业管理服务,0.5,辽宁,1,二手房,1992
中山区同心街72号1楼公建,大连,无开发商,中山,20190514,38.91979245940674,121.64769198230202,万家巷（昆明街）,9,16453,无物业管理服务,-,辽宁,1,二手房,1991
中山区解放路604号,大连,无开发商,西岗,20190514,38.89026319122045,121.66407876092346,于家巷,2,13324,街道办事处（居委会）代管物业,0.5,辽宁,1,二手房,1998
中山区华乐街71号公建,大连,大连众和房地产开发有限公司,中山,20190514,38.923187679200566,121.6843197903016,东港印象C区,9,23176,大连众和物业管理有限公司,1.2,辽宁,1,二手房,2008
中山区武昌街武昌公寓6号公建,大连,无开发商,中山,20190514,38.912280913445784,121.64921130527547,同福新居,5,13416,无物业管理服务,-,辽宁,1,二手房,2003
中山区武昌街武昌公寓6号公建,大连,暂无信息,中山,20190514,38.912280913445784,121.64921130527547,葵东街,2,12859,暂无信息,-,辽宁,1,二手房,1990
中山区职工街96号1-3层公建,大连,大连北良有限公司,中山,20190514,38.92565613737007,121.66193575790903,北良公寓,8,14124,大连北良物业管理有限公司,0.2,辽宁,1,二手房,1998
中山区杏林街66—5号,大连,大连嘉和房地产集团有限公司,中山,20190514,38.92572771377599,121.66490555592502,嘉和园,4,24992,大连嘉和物业管理有限公司,3,辽宁,1,二手房,2005
中山区安居巷7号,大连,暂无信息,中山,20190514,38.92451111549568,121.65154739366945,安居巷,3,10942,暂无信息,-,辽宁,1,二手房,1990
中山区岭前街53-5,大连,无开发商,中山,20190514,38.89487069426055,121.65795959631497,岭前街,16,14390,街道办事处（居委会）代管物业,0.4,辽宁,1,二手房,1995
甘井子区华东路22号公建,大连,无开发商,甘井子,20190514,38.97736184953593,121.5935814234334,达人公馆,8,11283,街道办事处（居委会）代管物业,0.5,辽宁,1,二手房,2005
中山区岭前街53-5,大连,大连九龙仓绿城置业有限公司,中山,20190514,38.89487069426055,121.65795959631497,绿城九龙仓桃源里,21,25748,绿城物业服务集团有限公司大连分公司,3.8,辽宁,1,二手房,2016
西岗区胜利路33号,大连,大连恒盛房屋开发有限公司,西岗,20190514,38.91309771954841,121.62500886627636,盛阳山庄,8,11208,大连佳捷物业管理有限公司,0.5,辽宁,1,二手房,1999
中山区武昌街武昌公寓6号公建,大连,暂无信息,中山,20190514,38.912280913445784,121.64921130527547,南山西花厅,9,11498,暂无信息,1,辽宁,1,二手房,-
沙河口区星海广场B3区20—3号,大连,营口大光房地产开发有限公司,沙河口,20190514,38.88782715536473,121.5869168319735,星海花园,6,12122,大连金海岸物业管理中心,1.5,辽宁,1,二手房,1998
西岗区平等街21号1层2号,大连,大连吉嘉置业有限公司,西岗,20190514,38.92251066253164,121.63236845125735,锦华银座,9,19708,大连吉嘉物业管理有限公司,5,辽宁,1,二手房,2003
西岗区长春路334号,大连,无开发商,西岗,20190514,38.89807766522607,121.63221082858387,石葵路（石道街商圈）,14,12166,街道办事处（居委会）代管物业,0.5,辽宁,1,二手房,1995
沙河口区黑石礁街3号1层1-1号,大连,无开发商,沙河口,20190514,38.880058010307856,121.56313403908827,西村街,2,13189,无物业管理服务,-,辽宁,1,二手房,1990
西岗区鞍山路29号龙畔锦城东门,大连,大连铁路房地产开发有限责任公司,西岗,20190514,38.92763470697088,121.61498923399098,龙畔锦城,47,19583,大连亚航物业管理有限公司,1.2,辽宁,1,二手房,2009
沙河口区高尔基路559号公建,大连,大连建园房地产开发有限公司,沙河口,20190514,38.904019357356404,121.59470441760905,城市旋律,14,19421,大连天兴物业管理有限公司,3.7,辽宁,1,二手房,2013
中山区碧浪园4号-3号,大连,大连铁路房地产开发有限责任公司,中山,20190514,38.89147289460474,121.69329560326236,山水家园二期,2,19185,大连铁道物业管理有限责任公司,0.5,辽宁,1,二手房,2003
高新园区海苑街36号1单元2号公建,大连,千汇德（大连）置业有限公司,高新园区,20190514,20.06392317589085,110.32302599457326,哈佛映像,18,19322,大连千汇德物业管理有限公司,1.2,辽宁,1,二手房,2009
西岗区长春路334号,大连,无开发商,西岗,20190514,38.89807766522607,121.63221082858387,新石道街,12,11788,大连白云物业管理有限公司,0.5,辽宁,1,二手房,1999
中山区山屏街116号1-1,大连,暂无信息,中山,20190514,38.90729438486833,121.68598159980013,山屏美境,7,17076,无物业管理服务,3.5,辽宁,1,二手房,2009
甘井子区金家街17-7号,大连,暂无信息,甘井子,20190514,38.97493697764367,121.60110987128529,金家街,5,20691,无物业管理服务,-,辽宁,1,二手房,1970
中山区南山路59号1层4号,大连,大连恒一嘉元置业有限公司,中山,20190514,38.91992239075882,121.6479206962747,南山首府,2,32971,大连恒信物业服务有限公司,4,辽宁,1,二手房,2015
中山区安居巷7号,大连,无开发商,西岗,20190514,38.92451111549568,121.65154739366945,北海街（胜利桥北商圈）,9,11184,街道办事处（居委会）代管物业,0.5,辽宁,1,二手房,1985
金州区小平岛B组团4号楼3号商铺,大连,大连安达房地产开发有限公司,高新园区,20190514,39.05643299166072,121.78943558267059,小平岛E西组团,6,23639,大连凯尔富物业管理有限公司,1.3,辽宁,1,二手房,2007
大连市沙河口区黄河路729号,大连,大连天河房地产开发集团有限公司,沙河口,20190514,38.91710565765228,121.58954758972729,天河100,4,19487,大连天河物业管理有限公司,0.8,辽宁,1,二手房,2004
甘井子区西南路芳茗园30号楼,大连,大连泰华房地产开发有限公司,甘井子,20190514,38.961395177040636,121.59546002818708,泰华府邸,15,18530,大连华安物业管理有限公司,1.5,辽宁,1,二手房,2009
中山区武昌街武昌公寓6号公建,大连,无开发商,中山,20190514,38.912280913445784,121.64921130527547,麒麟东巷,6,11130,无物业管理服务,-,辽宁,1,二手房,1990
金州区小平岛B组团4号楼3号商铺,大连,大连圣岛房地产开发有限公司,高新园区,20190514,39.05643299166072,121.78943558267059,小平岛揽海名寓,35,20513,大连凯尔富物业管理有限公司,1.7,辽宁,1,二手房,2010
中山区民运巷 47号1层2号,大连,无开发商,西岗,20190514,38.905955122300846,121.64798148011702,天富山庄,10,10082,大连天富物业管理有限公司,0.2,辽宁,1,二手房,1995
开发区金源南里14栋-11号一层部分，14号-12号一层部分,大连,无开发商,开发区,20190514,39.06148862675436,121.82503941311765,金苑玉庭小区,12,10663,金州区物业管理有限公司,-,辽宁,1,二手房,2010
经济技术开发区红星海-A区81-2号1层,大连,远洋地产有限公司,开发区,20190514,39.027851194371685,121.80327394132297,红星海二期领墅,33,27320,大连远洋基业物业管理有限公司,0.5,辽宁,1,二手房,2009
甘井子区华北路花锦园28号23-3-1-2建筑物,大连,无开发商,甘井子,20190514,38.951627958411166,121.5739439799003,大连门广场,9,16378,街道办事处（居委会）代管物业,0.1,辽宁,1,二手房,2003
沙河口区华北路404号,大连,无开发商,沙河口,20190514,38.8862815932937,121.59082948696123,华北路（春柳商圈）,6,10465,街道办事处（居委会）代管物业,0.1,辽宁,1,二手房,1981
金州区南棉路310号,大连,暂无信息,金州,20190514,39.09939229372624,121.72414976100345,连胜小区,5,5948,无物业管理服务,0.5,辽宁,1,二手房,1995
沙河口区成仁街91号,大连,大连城市建设集团有限公司,沙河口,20190514,38.91539947107844,121.59585638842556,79中广荣大厦,5,17139,大连新型物业管理有限公司,1.5,辽宁,1,二手房,2002
甘井子区汇仁街19号12号楼1单元102室,大连,大连华南房地产开发有限公司,甘井子,20190514,38.99746297497168,121.58917714380617,名贵山庄华秋园,11,13623,大连弘益达物业管理有限公司,0.5,辽宁,1,二手房,2002
大连市高新园区七贤中路63号,大连,大连鑫亿房屋开发有限公司,高新园区,20190514,38.86053006357667,121.53273606963094,瑞丰园,16,14317,无物业管理服务,0.8,辽宁,1,二手房,1999
中山区解放路471-22号,大连,大连青云天下房地产有限公司,中山,20190514,38.901309943567504,121.65419095766659,青云天下,12,24906,大连青云天下物业服务有限公司,4.3,辽宁,1,二手房,2018
中山区鲁迅路204号百盛新药特药商店一楼西侧部分,大连,大连华普置业有限公司,中山,20190514,38.9258993614899,121.6768880001226,佳兆业中心,22,21781,佳兆业物业管理（深圳）有限公司大连分公司,4.5,辽宁,1,二手房,2015
沙河口区五四路207-1-9号,大连,无开发商,沙河口,20190514,38.913544290955585,121.59450670056631,集贤南一街,1,12909,无物业管理服务,-,辽宁,1,二手房,1992
甘井子区榆水街6-9号公建,大连,大连弘润置业有限公司,甘井子,20190514,38.97957540063716,121.52458567456938,万科城市之光,60,22124,大连万科物业服务有限公司,2.8,辽宁,1,二手房,2015
无门店信息,大连,无开发商,开发区,20190514,34.52713835999158,118.76812980670795,嫩江小区,17,6664,街道办事处（居委会）代管物业,0.5,辽宁,1,二手房,1996
中山区武昌街武昌公寓6号公建,大连,大连海昌房屋开发有限公司,中山,20190514,38.912280913445784,121.64921130527547,海昌华城,9,17033,大连海昌欣城物业管理有限公司,1.1,辽宁,1,二手房,1997
无门店信息,大连,大连鹏辉房地产开发有限公司,甘井子,20190514,34.52713835999158,118.76812980670795,鹏辉新天居二期,10,14898,大连鹏辉物业管理有限公司,0.8,辽宁,1,二手房,2008
中山区杏林街66—5号,大连,暂无信息,中山,20190514,38.92572771377599,121.66490555592502,39中南山路,10,26559,无物业管理服务,-,辽宁,1,二手房,1980
西岗区新田巷11号三单元103,大连,大连莱茵海岸度假村有限公司,西岗,20190514,38.89276612016956,121.64190731791966,隆泉华庭,7,16616,大连万恒物业管理有限公司,1,辽宁,1,二手房,2003
甘井子区泉水H3区15号3单元1层2号,大连,大连新型房地产开发有限公司,甘井子,20190514,39.00158439075201,121.62616882572375,龙畔金泉一期,10,11136,大连新型物业管理有限公司,0.5,辽宁,1,二手房,2002
沙河口区中山路417A-4号,大连,大连新希望家园房地产有限公司,沙河口,20190514,38.90740323140171,121.59484801084653,新希望花园,25,20117,大连乾峰物业管理有限公司,1.3,辽宁,1,二手房,2003
甘井子区金家街17-7号,大连,大连衡锐房屋开发有限公司,甘井子,20190514,38.97493697764367,121.60110987128529,衡逸园一期,30,19664,大连衡锐物业管理公司,1,辽宁,1,二手房,2010
开发区杏花里13#楼-7号,大连,暂无信息,金州,20190514,31.31075067906954,120.63127837058457,凤凰山花园,31,11837,大连双赢物业管理有限公司,1,辽宁,1,二手房,2009
甘井子区华东路33-5号,大连,暂无信息,甘井子,20190514,38.97497080220593,121.59479866243332,金源小区,7,14753,无物业管理服务,-,辽宁,1,二手房,2000
西岗区鞍山路29号龙畔锦城东门,大连,无开发商,西岗,20190514,38.92763470697088,121.61498923399098,北京街北,40,12999,无物业管理服务,-,辽宁,1,二手房,1981
中山区金城街26号一楼,大连,无开发商,中山,20190514,38.922282529515634,121.65214466263014,九中武汉街,9,36933,无物业管理服务,-,辽宁,1,二手房,1991
高新园区书香街1A#1-1-2,大连,大连和升房地产开发有限公司,高新园区,20190514,38.880372108393104,121.55218773010999,学苑广场九号,8,28176,大连戴德梁行物业管理有限公司,2.8,辽宁,1,二手房,2017
金州新区先进街道渤海街7-4号1-2层、7-3号1-2层,大连,无开发商,金州,20190514,39.09342713035472,121.74590886291374,金安小区,10,6218,街道办事处（居委会）代管物业,0.1,辽宁,1,二手房,2001
西岗区康平街2号（5号楼3-1-3号）,大连,大连星海房屋开发公司,西岗,20190514,38.91044414697888,121.61980769264477,星海商城,4,24517,无物业管理服务,0.5,辽宁,1,二手房,2000
沙河口区长江路946号-9,大连,无开发商,沙河口,20190514,38.913544290955585,121.59450670056631,城品城,12,18364,大连万景物业管理有限公司,2,辽宁,1,二手房,2010
沙河口区兰田街33号,大连,无开发商,沙河口,20190514,38.926138912221084,121.56486022834609,858家园,5,12922,无物业管理服务,-,辽宁,1,二手房,2000
