address,city,developer,district,index_date,lat,lng,name,osv,price,property,property_fee,province,tv,type,year
甘井子区玉湖街25号2单元1层3号,大连,大连新型房地产开发有限公司,甘井子,20181127,38.97626265183615,121.54617349027997,泡崖四区,116,10295,大连新型物业管理有限公司,0.5,辽宁,22,二手房,2002
甘井子区榆林街37号-12公建,大连,大连新型房地产开发有限公司,甘井子,20181127,38.980133141940186,121.52779506952932,泡崖美林园,217,11374,大连新型物业管理有限公司,0.3,辽宁,25,二手房,2003
甘井子区宜居园10-1号房屋,大连,大连万科房地产开发有限公司,甘井子,20181127,39.000039431463165,121.52111738616489,万科魅力之城,175,14277,大连万科物业服务有限公司,1.5,辽宁,16,二手房,2012
开发区湾里南12栋-16-17-18号,大连,大连金湾实业有限公司,开发区,20181127,39.070782084451,121.8506739675913,湾里南小区,255,8267,大连金湾物业管理有限公司,0.5,辽宁,35,二手房,2003
沙河口区华新苑10号楼4号公建,大连,大连新型房地产开发有限公司,沙河口,20181127,38.921778341674376,121.58261780680284,侯一小区,126,10805,大连新兴物业管理有限公司,0.3,辽宁,35,二手房,1989
大连经济技术开发区东城天下98-14,大连,大连乾豪集团有限公司,开发区,20181127,39.069195091289004,121.8502099927954,东城天下,307,8053,大连远洋基业物业管理有限公司,0.9,辽宁,31,二手房,2005
沙河口区沙能街101号1单元1层1号,大连,大连新型房地产开发有限公司,沙河口,20181127,38.9366316275348,121.59031205759763,侯二小区,140,10943,街道办事处（居委会）代管物业,0.1,辽宁,25,二手房,1985
甘井子区玉丽街2号楼1单元4号公建,大连,大连新型房地产开发总公司,甘井子,20181127,38.98705071699301,121.55513043130172,泡崖康顺园,123,10556,大连新兴物业管理有限公司,0.5,辽宁,14,二手房,2007
大连市金州区站前街道生辉第一城14-3号1-2层,大连,大连新希望家园房地产有限公司,金州,20181127,39.0569681786798,121.74773530665969,新希望家园,135,7881,大连新希望物业服务有限公司,1.2,辽宁,21,二手房,2009
甘井子区汇仁街22号,大连,远洋地产有限公司,甘井子,20181127,38.99712640764999,121.58834420439493,远洋广场,141,16919,大连远洋基业物业管理有限公司,1.4,辽宁,16,二手房,2010
无门店信息,大连,大连益宁房地产开发有限公司,开发区,20181127,34.52713835999158,118.76812980670795,岭湾峰尚一期,118,7621,大连鸿达物业管理有限公司,1.3,辽宁,15,二手房,2011
大连经济技术开发区时代城4-3号1-2号,大连,远洋地产有限公司,开发区,20181127,39.0992481321252,121.83007860699459,远洋时代城一期,123,7817,大连远洋基业物业管理有限公司,1.5,辽宁,17,二手房,2012
西岗区香炉礁24号1-1,大连,无开发商,西岗,20181127,38.91336952993919,121.6258229781024,香炉礁,150,10726,街道办事处（居委会）代管物业,0.1,辽宁,21,二手房,1979
无门店信息,大连,大连金湾实业有限公司,开发区,20181127,34.52713835999158,118.76812980670795,金湾山城,111,8482,大连金湾物业管理有限公司,0.1,辽宁,14,二手房,2009
开发区正恒园1-16,大连,大连华宇房地产开发有限公司,开发区,20181127,39.04823944344617,121.76165468797754,左岸经典,179,9227,大连豪之英物业管理有限公司,1.8,辽宁,19,二手房,2009
甘井子区红旗花园23号楼19-24轴公建,大连,大连红旗兴达房地产开发有限公司,甘井子,20181127,38.93108029984587,121.54902145022133,兴达花园,70,11960,大连万泰物业管理有限公司,0.3,辽宁,14,二手房,2000
沙河口区富民路120号4-1-1,大连,大连渤海红旗集团有限公司,沙河口,20181127,38.930937859528605,121.5647274237578,马栏小学南,56,10128,大连辽南物业管理有限公司,0.5,辽宁,12,二手房,1995
金州区金润小区B区861单元102,大连,大连辽大房地产开发有限公司,金州,20181127,39.10615165380565,121.74639264534615,金润小区A区,131,8141,大连新兴物业管理有限公司,0.5,辽宁,12,二手房,2005
沙河口区富民路120号4-1-1,大连,大连渤海红旗集团有限公司,沙河口,20181127,38.930937859528605,121.5647274237578,马栏小学北,64,10208,街道办事处（居委会）代管物业,0.2,辽宁,13,二手房,1989
开发区湾里南12栋-16-17-18号,大连,大连金湾实业有限公司,开发区,20181127,39.070782084451,121.8506739675913,湾里东,177,8222,大连金湾物业管理有限公司,0.5,辽宁,12,二手房,2004
金州区金润花园B区47号1单元1层1号2号,大连,大连辽大房地产开发有限公司,金州,20181127,39.104347761505736,121.7451779647203,金润小区B区,130,8454,大连新兴物业管理有限公司,0.5,辽宁,12,二手房,2005
金州区鹏程家园53#-8,大连,大连光伸房地产开发有限公司,开发区,20181127,39.0348243693741,121.81226722991913,绿洲半岛北岸,111,8960,大连经济技术开发区光伸物业服务有限公司,1.2,辽宁,12,二手房,2007
甘井子区玉丽街2号楼1单元4号公建,大连,大连新型房地产开发有限公司,甘井子,20181127,38.98705071699301,121.55513043130172,泡崖七区,94,10159,大连新兴物业管理有限公司,0.3,辽宁,13,二手房,1999
沙河口区西南路40号楼,大连,无开发商,沙河口,20181127,38.94141605900714,121.58612100465703,星海公园,52,11202,无物业管理服务,0.5,辽宁,13,二手房,1990
甘井子区华北路花锦园28号23-3-1-2建筑物,大连,大连东特房地产开发有限公司,甘井子,20181127,38.951627958411166,121.5739439799003,东特新天地,27,16518,大连瑞祥物业管理有限公司,0.5,辽宁,13,二手房,2003
沙河口区西南路161号,大连,无开发商,沙河口,20181127,38.89269676588945,121.56639953951542,孙家沟,63,12503,无物业管理服务,-,辽宁,11,二手房,1990
金州新区站前街道生辉第一城5号楼1-2层4号,大连,大连公路工程集团生辉房地产开发有限公司,金州,20181127,39.05839688242313,121.74629383174005,生辉第一城,105,12334,大连生辉物业管理有限公司,1.2,辽宁,13,二手房,2007
大连开发区金马路169-2-8号,大连,大连亿锋房地产实业有限公司,开发区,20181127,39.055616222703364,121.78435683280883,亿锋现代城,141,9678,亿锋豪景物业管理有限公司,1.1,辽宁,14,二手房,2006
大连市甘井子区柳林园8-7号,大连,大连万科置业有限公司,甘井子,20181127,38.91290525308349,121.47673750074993,万科溪之谷,134,13344,大连万科物业服务有限公司,1.2,辽宁,14,二手房,2007
中山区中南路店212号门头房,大连,无开发商,中山,20181127,38.91149759691359,121.67700561077149,中南路,57,12304,街道办事处（居委会）代管物业,0.5,辽宁,15,二手房,1990
甘井子区红旗西路104-23,大连,大连万科房地产开发有限公司,甘井子,20181127,38.94011738361669,121.52831049836651,万科假日风景,58,16320,大连万科物业服务有限公司,1,辽宁,14,二手房,2007
开发区黄海西路54号,大连,大连凯伦房地产开发股份有限公司,开发区,20181127,39.047714586087785,121.76688238228269,凯伦凯悦,69,8351,大连凯悦物业管理有限公司,3.1,辽宁,12,二手房,2008
大连市开发区左岸经典正恒园1-17,大连,大连神洲众益集团有限公司,开发区,20181127,39.049057070649155,121.76187404250511,万国宫馆二期,82,13922,加拿大高力国际物业服务有限公司,2.4,辽宁,11,二手房,2009
开发区小孤山西里3栋-11号,大连,大连开建房地产开发有限公司,开发区,20181127,39.02715282297674,121.80682183666346,瑞仕尚城,45,10899,大连阿尔滨汇城物业服务有限公司,1.1,辽宁,11,二手房,2008
金州新区先进街道渤海街7-4号1-2层、7-3号1-2层,大连,原金州纺织厂房地产公司,金州,20181127,39.09342713035472,121.74590886291374,金纺小区,112,7326,街道办事处（居委会）代管物业,0.5,辽宁,9,二手房,1985
高新园区火炬路18号,大连,大连海脉房地产开发有限公司,高新园区,20181127,38.937738080520404,117.39340752036043,MINI印象,104,15669,大连豪斯威物业管理有限公司,2.2,辽宁,9,二手房,2012
甘井子区静林街34号4单元1层2,大连,大连祥盛房屋开发有限公司,甘井子,20181127,38.98321485010885,121.58185179833856,千山心城,96,15059,大连百特物业管理有限公司,0.5,辽宁,8,二手房,2003
金州区南棉路310号,大连,无开发商,金州,20181127,39.09939229372624,121.72414976100345,南棉小区,129,7282,街道办事处（居委会）代管物业,0.5,辽宁,9,二手房,1990
甘井子区千山路26号,大连,大连市大钢集团,甘井子,20181127,38.985697948031984,121.58768860037272,山东路,58,11237,街道办事处（居委会）代管物业,0.2,辽宁,9,二手房,1986
大连市开发区湾里东5-6号,大连,大连宏港房地产开发有限公司,开发区,20181127,39.07275772231556,121.85888789351343,都悦里,158,6863,大连宏港物业管理有限公司,0.3,辽宁,9,二手房,1998
开发区黄海西路54号,大连,中国铁路十三局,开发区,20181127,39.047714586087785,121.76688238228269,翠竹小区,98,7953,大连经济技术开发区中强物业管理有限公司,0.3,辽宁,9,二手房,1996
沙河口区锦江园30号1层公建,大连,大连锦绣房地产开发有限公司,沙河口,20181127,38.921778341674376,121.58261780680284,锦江园,66,9565,大连锦绣物业管理有限公司,0.3,辽宁,10,二手房,1983
开发区安盛里5栋-4,大连,大连开建集团有限公司,开发区,20181127,23.112106678834838,113.27801046214822,开建阳光馨苑,64,9192,大连开利物业管理有限公司,1.2,辽宁,10,二手房,2009
开发区润海园中区62-9,大连,大连金广嘉亿置地有限公司,开发区,20181127,39.04047273176333,121.76392358042445,大连海湾城一期、二期,114,11793,大连金广物业服务有限公司,2.6,辽宁,9,二手房,2012
沙河口区华北路448号楼1-4公建,大连,无开发商,沙河口,20181127,38.903224944733765,121.56809734950556,刘家桥,66,10444,街道办事处（居委会）代管物业,0.1,辽宁,10,二手房,1981
沙河口区前程街46号4—1—2号,大连,大连台安房屋开发有限公司开发,甘井子,20181127,38.921778341674376,121.58261780680284,彩虹园,29,10348,渤海吉祥物业管理有限公司,0.4,辽宁,9,二手房,2000
无门店信息,大连,大连乾豪集团有限公司,开发区,20181127,34.52713835999158,118.76812980670795,格林小镇,149,7277,沈阳瑞码阁物业管理有限公司大连分公司,0.5,辽宁,10,二手房,2002
沙河口区新生路万科园7—1号,大连,大连绿波房屋开发集团有限公司,沙河口,20181127,38.94440370819716,121.57117928210005,绿波小区,130,10584,大连绿波建设发展有限公司,0.2,辽宁,10,二手房,1998
沙河口区西南路643号,大连,无开发商,沙河口,20181127,38.943483429804665,121.5833555851182,交通大学,55,11433,无物业管理服务,-,辽宁,10,二手房,1955
开发区鹏程家园66#-6、66#-7公建,大连,大连海富花园开发有限公司,开发区,20181127,38.90045524508753,121.63339362744885,海富经典,109,10108,大连银帆物业管理有限公司,1.2,辽宁,10,二手房,2009
沙河口区昌黎街22号,大连,大连城市建设集团有限公司,沙河口,20181127,38.91975785098891,121.59109628369768,北昌平小区,109,10652,无物业管理服务,-,辽宁,10,二手房,1983
中山区职工街96号1-3层公建,大连,大连嘉和房地产集团有限公司,中山,20181127,38.92565613737007,121.66193575790903,嘉和广场,58,22273,大连华安物业管理有限公司,3.8,辽宁,10,二手房,2014
沙河口区五一路177-1-1-1,大连,无开发商,沙河口,20181127,38.90485271510574,121.57313607267041,台山,79,11055,街道办事处（居委会）代管物业,0.2,辽宁,11,二手房,1987
沙河口区富民路249号,大连,大连文路建设集团有限公司,沙河口,20181127,38.93341510428133,121.5770130002514,阳光月秀,48,14331,大连丰泽物业管理有限公司,0.6,辽宁,10,二手房,2006
沙河口区马栏北街186号,大连,大连渤海红旗集团有限公司,甘井子,20181127,38.921778341674376,121.58261780680284,马栏北街,30,10251,大连辽南物业管理有限公司,0.2,辽宁,11,二手房,1993
开发区润海园中区62-9,大连,华润（大连）房地产有限公司,开发区,20181127,39.04047273176333,121.76392358042445,华润海中国四期,112,13616,华润物业（大连）有限公司,3.1,辽宁,7,二手房,2014
沙河口区西南路643号,大连,大连泰安房地产开发有限公司,沙河口,20181127,38.943483429804665,121.5833555851182,幸福小区(沙河口),33,10812,大连三宝物业发展有限公司,0.3,辽宁,7,二手房,1998
甘井子区圣林南园3-3号,大连,大连广泰房屋开发有限公司,甘井子,20181127,38.95187275584195,121.54422808213874,美树日记,54,20491,大连华安物业管理有限公司,1.6,辽宁,7,二手房,2009
甘井子区芳林街17号1单元1层1号,大连,大连亿达房地产股份有限公司,甘井子,20181127,38.96091976856697,121.58863625429588,唯美品格,63,29127,亿达物业管理有限公司,1.5,辽宁,7,二手房,2009
金州新区润海园中区18#2号,大连,华润置地（大连）有限公司,开发区,20181127,39.04047273176333,121.76392358042445,华润海中国二期,119,13160,华润物业（大连）有限公司,2.8,辽宁,7,二手房,2011
甘井子区山东路315号14栋1单元1跃2层13号,大连,华润置地（大连）开发有限公司,甘井子,20181127,39.00206212579579,121.59357231641214,华润置地广场一期,45,18976,华润物业（大连）有限公司,2.8,辽宁,7,二手房,2013
中山区中青街43号,大连,大连圣北开发有限公司,中山,20181127,38.90150598268117,121.65711014604845,亿达云集公寓,40,21719,亿达物业管理有限公司,2.9,辽宁,7,二手房,2016
沙河口区数码路北段18—20号,大连,大连软景房地产开发有限公司,高新园区,20181127,38.89150610253657,121.55065097641645,软景E居,62,23257,亿达物业管理有限公司,2.6,辽宁,7,二手房,2011
沙河口区前程街46号4—1—2号,大连,大连银地置业发展有限公司,沙河口,20181127,38.921778341674376,121.58261780680284,观山满庭芳,62,17058,大连新展物业管理有限公司,1,辽宁,7,二手房,2008
无门店信息,大连,大连金地房地产开发有限公司,金州,20181127,34.52713835999158,118.76812980670795,金地新里程,35,7061,大连金铭物业管理有限公司,0.5,辽宁,8,二手房,2008
无门店信息,大连,大连万德房地产集团有限公司,开发区,20181127,34.52713835999158,118.76812980670795,万德悦城,93,7602,大连万德物业管理有限公司,1.5,辽宁,8,二手房,2010
西岗区香炉礁24号1-1,大连,无开发商,西岗,20181127,38.91336952993919,121.6258229781024,工人村,52,9206,街道办事处（居委会）代管物业,0.5,辽宁,8,二手房,1980
无门店信息,大连,大连乐启房地产开发有限公司,甘井子,20181127,34.52713835999158,118.76812980670795,三寰融创城,65,11248,融创物业,2.2,辽宁,8,二手房,2015
甘井子区玉云路27-3-1-3,大连,大连新型房地产开发有限公司,甘井子,20181127,38.97896234099927,121.55865563488358,泡崖三区,50,9409,大连新兴物业管理有限公司,0.5,辽宁,8,二手房,1995
大连市金州新区中长街道碧海尚城5-4号1-2层,大连,无开发商,金州,20181127,39.1001690968934,121.73061017121415,碧海尚城,98,7944,街道办事处（居委会）代管物业,0.8,辽宁,8,二手房,2007
甘井子区新兴路36号3-1-3,大连,大连新型房地产开发有限公司,甘井子,20181127,38.95546176066109,121.5285003794903,泡崖一区,83,9824,大连新兴物业管理有限公司,0.5,辽宁,8,二手房,1992
沙河口区兰田街33号,大连,无开发商,沙河口,20181127,38.926138912221084,121.56486022834609,辽师,33,12249,无物业管理服务,-,辽宁,8,二手房,1970
无门店信息,大连,大连一方生态城房地产开发有限公司,开发区,20181127,34.52713835999158,118.76812980670795,一方天鹅湖,82,7004,大连一方物业管理有限公司,2,辽宁,8,二手房,2010
沙河口区五一路270-274号,大连,无开发商,高新园区,20181127,38.89104111985908,121.55325426578435,由家村,22,11822,无物业管理服务,-,辽宁,6,二手房,1990
西岗区平等街21号1层2号,大连,暂无信息,西岗,20181127,38.92251066253164,121.63236845125735,实验小学英华街,74,21098,无物业管理服务,-,辽宁,6,二手房,1989
甘井子区柳树南街45-11号,大连,中海新海汇（大连）置业有限公司,甘井子,20181127,38.93107538811559,121.48785133651938,中海御湖熙谷,41,14131,大连中海物业管理有限公司,2.2,辽宁,6,二手房,2014
沙河口区红凌路137号,大连,大连大实企业集团房屋开发有限公司,甘井子,20181127,38.922699288974506,121.54713601744747,叠翠骏景,8,12220,大连弘实物业管理有限公司,0.4,辽宁,6,二手房,2004
开发区红梅小区19栋-2-1-1号,大连,香港北海集团,开发区,20181127,29.906498897603264,121.5913630631805,君悦豪庭,47,10764,街道办事处（居委会）代管物业,1.2,辽宁,6,二手房,2004
开发区润海园中区65-7号1-2号,大连,华润（大连）房地产有限公司,开发区,20181127,39.04047273176333,121.76392358042445,华润海中国五期,68,14023,华润物业（大连）有限公司,3.1,辽宁,6,二手房,2015
沙河口区星海广场B3区20—3号,大连,大连飞通房地产开发有限公司,沙河口,20181127,38.888054001818844,121.58662952422732,东方星海,84,18429,大连兆恒物业管理有限公司,2.9,辽宁,6,二手房,2009
甘井子区锦城西园4#3-1-1,大连,大连锦绣房地产开发有限公司,沙河口,20181127,38.95286223185571,121.55129044777,锦霞北园,75,10220,大连锦绣物业管理有限公司,0.3,辽宁,6,二手房,1998
高新园区火炬路18号,大连,大连奥泰房地产开发有限公司,高新园区,20181127,38.937738080520404,117.39340752036043,因特摩尔,47,17386,大连奥泰物业服务有限公司,2.6,辽宁,6,二手房,2011
西岗区平等街21号1层2号,大连,无开发商,西岗,20181127,38.92251066253164,121.63236845125735,实验小学同庆街,61,19213,无物业管理服务,-,辽宁,6,二手房,1990
甘井子区哲林北园17-6号,大连,大连恒德房屋开发有限公司,甘井子,20181127,38.9600267109581,121.53876726228256,恒德橄榄季,49,20641,大连恒德物业服务有限公司,1.4,辽宁,6,二手房,2009
甘井子区红旗西路104-7,大连,大连盛华房地产开发有限公司,甘井子,20181127,38.940012695252975,121.52780738260293,水映西山,30,14420,大连长青物业管理中心,0.9,辽宁,6,二手房,2007
高新园区聚贤路36号5幢1单元1层1号,大连,大连金真源集团房地产开发有限公司,高新园区,20181127,32.31472011562832,119.46141263909165,山海一家一期,48,13710,大连龙海物业管理有限公司,0.6,辽宁,6,二手房,2005
大连市甘井子中华路街道汇畅街48号,大连,远洋地产有限公司,甘井子,20181127,39.00552323996268,121.59684207363269,远洋荣域,92,16683,远洋亿家物业服务股份有限公司大连分公司,2.8,辽宁,6,二手房,2016
甘井子区千山路66号楼2单元1楼2号,大连,大连宜和房地产开发有限公司,甘井子,20181127,38.985716774397915,121.58287796391829,盛世闲庭,49,13874,大连衡德物业管理有限公司,0.5,辽宁,6,二手房,2003
甘井子区锦城西园4#3-1-1,大连,大连锦绣房地产开发有限公司,沙河口,20181127,38.95286223185571,121.55129044777,锦华北园,63,12747,大连锦绣物业管理有限公司,0.6,辽宁,6,二手房,2002
甘井子区祥溢园4号1单元1层9号公建,大连,大连长鹭房屋开发有限公司,甘井子,20181127,38.92981664067587,121.54940314023253,亲亲家园,62,13379,渤海吉祥物业管理有限公司,0.5,辽宁,6,二手房,2004
金州区胜利西小区44号楼,大连,大连金宸集团,金州,20181127,39.10507689383061,121.71536524220103,连大文润金宸一二期,45,9955,大连四通物业管理有限公司,0.9,辽宁,6,二手房,2010
无门店信息,大连,大连天启房地产开发有限公司,高新园区,20181127,34.52713835999158,118.76812980670795,百合IT家园,26,12122,大连亮泰安邦物业有限公司,0.6,辽宁,5,二手房,2008
无门店信息,大连,大连亚联房地产开发有限公司,甘井子,20181127,34.52713835999158,118.76812980670795,翡翠春城,43,15114,大连亚联物业管理有限公司,1.6,辽宁,5,二手房,2012
开发区润海园中区18#2号,大连,大连布鲁科房地产开发有限公司,开发区,20181127,39.04047273176333,121.76392358042445,热岛黄金海岸,156,10685,大连戴德梁行物业管理有限公司,1.6,辽宁,5,二手房,2010
中山区同心街72号1楼公建,大连,大连泰宸房地产开发有限责任公司,中山,20181127,38.91979245940674,121.64769198230202,伊景华园,50,23654,街道办事处（居委会）代管物业,2.2,辽宁,5,二手房,2006
甘井子区虹韵路114号,大连,大连亿达美加房地产开发有限公司,甘井子,20181127,38.95653310483457,121.5329869995972,第五郡五号地,71,22933,亿达物业管理有限公司,2,辽宁,5,二手房,2009
开发区松苑街23号,大连,大连盛和房地产开发有限公司,开发区,20181127,22.52087710763645,113.40156104777168,北欧假日,87,10114,大连鸿达物业管理有限公司,1.1,辽宁,5,二手房,2005
甘井子区泉水K2区1号-7,大连,大连新型房地产开发有限公司,甘井子,20181127,39.01148211821007,121.63131997900962,龙畔金泉五期K4区,90,12452,大连新兴物业管理有限公司,0.5,辽宁,5,二手房,2008
甘井子区知音园20号3单元1层1号,大连,亿达房地产开发有限公司,高新园区,20181127,38.95546176066109,121.5285003794903,软件园小区,43,14639,业主自筹物业,0.2,辽宁,5,二手房,1995
开发区润海园中区30-1,大连,华润置地（大连）开发有限公司,开发区,20181127,39.04047273176333,121.76392358042445,华润海中国一期,104,15515,华润物业（大连）有限公司,1.8,辽宁,5,二手房,2009
中山区华乐街107-115号1单元1层2号,大连,大连金广地产集团有限公司,中山,20181127,38.92093821499401,121.68879267531725,金广东海岸,75,21343,大连金广物业有限公司,2.2,辽宁,5,二手房,2009
甘井子区惠泽南园3-4号,大连,大连鹏德房屋开发有限公司,甘井子,20181127,38.939326611323615,121.52337842113351,西山阳光水岸,38,14874,大连三和住邦物业管理有限公司,1,辽宁,5,二手房,2007
沙河口区恒利园42号-8,大连,大连天河房地产开发集团有限公司,沙河口,20181127,38.93357562498634,121.57914091532649,天河新苑,28,11292,大连天河物业管理有限公司,0.4,辽宁,5,二手房,2000
沙河口区恒利园42号-8,大连,大连新华房屋开发有限公司,沙河口,20181127,38.93357562498634,121.57914091532649,新华同仁轩,39,17537,大连新华物业管理有限公司,0.6,辽宁,5,二手房,2000
甘井子区泉水A2区10-3号,大连,源祥房地产开发有限公司,甘井子,20181127,39.00419463553784,121.61128690376383,美域盛景,130,12084,大连新华物业管理有限公司,0.8,辽宁,5,二手房,2008
金州区先进街道陶然居公建2-2号1层,大连,大连金信集团房地产有限公司,金州,20181127,39.08283372756215,121.76170982507143,桃园小区,106,6021,街道办事处（居委会）代管物业,0.5,辽宁,6,二手房,1992
无门店信息,大连,暂无信息,甘井子,20181127,34.52713835999158,118.76812980670795,泉水N1区,68,8993,无物业管理服务,0.5,辽宁,6,二手房,2008
大连市金州新区中长街道碧海尚城5-4号1-2层,大连,无开发商,金州,20181127,39.1001690968934,121.73061017121415,体育场小区,60,6257,街道办事处（居委会）代管物业,-,辽宁,6,二手房,1995
开发区景和园1-7,大连,无开发商,开发区,20181127,30.41892168817929,120.30896459202738,古耕景和园,27,8865,街道办事处（居委会）代管物业,0.5,辽宁,5,二手房,2008
无门店信息,大连,无开发商,甘井子,20181127,34.52713835999158,118.76812980670795,石油六闾,73,8816,街道办事处（居委会）代管物业,0.5,辽宁,5,二手房,1995
沙河口区华北路448号楼1-4公建,大连,无开发商,甘井子,20181127,38.903224944733765,121.56809734950556,周山街,17,13862,街道办事处（居委会）代管物业,0.5,辽宁,5,二手房,1989
沙河口区锦石路8号,大连,大连运腾房地产开发有限公司,沙河口,20181127,38.94771288948481,121.56110903658733,锦云南园,46,9724,大连锦绣物业管理有限公司,0.3,辽宁,5,二手房,1996
无门店信息,大连,大连运达房地产集团有限公司,甘井子,20181127,34.52713835999158,118.76812980670795,运达诺维溪谷二期,17,13441,大连运达物业有限公司,1.8,辽宁,5,二手房,2012
沙河口区兰田街33号,大连,无开发商,沙河口,20181127,38.926138912221084,121.56486022834609,马栏广场东,14,9743,大连辽南物业管理有限公司,0.2,辽宁,5,二手房,1995
开发区杏树里10栋-14,大连,大连名城房地产开发有限公司,开发区,20181127,39.08113818354046,121.78505742127606,名城和顺人家,57,8586,大连君悦天下物业管理中心,0.5,辽宁,5,二手房,2010
甘井子区玉丽街2号楼1单元4号公建,大连,大连新型房地产开发有限公司,甘井子,20181127,38.98705071699301,121.55513043130172,泡崖康居园,48,9824,大连新兴物业管理有限公司,0.5,辽宁,5,二手房,2000
开发区大开高吉里33栋6号,大连,大连金港集团有限公司,开发区,20181127,39.07355836059941,121.8280439450145,高祥里,50,8011,街道办事处（居委会）代管物业,0.3,辽宁,5,二手房,1992
开发区湾里南12栋-16-17-18号,大连,无开发商,开发区,20181127,39.070782084451,121.8506739675913,东城国际,38,8305,大连乾豪物业管理有限公司,1,辽宁,5,二手房,2006
中山区虎滩路176号4-1-2,大连,大连三寰房地产开发有限公司,中山,20181127,38.890884710033156,121.69257379232747,碧涛北园,31,11161,大连虎滩置业物业管理有限公司,0.2,辽宁,5,二手房,1997
天河路173-2号 华润考拉22号公建,大连,大连世隆房地产开发有限公司,甘井子,20181127,23.147151253133927,113.3277313198351,桑尼小镇,12,15264,大连大家物业管理有限公司,1.9,辽宁,5,二手房,2014
甘井子区千山路26号,大连,大连嘉兴房地产开发有限公司,甘井子,20181127,38.985697948031984,121.58768860037272,千山路,69,10946,无物业管理服务,0.5,辽宁,5,二手房,1989
西岗区康平街2号（5号楼3-1-3号）,大连,无开发商,西岗,20181127,38.91044414697888,121.61980769264477,教师大厦,7,10949,大连教师大厦物业管理有限公司,0.2,辽宁,5,二手房,1995
甘井子区泉水H3区15号3单元1层2号,大连,大连新型房地产开发有限公司,甘井子,20181127,39.00158439075201,121.62616882572375,龙畔金泉二期,67,11520,大连新型物业管理有限公司,0.5,辽宁,4,二手房,2004
甘井子区红旗西路104-7,大连,大连盛达实业总公司,甘井子,20181127,38.940012695252975,121.52780738260293,盛新园,24,11734,大连盛新物业管理有限公司,0.3,辽宁,5,二手房,2000
无门店信息,大连,大连中海新城置业有限公司,甘井子,20181127,34.52713835999158,118.76812980670795,中海凤凰熙岸,20,12033,大连中海物业管理有限公司,2.3,辽宁,5,二手房,2016
开发区兴城路29-81层,大连,大连亿锋房地产实业有限公司,开发区,20181127,39.05020829677517,121.7578103751747,亿锋广场二期,40,13752,大连广恒物业管理有限公司,2.5,辽宁,4,二手房,2015
甘井子区柳树南街45-10号,大连,中体产业集团大连乐百年置业有限公司,甘井子,20181127,38.92567666296449,121.4841330254372,中体奥林匹克花园,40,13222,广东中奥物业有限公司大连分公司,1.9,辽宁,4,二手房,2010
甘井子区华龙南园12-4-3-1-3,大连,大连瑞祥房地产开发有限公司,甘井子,20181127,38.98528794231248,121.61028969481718,今都小区,55,11580,大连泰安物业管理有限公司,0.2,辽宁,4,二手房,1996
甘井子区亿家缘虹韵路205,大连,大连亿达美加房地产开发有限公司,甘井子,20181127,38.95759554613104,121.5279376157567,第五郡一号地,37,22054,亿达物业管理有限公司,2,辽宁,4,二手房,2012
沙河口区前程街46号4—1—2号,大连,大连欧兰房地产开发有限公司,甘井子,20181127,38.921778341674376,121.58261780680284,耕海山尚,16,16475,大连耕海物业管理有限公司,1.5,辽宁,4,二手房,2010
甘井子区亿家缘虹韵路205,大连,大连亿达美加房地产开发有限公司,甘井子,20181127,38.95759554613104,121.5279376157567,第五郡四号地,40,32546,亿达物业管理有限公司,2,辽宁,4,二手房,2010
甘井子区红旗西路104-23,大连,大连鹏德房屋开发有限公司,甘井子,20181127,38.94011738361669,121.52831049836651,逸林派,22,13929,大连三和住邦物业管理有限公司,1.6,辽宁,4,二手房,2011
西岗区九三街64号,大连,润德集团有限公司,西岗,20181127,38.92094787642578,121.62081970746283,润德广场,57,14557,大连润德物业管理有限公司,3.8,辽宁,4,二手房,2011
甘井子区金北路17号,大连,无开发商,甘井子,20181127,38.97553393692831,121.59969720502335,76中学桥北,51,16370,无物业管理服务,-,辽宁,4,二手房,1970
大连市甘井子区软件园路122号,大连,大连鑫园房屋开发有限公司,高新园区,20181127,38.89286578891647,121.53266600180116,新新园二期,13,14662,大连理工物业管理中心,0.5,辽宁,4,二手房,2005
西岗区八一路102号,大连,暂无信息,中山,20181127,38.891094924332045,121.65327483516513,胜鼎桃源,28,19439,暂无信息,0.5,辽宁,4,二手房,2015
大连市沙河口区文萃街1号1-2-2；大连市沙河口区由家五小区五号楼1单元2层1,大连,大连理工科技城建设开发有限公司,高新园区,20181127,38.88596852074166,121.54389553303217,文萃轩小区,23,16870,大连理工物业管理中心,0.2,辽宁,4,二手房,1990
大连市甘井子区辛如街35号1单元1层1号,大连,大连新星房地产开发有限公司,甘井子,20181127,38.96862607066881,121.52294869064194,新星绿城五期,51,13835,大连生生物业有限公司,0.8,辽宁,4,二手房,2009
甘井子区红旗中路143号1层4号,大连,大连红旗兴达房地产开发有限公司,甘井子,20181127,38.93169566676921,121.5426632438217,兴达依山居,33,12358,大连金诚物业管理有限公司,0.3,辽宁,4,二手房,2004
沙河口区新生路万客园3-7,大连,大连鹏生房地产开发有限公司,沙河口,20181127,38.94412875710208,121.57006756704837,枫林绿洲,34,13688,大连鹏辉物业管理有限公司,0.3,辽宁,4,二手房,2008
沙河口区锦石路8号,大连,大连锦绣房地产开发有限公司,沙河口,20181127,38.94771288948481,121.56110903658733,锦泉南园,43,10427,大连锦绣物业管理有限公司,0.3,辽宁,4,二手房,1996
大连市甘井子区燕南园50号,大连,大连软件园发展有限公司,高新园区,20181127,38.90172480153224,121.5363466289672,东方圣克拉二期,36,25583,亿达物业管理有限公司,2.6,辽宁,4,二手房,2011
甘井子区泉水D6区51号,大连,大连金广集团,甘井子,20181127,39.00897610161069,121.61789300655198,枫丹丽城,71,14353,大连金广物业有限公司,1.5,辽宁,4,二手房,2012
沙河口区锦石路8号,大连,大连锦绣房地产开发有限公司,沙河口,20181127,38.94771288948481,121.56110903658733,锦泉中园,25,9688,大连锦绣物业管理有限公司,0.3,辽宁,4,二手房,1996
经济技术开发区红星海-A区81-2号1层,大连,远洋地产有限公司,开发区,20181127,39.027851194371685,121.80327394132297,红星海三期境界,73,12133,大连远洋基业物业管理有限公司,2.2,辽宁,4,二手房,2012
无门店信息,大连,大连乾豪集团有限公司,开发区,20181127,34.52713835999158,118.76812980670795,乾豪新界,45,10266,大连乾豪物业管理有限公司,1.7,辽宁,4,二手房,2015
中山区北斗街53号1层1号,大连,大连名仕房地产开发有限公司,中山,20181127,38.92727355733075,121.67002970974048,名仕财富中心,48,11034,holiday inn酒店物业管理有限公司,4.3,辽宁,4,二手房,2006
甘井子区山东路170—7号,大连,大连市大钢集团,甘井子,20181127,38.98379863132532,121.58715890734231,华中街,29,12084,街道办事处（居委会）代管物业,0.5,辽宁,4,二手房,1986
沙河口区兰田街33号,大连,无开发商,沙河口,20181127,38.926138912221084,121.56486022834609,兰玉街,13,10801,街道办事处（居委会）代管物业,0.4,辽宁,4,二手房,1990
无门店信息,大连,大连宏鼎房地产开发有限公司,旅顺口,20181127,34.52713835999158,118.76812980670795,国宝星月湾,37,11278,大连星海国宝物业管理有限公司,2.5,辽宁,4,二手房,2015
开发区黄海西路54号,大连,开发区城建局,开发区,20181127,39.047714586087785,121.76688238228269,青松南里,57,7567,大连经济技术开发区中强物业管理有限公司,0.5,辽宁,4,二手房,2003
甘井子区虹港路16号楼1层公建,大连,无开发商,甘井子,20181127,38.96457808198196,121.55421052098279,迎客路（机场商圈）,37,13176,街道办事处（居委会）代管物业,0.2,辽宁,4,二手房,1990
中山区中南路店212号门头房,大连,峰尚房屋开发有限公司,中山,20181127,38.91149759691359,121.67700561077149,峰尚中南,12,14216,大连银洲物业管理有限公司,2.2,辽宁,4,二手房,2011
沙河口区西南路643号,大连,无开发商,沙河口,20181127,38.943483429804665,121.5833555851182,西关街,29,10594,无物业管理服务,-,辽宁,4,二手房,1995
甘井子区华北路花锦园28号23-3-1-2建筑物,大连,大连东特房地产开发有限公司,甘井子,20181127,38.951627958411166,121.5739439799003,东特爱俪舍,24,15838,大连东特祥禾物业管理有限公司,0.6,辽宁,4,二手房,2004
无门店信息,大连,大连明和房地产开发有限公司,开发区,20181127,34.52713835999158,118.76812980670795,知语山园,29,10505,大连大众物业管理有限公司,1.3,辽宁,4,二手房,2012
金州区先进街道渤海街1-4号1-2层,大连,无开发商,金州,20181127,39.09512910553563,121.74578812616167,金元小区,49,7126,街道办事处（居委会）代管物业,0.1,辽宁,4,二手房,1993
甘井子区甘井子路32号楼1单元1楼9号,大连,无开发商,甘井子,20181127,38.982488275116516,121.63345389253514,文体街,122,9200,街道办事处（居委会）代管物业,0.1,辽宁,4,二手房,1985
甘井子区甘井子路32号楼1单元1楼9号,大连,无开发商,甘井子,20181127,38.982488275116516,121.63345389253514,北山小区,29,8680,无物业管理服务,0.2,辽宁,4,二手房,1988
金州区金润花园B区47号1单元1层1号2号,大连,暂无信息,金州,20181127,39.104347761505736,121.7451779647203,民馨小区,61,6635,暂无信息,0.5,辽宁,4,二手房,-
金州区同济路44号,大连,大连金宸集团,金州,20181127,39.10476859984152,121.71234684495865,连大文润金宸三期,36,10289,大连四通物业管理有限公司,1,辽宁,4,二手房,2010
大连经济技术开发区时代城4-3号1-2号,大连,远洋地产有限公司,开发区,20181127,39.0992481321252,121.83007860699459,远洋时代城四期,32,8079,大连远洋基业物业管理有限公司,1.5,辽宁,4,二手房,2012
甘井子区汇达园26号,大连,大连红星美凯龙投资发展有限公司,甘井子,20181127,38.99704654604941,121.59758808878767,红星国际广场,81,13876,红星物业管理有限公司,1.5,辽宁,4,二手房,2014
金州区站前街道盛滨花园B区13号楼2号公建,大连,大连阿尔滨集团房地产开发有限公司,金州,20181127,39.09609011892329,121.7335816409767,盛滨花园A区,43,5724,大连阿尔滨集团物业管理有限公司,0.4,辽宁,4,二手房,2001
无门店信息,大连,暂无信息,甘井子,20181127,34.52713835999158,118.76812980670795,泉水N2区,42,9466,无物业管理服务,0.5,辽宁,4,二手房,2009
无门店信息,大连,暂无信息,甘井子,20181127,34.52713835999158,118.76812980670795,八十中红咀街,68,14008,街道办事处（居委会）代管物业,0.2,辽宁,4,二手房,1988
金州区拥政街道733号-8号1-2层,大连,无开发商,金州,20181127,39.11690610445662,121.73030803603723,花园小区,10,6950,大连四通物业管理有限公司,0.1,辽宁,4,二手房,1993
无门店信息,大连,暂无信息,金州,20181127,34.52713835999158,118.76812980670795,天鸿展视界,15,6382,暂无信息,-,辽宁,4,二手房,-
大连市沙河口区西南路875号1层21号,大连,无开发商,沙河口,20181127,38.94485969061231,121.58418648447764,华北路（春柳商圈）,8,10589,街道办事处（居委会）代管物业,0.1,辽宁,4,二手房,1981
金州区站前街道盛滨花园B区13号楼2号公建,大连,大连阿尔滨集团房地产开发有限公司,金州,20181127,39.09609011892329,121.7335816409767,盛滨花园B区,35,7187,大连阿尔滨集团物业管理有限公司,0.4,辽宁,4,二手房,2000
开发区红梅小区19栋-2-1-1号,大连,大连新财富中心大厦有限公司,开发区,20181127,29.906498897603264,121.5913630631805,新财富大厦,11,9245,街道办事处（居委会）代管物业,1.5,辽宁,4,二手房,2007
无门店信息,大连,暂无信息,西岗,20181127,34.52713835999158,118.76812980670795,34中纪念街,54,27546,暂无信息,-,辽宁,4,二手房,1990
大连市开发区东北三街103号公建,大连,开发区城建局,开发区,20181127,39.05621858250137,121.80658750738304,倚园里小区,58,6889,大连佳兴物业管理有限公司,0.3,辽宁,4,二手房,1999
西岗区长春路334号,大连,无开发商,西岗,20181127,38.89807766522607,121.63221082858387,石葵路（石道街商圈）,7,11435,街道办事处（居委会）代管物业,0.5,辽宁,4,二手房,1995
大连市金州区友谊街道南金华城25号1-2层1号,大连,大连友谊合升房地产开发有限公司,金州,20181127,39.128677228885614,121.71356109978767,恒达花园,45,7807,街道办事处（居委会）代管物业,0.5,辽宁,4,二手房,2004
西岗区新田巷11号三单元103,大连,无开发商,西岗,20181127,38.89276612016956,121.64190731791966,新船巷,31,7967,无物业管理服务,-,辽宁,4,二手房,1992
金州区南棉路310号,大连,无开发商,金州,20181127,39.09939229372624,121.72414976100345,劳动局小区,69,7958,无物业管理服务,0.1,辽宁,4,二手房,1990
大连市沙河口区知邻街50号,大连,大连软件园开发有限公司,沙河口,20181127,38.921778341674376,121.58261780680284,宅语原,33,19411,亿达物业管理有限公司,2,辽宁,3,二手房,2008
沙河口区前程街15号1层E-C轴36-44轴公建,大连,大连安邦房地产开发有限公司,甘井子,20181127,38.921778341674376,121.58261780680284,阳光百合,11,15988,渤海吉祥物业管理有限公司,0.8,辽宁,3,二手房,2004
中山区中青街43号,大连,大连亿达房地产股份有限公司,中山,20181127,38.90150598268117,121.65711014604845,青云映山,14,24906,亿达物业管理有限公司,1.3,辽宁,3,二手房,2005
"西岗区泰公街20号2层7号 西岗区久寿街22号1层14号""",大连,大连万达房地产开发有限公司,西岗,20181127,38.92600196862723,121.62141976476381,新春小区,8,13862,大连长青物业管理中心,0.2,辽宁,3,二手房,1997
甘井子区红旗西路104-7,大连,大连安邦房地产开发有限公司,甘井子,20181127,38.940012695252975,121.52780738260293,水畔香谷,14,13947,大连万科绿色家园物业有限公司,1,辽宁,3,二手房,2007
高新园区火炬路18号,大连,大连嘉创房地产开发有限公司,高新园区,20181127,38.937738080520404,117.39340752036043,嘉创E人国际,49,14838,大连紫金物业管理有限公司,2,辽宁,3,二手房,2011
大连市甘井子区七贤路8-3号,大连,大连瑞恒置业有限公司,高新园区,20181127,38.86659077085588,121.5392980566355,未名山,45,20996,大连龙湖物业服务有限公司,3,辽宁,3,二手房,2015
中山区武昌街武昌公寓6号公建,大连,大连武昌房地产开发有限公司,中山,20181127,38.912280913445784,121.64921130527547,部居逸阁,20,12715,大连宜佳物业管理有限公司,1,辽宁,3,二手房,2005
甘井子区红旗中路143号1层4号,大连,大连长鹭房屋开发有限公司,甘井子,20181127,38.93169566676921,121.5426632438217,西街晶品,20,17750,大连万泰物业管理有限公司,0.8,辽宁,3,二手房,2006
沙河口区红旗东路18-22号2单元1楼3号,大连,无开发商,甘井子,20181127,38.921778341674376,121.58261780680284,天泉山庄,12,10091,大连铁龙安居物业管理有限公司,0.5,辽宁,3,二手房,2000
高新园区海苑街36号1单元2号公建,大连,大连鸿越房地产开发有限公司,高新园区,20181127,20.06392317589085,110.32302599457326,康桥小镇,20,16448,大连长青物业管理中心,1.3,辽宁,3,二手房,2010
高新园区硅谷假日小区25号楼地下室,大连,大连志恒房地产开发有限公司,高新园区,20181127,38.865995717263544,121.53771220335938,菁英汇,48,16211,大连海创物业管理有限公司,1.2,辽宁,3,二手房,2007
沙河口区黄河路535号,大连,大连首星房地产开发有限公司,沙河口,20181127,38.91773777159567,121.60217159922856,金色年华公馆,36,27651,大连首星物业管理有限公司,2.8,辽宁,3,二手房,2011
西岗区鞍山路65-5号,大连,大连万达房地产开发有限公司,沙河口,20181127,38.92701992456326,121.60258216167713,79中广电中心,76,28312,无物业管理服务,-,辽宁,3,二手房,1988
甘井子区红旗花园23号楼19-24轴公建,大连,大连银泰房地产有限公司,甘井子,20181127,38.93108029984587,121.54902145022133,祥和园,18,13812,无物业管理服务,-,辽宁,3,二手房,2002
甘井子区泉水D1区37-7号,大连,大连运腾房地产开发有限公司,甘井子,20181127,39.013992871679214,121.61921940045104,锦泉源D2区,165,13134,大连佳泰物业管理有限公司,0.5,辽宁,3,二手房,2005
沙河口区黄河路535号,大连,大连城市建设集团有限公司,沙河口,20181127,38.91773777159567,121.60217159922856,79中至诚小区,36,29056,大连天河物业管理有限公司,0.1,辽宁,3,二手房,1958
西岗区八一路196号2-1-12号,大连,大连欧美亚房地产开发有限公司,西岗,20181127,38.89127420834314,121.6483201412943,中华名城,32,17846,大连峰霖物业管理有限公司,1.5,辽宁,3,二手房,2003
高新园区海苑街30号1单元1号公建,大连,大连大有文园房屋开发有限公司,高新园区,20181127,20.06392317589085,110.32302599457326,大有文园,51,17839,大连大有恬园物业管理有限公司,2,辽宁,3,二手房,2012
沙河口区中山路417A-4号,大连,大连新希望家园房地产有限公司,沙河口,20181127,38.90734671814175,121.59482182703752,新希望花园,21,18404,大连乾峰物业管理有限公司,1.3,辽宁,3,二手房,2003
大连市甘井子区丰收路3-5号,大连,大连亿海房地产开发有限公司,甘井子,20181127,38.965377255081755,121.58288415324094,亿海盛都,21,18826,街道办事处（居委会）代管物业,0.5,辽宁,3,二手房,2004
促进路30号2单元1楼1号,大连,中信集团大连中信房地产开发公司,甘井子,20181127,38.954133128707575,121.58355746311207,和兴家园,12,14475,大连中信物业管理有限公司,0.5,辽宁,3,二手房,2003
开发区小孤山西里27栋-7号,大连,远洋地产有限公司,开发区,20181127,39.0278711398559,121.8095276927579,红星海四期城市别馆二号,59,12309,大连远洋基业物业管理有限公司,3.5,辽宁,3,二手房,2012
甘井子区柳树南街45-10号,大连,中体产业集团大连乐百年置业有限公司,甘井子,20181127,38.92567666296449,121.4841330254372,水木清华,17,11564,大连辰谊物业管理有限公司,1.2,辽宁,3,二手房,2009
大连市甘井子区软件园路122号,大连,大连理工科技城建设开发有限公司,高新园区,20181127,38.89286578891647,121.53266600180116,理工园,15,13789,街道办事处（居委会）代管物业,1,辽宁,3,二手房,2000
经济技术开发区红星海-A区81-2号1层,大连,无开发商,开发区,20181127,39.027851194371685,121.80327394132297,西雅图,28,9999,大连维泰物业管理有限公司,0.8,辽宁,3,二手房,2004
甘井子区泡崖六小区6号楼1单元1层2号,大连,大连新型房地产开发有限公司,甘井子,20181127,38.98033159306754,121.55920598894072,泡崖六区,27,10201,大连新型物业管理有限公司,0.3,辽宁,3,二手房,2002
甘井子区玉丽街35号4单元-1-2,大连,大连新型房地产开发有限公司,甘井子,20181127,38.98487421584909,121.55236707590676,玉浓街,53,10022,大连新兴物业管理有限公司,0.2,辽宁,3,二手房,2002
沙河口区富国街14号1-1-2,大连,大连永辉房地产开发有限公司,沙河口,20181127,38.901027106600836,121.59047734850638,百年汇,64,14058,大连百年城物业管理有限公司,2.8,辽宁,3,二手房,2007
中山区民运巷 47号1层2号,大连,大连新型房地产开发总公司,中山,20181127,38.905955122300846,121.64798148011702,葵英小区,5,10187,街道办事处（居委会）代管物业,0.3,辽宁,3,二手房,1999
沙河口区兰田街33号,大连,大连万合房地产开发有限公司,沙河口,20181127,38.926138912221084,121.56486022834609,万合新家园,8,16755,大连佳宜物业管理有限公司,0.6,辽宁,3,二手房,2004
大连市甘井子区丰收路3-5号,大连,无开发商,甘井子,20181127,38.965377255081755,121.58288415324094,王家桥,47,13509,大连铁路物业管理有限公司,0.2,辽宁,3,二手房,1989
中山区三八广场5号,大连,大连宏正房地产开发有限公司,中山,20181127,38.92540000551715,121.6642911149562,宏都嘉园,2,20732,大连宏进物业管理有限公司,0.5,辽宁,3,二手房,2002
甘井子辛吉街150号-7号,大连,大连金马房屋开发有限公司,甘井子,20181127,38.96309956105142,121.52341678860995,金马圣隆,27,12622,大连金马圣隆物业管理有限公司,0.5,辽宁,3,二手房,2006
沙河口区红凌路137号,大连,大连大实企业集团房屋开发有限公司,甘井子,20181127,38.922699288974506,121.54713601744747,叠翠山庄,22,10169,大连弘实物业管理有限公司,0.4,辽宁,3,二手房,2000
沙河口区红凌路137号,大连,大连大实企业集团房屋开发有限公司,甘井子,20181127,38.922699288974506,121.54713601744747,泊林映山,10,12346,大连弘实物业管理有限公司,1.2,辽宁,3,二手房,2011
甘井子区山东路398号,大连,华润置地（大连）开发有限公司,甘井子,20181127,38.99821826443242,121.59274974973462,华润置地广场三期,41,19336,华润物业（大连）有限公司,2.9,辽宁,3,二手房,2016
中山区中南路226号,大连,大连亿泰房屋开发有限公司,中山,20181127,38.90029610333926,121.68178899957817,亿泰庄园,11,13585,大连远洋基业物业管理有限公司,0.7,辽宁,3,二手房,1999
中山区中南路226号,大连,大连海王府房地产开发有限公司,中山,20181127,38.90029610333926,121.68178899957817,海王府现代城,14,15249,街道办事处（居委会）代管物业,1,辽宁,3,二手房,2004
大连市甘井子区辛如街35号1单元1层1号,大连,大连新星房地产开发有限公司,甘井子,20181127,38.96862607066881,121.52294869064194,新星绿城六期,27,14236,大连生生物业管理有限公司,1,辽宁,3,二手房,2008
开发区松苑街23号,大连,大连泰乐房地产开发有限公司,开发区,20181127,22.52087710763645,113.40156104777168,碧海华庭,29,6138,大连海滨物业管理有限公司,0.5,辽宁,3,二手房,2005
开发区东北三街94号1层,大连,大连欣达房地产开发有限公司,开发区,20181127,39.05723508011585,121.80570768630555,倚山里小区,191,6797,大连经济技术开发区聚盛达物业管理有限公司,0.2,辽宁,3,二手房,1996
甘井子祥龙街2号1-1-1,大连,大连美辰房地产开发有限公司,甘井子,20181127,39.00554266797988,121.6172971605072,美辰香醒,45,15651,大连众和物业管理有限公司,1.4,辽宁,3,二手房,2012
无门店信息,大连,大连鲁能置业有限公司,金州,20181127,34.52713835999158,118.76812980670795,鲁能优山美地,67,9410,长城物业集团股份有限大连分公司,1.8,辽宁,3,二手房,2012
甘井子区甘井子路32号楼1单元1楼9号,大连,无开发商,甘井子,20181127,38.982488275116516,121.63345389253514,松江小区,31,10524,街道办事处（居委会）代管物业,0.5,辽宁,3,二手房,1995
开发区湾里南12栋-16-17-18号,大连,大连金湾实业有限公司,开发区,20181127,39.070782084451,121.8506739675913,湾里西,44,7211,广宜物业有限公司,0.2,辽宁,3,二手房,2003
中山区山屏街116号1-1,大连,无开发商,中山,20181127,38.90729438486833,121.68598159980013,怡和街,32,11326,街道办事处（居委会）代管物业,0.5,辽宁,3,二手房,1990
中山区解放路604号,大连,大连雅风房屋开发有限公司,中山,20181127,38.89026319122045,121.66407876092346,秀月风景,8,17923,大连风景物业管理有限公司,1,辽宁,3,二手房,1996
无门店信息,大连,大连新兴海韵房地产开发有限公司,开发区,20181127,34.52713835999158,118.76812980670795,山海家园,10,11687,大连经济技术开发区通讯物业有限公司,0.5,辽宁,3,二手房,2004
无门店信息,大连,大连运达房地产集团有限公司,甘井子,20181127,34.52713835999158,118.76812980670795,运达诺维溪谷一期,21,13819,大连运达物业有限公司,1.8,辽宁,3,二手房,2010
无门店信息,大连,无开发商,金州,20181127,34.52713835999158,118.76812980670795,滨海丰园,81,7561,街道办事处（居委会）代管物业,0.5,辽宁,3,二手房,2011
开发区金源南里14栋-11号一层部分，14号-12号一层部分,大连,大连开建房地产开发有限公司,开发区,20181127,39.06148997014026,121.82510513314875,金源北里安居小区,55,8092,嘉兴物业管理有限公司,0.3,辽宁,3,二手房,1999
沙河口区西南路643号,大连,无开发商,沙河口,20181127,38.943483429804665,121.5833555851182,恒达花园（沙河口）,13,10973,无物业管理服务,-,辽宁,3,二手房,1990
无门店信息,大连,大连经开万达广场投资有限公司,开发区,20181127,34.52713835999158,118.76812980670795,大连开发区万达广场,90,8659,大连万达物业管理有限公司,2.5,辽宁,3,二手房,2015
沙河口区西南路40号楼,大连,无开发商,沙河口,20181127,38.94141605900714,121.58612100465703,尖山街,11,11217,无物业管理服务,-,辽宁,3,二手房,1990
甘井子区泉水B5区27-9,大连,大连华智房地产开发有限公司,甘井子,20181127,39.014833760509994,121.60955220395961,华远新都汇广场,27,10656,街道办事处（居委会）代管物业,1,辽宁,3,二手房,2010
无门店信息,大连,大连安邦房地产开发有限公司,甘井子,20181127,34.52713835999158,118.76812980670795,安邦阳光润城,18,13652,无物业管理服务,-,辽宁,3,二手房,2011
沙河口区西南路40号楼,大连,无开发商,沙河口,20181127,38.94141605900714,121.58612100465703,杭州街,16,10454,无物业管理服务,-,辽宁,3,二手房,1990
沙河口区前程街46号4—1—2号,大连,大连渤海红旗集团有限公司,甘井子,20181127,38.921778341674376,121.58261780680284,兰丰巷,16,10765,大连辽南物业管理有限公司,0.2,辽宁,3,二手房,1992
经济技术开发区城润万家4-5号公建,大连,志广房地产有限公司,开发区,20181127,39.05716325096989,121.75946281983826,恒安花园,16,8682,大连志广物业管理有限责任公司,0.9,辽宁,3,二手房,2004
西岗区长春路334号,大连,大连新型房地产开发总公司,西岗,20181127,38.89807766522607,121.63221082858387,林茂小区,24,9367,大连新型物业管理有限公司,0.2,辽宁,3,二手房,1995
沙河口区沙能街101号1单元1层1号,大连,大连政府城区改造办公室,沙河口,20181127,38.9366316275348,121.59031205759763,新居佳园,7,12602,大连大力物业管理有限公司,1.5,辽宁,3,二手房,2012
沙河口区富国街14号1-1-2,大连,无开发商,沙河口,20181127,38.901027106600836,121.59047734850638,西安路（和平广场商圈）,2,12285,无物业管理服务,-,辽宁,3,二手房,1996
开发区大开高吉里33栋6号,大连,无开发商,开发区,20181127,39.07355836059941,121.8280439450145,高泰里,27,5626,无物业管理服务,-,辽宁,3,二手房,1998
开发区高新里6栋-8,大连,无开发商,开发区,20181127,39.0710895068195,121.82860134358343,高志里小区,35,5912,街道办事处（居委会）代管物业,0.3,辽宁,3,二手房,1993
西岗区绕山路28号1层1号,大连,无开发商,西岗,20181127,38.90352859160372,121.61547503761078,绕山路,13,10513,无物业管理服务,-,辽宁,3,二手房,1995
沙河口区五四路207-1-9号,大连,无开发商,沙河口,20181127,38.906488732904506,121.5996637934482,集贤街,8,12488,无物业管理服务,-,辽宁,3,二手房,1990
金州区鹏程家园53#-8,大连,大连海富花园开发有限公司,开发区,20181127,39.0348243693741,121.81226722991913,鹏程家园（开发区）,13,7067,广宜物业有限公司,1.2,辽宁,3,二手房,2006
甘井子区玉丽街39号楼3号公建,大连,大连新型房地产开发有限公司,甘井子,20181127,38.98706755029984,121.55605471197089,玉丽街,56,9350,大连新兴物业管理有限公司,0.5,辽宁,3,二手房,2002
甘井子区华北路花锦园28号23-3-1-2建筑物,大连,无开发商,甘井子,20181127,38.951627958411166,121.5739439799003,久胜街,15,14916,街道办事处（居委会）代管物业,0.1,辽宁,3,二手房,1989
天河路173-2号 华润考拉22号公建,大连,无开发商,甘井子,20181127,23.147151253133927,113.3277313198351,七胜路,12,10316,街道办事处（居委会）代管物业,0.5,辽宁,3,二手房,1989
中山区中青街43号,大连,无开发商,中山,20181127,38.90150598268117,121.65711014604845,解放路（青云街商圈）,5,12012,街道办事处（居委会）代管物业,0.6,辽宁,3,二手房,1997
沙河口区西南路851号3单元1层3号,大连,无开发商,沙河口,20181127,38.94344210837944,121.58246796944378,李家街,25,11031,无物业管理服务,0.1,辽宁,3,二手房,1985
无门店信息,大连,暂无信息,甘井子,20181127,34.52713835999158,118.76812980670795,76中学桥南,50,14440,大连新华物业管理有限公司,0.2,辽宁,3,二手房,1970
开发区黄海西路201号107公建,大连,大连中信海港投资有限公司,开发区,20181127,39.04942604506828,121.80126318235419,润泽园小区,44,8403,大连新华物业管理有限公司,1.9,辽宁,3,二手房,2010
中山区山屏街116号1-1,大连,大连中信海港投资有限公司,中山,20181127,38.90729438486833,121.68598159980013,山屏街,34,10469,大连大众物业管理有限公司,0.5,辽宁,3,二手房,1988
沙河口区兰田街33号,大连,无开发商,沙河口,20181127,38.926138912221084,121.56486022834609,兰田街,11,11899,街道办事处（居委会）代管物业,0.4,辽宁,3,二手房,1990
大连市甘井子区椒房街24号楼2-104链家地产,大连,无开发商,甘井子,20181127,38.985363789837166,121.61034055597686,椒房,76,13458,无物业管理服务,0.5,辽宁,3,二手房,1985
无门店信息,大连,大连中连房地产开发有限公司,金州,20181127,34.52713835999158,118.76812980670795,憬园河畔,37,6769,大连新生活物业管理有限公司,0.5,辽宁,3,二手房,2000
沙河口区锦虹北园38-3-1-1,大连,大连锦绣房地产开发有限公司,沙河口,20181127,38.95230821928003,121.55503724232328,锦城东园,24,16326,大连锦绣物业管理有限公司,0.6,辽宁,2,二手房,2006
无门店信息,大连,大连九城房地产开发有限公司,开发区,20181127,34.52713835999158,118.76812980670795,新城丽景,16,9709,大连恒瑞物业管理有限公司,1.2,辽宁,3,二手房,2015
甘井子区西南路979-7号公建,大连,无开发商,甘井子,20181127,38.96275592929325,121.5958698791777,八十中,0,16790,街道办事处（居委会）代管物业,0.9,辽宁,2,二手房,1999
中山区中青街87号一单元107,大连,大连亿达房地产股份有限公司,中山,20181127,38.90213494248529,121.65806522267005,青云林海,44,20329,亿达物业管理有限公司,1,辽宁,2,二手房,2001
沙河口区黄河路535号,大连,大连建园房地产开发有限公司,沙河口,20181127,38.91773777159567,121.60217159922856,79中城市公元,46,28588,大连斌弘物业管理有限公司,2.6,辽宁,2,二手房,2009
沙河口区恒利园42号-8,大连,大连三寰房屋开发有限公司,沙河口,20181127,38.93357562498634,121.57914091532649,三寰芳草园,15,13721,大连空港物业管理有限公司,0.4,辽宁,2,二手房,2003
沙河口区富静街26号1单元1层5号,大连,大连正源房地产开发有限公司,沙河口,20181127,38.908727606250466,121.58667844684369,幸福e家五期,134,32295,大连正源物业服务有限公司,1.8,辽宁,2,二手房,2008
甘井子区汇仁街22号,大连,大连永高房屋开发有限公司,甘井子,20181127,38.99712640764999,121.58834420439493,加州洋房,47,13288,大连怡和物业服务有限公司,0.9,辽宁,2,二手房,2008
甘井子区促进路30号2-1-1,大连,福佳集团有限公司,甘井子,20181127,38.954133128707575,121.58355746311207,府佳名都,20,15513,大连富佳物业管理有限公司,0.5,辽宁,2,二手房,2002
高新园区书香街1A#1-1-2,大连,大连金弘基房地产开发有限公司,高新园区,20181127,38.880372108393104,121.55218773010999,弘基三期,45,19569,大连金弘基物业管理有限公司,0.5,辽宁,2,二手房,2005
无门店信息,大连,无开发商,金州,20181127,34.52713835999158,118.76812980670795,香山翌景,20,6812,街道办事处（居委会）代管物业,0.5,辽宁,3,二手房,2010
大连经济技术开发区时代城4-3号1-2号,大连,暂无信息,开发区,20181127,39.0992481321252,121.83007860699459,摩宿公寓,26,7664,大连远洋基业物业管理有限公司,1.5,辽宁,3,二手房,2012
中山区高尚路28-1号,大连,无开发商,中山,20181127,38.892673425111305,121.67148833870213,高寿街,10,9068,无物业管理服务,-,辽宁,3,二手房,1991
西岗区黄河路362号公建,大连,大连万峰房地产开发有限公司,西岗,20181127,38.91819905243802,121.61365779430986,万达华府一期,56,26762,大连万景物业管理有限公司,1.3,辽宁,2,二手房,2005
大连市金州新区友谊街道和平路59-10号1-2层公建,大连,无开发商,金州,20181127,39.112168401852266,121.72006917947859,古城乙区,118,6501,无物业管理服务,-,辽宁,3,二手房,1992
无门店信息,大连,暂无信息,甘井子,20181127,34.52713835999158,118.76812980670795,八十中周家街,36,16049,街道办事处（居委会）代管物业,0.2,辽宁,3,二手房,1990
无门店信息,大连,大连顺浩置业有限公司,开发区,20181127,34.52713835999158,118.76812980670795,上品公馆,13,6582,大连顺浩置业物业有限公司,3.8,辽宁,3,二手房,2013
大连市沙河口区西南路875号1层21号,大连,无开发商,沙河口,20181127,38.94485969061231,121.58418648447764,西南路（春柳商圈）,9,11655,大连三宝物业有限公司,0.5,辽宁,3,二手房,1990
无门店信息,大连,大连软件园安博开发有限公司,高新园区,20181127,34.52713835999158,118.76812980670795,亿达普罗旺斯,50,18743,亿达物业管理有限公司,2.6,辽宁,2,二手房,2014
中山区爱华街13号,大连,大连汇邦置业有限公司,中山,20181127,38.92541607518685,121.6535728031028,汇邦中心,28,46015,大连新昌物业管理有限公司,4.2,辽宁,2,二手房,2012
甘井子区红南东街7-7号,大连,大连良运房地产开发有限公司,甘井子,20181127,38.92880462247992,121.54144910207062,山居笔记,19,15361,大连良运物业管理有限公司,1.5,辽宁,2,二手房,2009
沙河口区华新苑10号楼4号公建,大连,大连新型房地产开发有限公司,沙河口,20181127,38.921778341674376,121.58261780680284,华新苑,3,13517,大连新型物业管理有限公司,0.5,辽宁,2,二手房,2003
沙河口区五一路326号,大连,无开发商,高新园区,20181127,38.88949370884506,121.5496388331407,双语学校,17,22609,无物业管理服务,0.2,辽宁,2,二手房,1998
高新园区聚贤路36号5幢1单元1层1号,大连,大连金真源集团房地产开发有限公司,高新园区,20181127,32.31472011562832,119.46141263909165,山海一家三期,14,17240,大连龙海物业管理有限公司,1.2,辽宁,2,二手房,2010
无门店信息,大连,大连软件园瑞安发展有限公司,高新园区,20181127,34.52713835999158,118.76812980670795,大连天地悦翠台,52,13234,暂无信息,1,辽宁,2,二手房,2013
沙河口区民权街324号,大连,大连天河房地产开发集团有限公司,沙河口,20181127,38.92064616208148,121.59777611850379,民权小区,38,10244,大连福港物业管理有限公司,0.2,辽宁,2,二手房,1992
沙河口区黄浦路18号—5号公建,大连,大连高新技术产业园区建设开发总公司,高新园区,20181127,38.8771225143479,121.54427480390662,学府1+1,5,18371,街道办事处（居委会）代管物业,0.5,辽宁,2,二手房,2007
大连市甘井子区逸林南园1-1号,大连,大连三联置业有限公司,甘井子,20181127,38.95546176066109,121.5285003794903,三鼎春天,22,21266,瑞联德（大连）物业管理有限公司,2.8,辽宁,2,二手房,2018
西岗区平等街21号1层2号,大连,裕景兴业（大连）有限公司,西岗,20181127,38.92251066253164,121.63236845125735,中心裕景,44,20021,第一太平戴维斯物业顾问（北京）有限公司大连分公司,3.8,辽宁,2,二手房,2012
无门店信息,大连,大华集团大连置业有限公司,高新园区,20181127,34.52713835999158,118.76812980670795,大华锦绣华城四期,26,23106,大连大华物业管理有限公司,2.5,辽宁,2,二手房,2015
甘井子区西南路979-7号公建,大连,大连祥盛房屋开发有限公司,甘井子,20181127,38.96275592929325,121.5958698791777,金盛家园,32,17286,大连宏华物业管理有限公司,0.5,辽宁,2,二手房,2001
开发区红梅小区19栋-2-1-1号,大连,开发区城建局,开发区,20181127,29.906498897603264,121.5913630631805,红梅小区,44,9559,街道办事处（居委会）代管物业,0.3,辽宁,2,二手房,1995
甘井子区中华路泉水A1区86号4单元1层1号,大连,大连科技园房地产开发有限公司,甘井子,20181127,39.0040066317761,121.60658685435251,奥林园,48,13214,大连衡德物业管理有限公司,0.5,辽宁,2,二手房,2004
甘井子区哲林北园17-6号,大连,大连亿达美加房地产开发有限公司,甘井子,20181127,38.9600267109581,121.53876726228256,第五郡三号地,54,23028,亿达物业管理有限公司,2.2,辽宁,2,二手房,2012
甘井子辛吉街150号-7号,大连,大连新星房地产开发有限公司,甘井子,20181127,38.96309956105142,121.52341678860995,新星帕尔美娜,41,14938,大连生生物业有限公司,1,辽宁,2,二手房,2009
中山区华乐街93—1号,大连,大连环海房地产开发有限公司,中山,20181127,38.921950924512124,121.68673151242629,华乐环海花园,17,21158,大连景和物业管理有限公司,1.1,辽宁,2,二手房,2004
西岗区鞍山路65-5号,大连,大连华阳房地产开发有限公司,沙河口,20181127,38.92701992456326,121.60258216167713,华阳风尚,9,14243,北京凯莱物业管理有限公司大连分公司,1.2,辽宁,2,二手房,2009
沙河口区锦虹北园38-3-1-1,大连,大连锦绣房地产开发有限公司,沙河口,20181127,38.95230821928003,121.55503724232328,锦城园C区,25,12259,大连锦绣物业管理有限公司,0.6,辽宁,2,二手房,2006
高新园区聚贤路36号5幢1单元1层1号,大连,大连海创房地产开发有限公司,高新园区,20181127,32.31472011562832,119.46141263909165,谷歌里,41,13776,大连海创物业管理有限公司,1.2,辽宁,2,二手房,2009
开发区鹏程家园66#-6、66#-7公建,大连,大连神洲众益集团有限公司,开发区,20181127,38.90045524508753,121.63339362744885,众益阳光海岸,74,9899,大连万佳物业管理有限公司,1.2,辽宁,2,二手房,2005
西岗区黄河路82号,大连,大连民兴房地产开发有限公司,西岗,20181127,38.92243503020161,121.6287927913896,前城国际二期,24,21597,大连前城花园物业管理有限公司,1.5,辽宁,2,二手房,2000
开发区润海园中区30-1,大连,华润（大连）房地产有限公司,开发区,20181127,39.04047273176333,121.76392358042445,华润海中国三期,137,13335,华润物业（大连）有限公司,3.1,辽宁,2,二手房,-
无门店信息,大连,大连软件园世通开发有限公司,高新园区,20181127,34.52713835999158,118.76812980670795,亿达普罗旺斯二期,48,16367,亿达物业管理有限公司,2.6,辽宁,2,二手房,2014
沙河口区星海广场B3区14-9,大连,大连友谊合升房地产开发有限公司,沙河口,20181127,38.887408126588866,121.58732762887982,壹品星海三期,34,22030,大连友谊物业服务有限公司,1.9,辽宁,2,二手房,2007
沙河口区星海广场B3区14-2号1层,大连,大连万达房地产开发有限公司,沙河口,20181127,38.88693148294673,121.58735631267305,大连明珠,50,22694,大连万象美物业管理有限公司,3.5,辽宁,2,二手房,2008
大连市甘井子区椒房街24号楼2-104链家地产,大连,大连圣韬房地产开发有限公司,甘井子,20181127,38.985363789837166,121.61034055597686,万福山庄,21,13744,大连海旭物业管理有限公司,0.5,辽宁,2,二手房,2005
开发区兴城路29-81层,大连,大连亿锋集团有限公司,开发区,20181127,39.05020829677517,121.7578103751747,亿锋广场三期,40,14027,大连广恒物业管理有限公司,2.8,辽宁,2,二手房,2015
中山区华乐街107-115号1单元1层2号,大连,大连华旭置业有限公司,中山,20181127,38.92093821499401,121.68879267531725,东港第,16,26069,大连华锐世纪物业管理有限公司,3,辽宁,2,二手房,2015
大连市甘井子区燕南园50号,大连,大连鑫园房屋开发有限公司,高新园区,20181127,38.90172480153224,121.5363466289672,新新园一期,16,13252,大连理工物业管理中心,0.3,辽宁,2,二手房,2000
西岗区大同街125号,大连,大连新型房地产开发有限公司,西岗,20181127,38.920458602340894,121.61445835429899,银寰花园,21,9754,街道办事处（居委会）代管物业,0.5,辽宁,2,二手房,1995
甘井子区泉水P3区35-2号,大连,大连天意房地产开发有限公司,甘井子,20181127,39.01527710332192,121.63580499384456,金地檀溪,66,14810,大连金地物业管理有限公司,2.8,辽宁,2,二手房,2014
高新园区敬贤街25-9,大连,大连东盛房地产开发有限公司,高新园区,20181127,38.86877373541043,121.52975162654023,东盛启城,28,16761,大连东盛物业管理有限公司,2.3,辽宁,2,二手房,2012
甘井子辛吉街150号-7号,大连,大连新星房地产开发有限公司,甘井子,20181127,38.96309956105142,121.52341678860995,新星绿城三期,44,12309,大连生生物业管理有限公司,0.5,辽宁,2,二手房,2006
中山区共建巷61号,大连,大连恒盛房屋开发有限公司,中山,20181127,38.91828093658718,121.66259221532148,月恒花园,5,28040,大连佳捷物业管理有限公司,0.8,辽宁,2,二手房,2001
高新园区敬贤街25-9,大连,大连邦盛发展有限公司,高新园区,20181127,38.86877373541043,121.52975162654023,雯君庭,25,19965,大连意美物业服务有限公司,2.3,辽宁,2,二手房,2013
甘井子区锦城东园1号3单元1层2号,大连,大连鹏生房地产开发有限公司,甘井子,20181127,38.952805477462775,121.55656194973994,鹏辉新纪元,16,15803,大连鹏辉物业管理有限公司,0.5,辽宁,2,二手房,2006
沙河口区新生路万客园3-7,大连,大连中海兴业房地产开发有限公司,沙河口,20181127,38.94412875710208,121.57006756704837,中海天赋山一期,17,21370,大连中海物业管理有限公司,2.8,辽宁,2,二手房,2016
甘井子区红南东街7-7号,大连,大连大实企业集团房屋开发有限公司,甘井子,20181127,38.92880462247992,121.54144910207062,泊林和山,23,12314,大连弘实物业管理有限公司,0.6,辽宁,2,二手房,2007
甘井子区红旗西路104-7,大连,大连盛达基业房地产开发有限公司,甘井子,20181127,38.940012695252975,121.52780738260293,依山云水,23,14106,大连盛新物业管理有限公司,0.4,辽宁,2,二手房,2004
西岗区鞍山路65-5号,大连,大连恒利房屋开发有限公司,沙河口,20181127,38.92701992456326,121.60258216167713,中长花园,15,12628,大连金星物业管理中心,0.5,辽宁,2,二手房,2000
西岗区香炉礁24号1-1,大连,中瑞置业（大连）有限公司,西岗,20181127,38.91336952993919,121.6258229781024,香周首府,67,16812,中融物业管理有限公司,3,辽宁,2,二手房,2014
甘井子区泉水D6区51号,大连,大连时代房地产开发有限公司,甘井子,20181127,39.00897610161069,121.61789300655198,富士庄园,52,14146,大连佳泰物业管理有限公司,1.2,辽宁,2,二手房,2006
中山区北斗街53号1层1号,大连,大连万众房屋开发有限公司,中山,20181127,38.92727355733075,121.67002970974048,清华园(中山),20,17322,大连万众物业有限公司,1.7,辽宁,2,二手房,2003
金州区小平岛B组团4号楼3号商铺,大连,大连圣岛房地产开发有限公司,高新园区,20181127,39.2986190718601,121.95658248043723,小平岛揽海名寓,25,18274,大连凯尔富物业管理有限公司,1.7,辽宁,2,二手房,2010
中山区民运巷 47号1层2号,大连,大连连城房地产开发有限公司,中山,20181127,38.905955122300846,121.64798148011702,葵英林苑,5,17598,无物业管理服务,-,辽宁,2,二手房,2005
甘井子区泉水E1区27号-3公建,大连,大连百思泰置业有限公司,甘井子,20181127,39.002846129004375,121.61312453141336,钰桥中央庭院,36,15883,大连百嘉物业管理有限公司,1.8,辽宁,2,二手房,2014
西岗区黄河路90号公建部分,大连,无开发商,西岗,20181127,38.92234529815978,121.62829331825485,37中合谊街,8,15060,无物业管理服务,-,辽宁,2,二手房,1993
中山区同心街72号1楼公建,大连,无开发商,中山,20181127,38.91979245940674,121.64769198230202,南山里,14,14327,无物业管理服务,-,辽宁,2,二手房,1990
中山区武昌街武昌公寓6号公建,大连,暂无信息,中山,20181127,38.912280913445784,121.64921130527547,学府林居,23,11726,暂无信息,-,辽宁,2,二手房,2000
高新园区红凌路732-4号,大连,大华集团大连房地产开发有限公司,高新园区,20181127,38.90158813547366,121.53265954348016,大华爱琴湾,24,19630,大连大华物业管理有限公司,1.8,辽宁,2,二手房,2010
金州区小平岛B组团4号楼3号商铺,大连,大连圣岛房地产开发有限公司,高新园区,20181127,39.2986190718601,121.95658248043723,小平岛海悦山,51,18461,大连凯尔富物业管理有限公司,1.3,辽宁,2,二手房,2011
中山区爱华街13号,大连,无开发商,中山,20181127,38.92541607518685,121.6535728031028,39中安阳街,31,25031,无物业管理服务,-,辽宁,2,二手房,1993
沙河口区连山街44-2号半地下一层（地上一层部分）,大连,大连亿达房地产股份有限公司,沙河口,20181127,38.892991456958086,121.57299542767161,星海小区,17,11720,无物业管理服务,-,辽宁,2,二手房,1996
甘井子区泉水D1区10-2#1-1-7,大连,大连运达房地产集团有限公司,甘井子,20181127,39.014763910942854,121.61661407462454,锦泉源B4区,29,11669,大连佳泰物业管理有限公司,0.5,辽宁,2,二手房,2002
沙河口区兰田街33号,大连,渤海恒达房屋开发有限公司,沙河口,20181127,38.926138912221084,121.56486022834609,西苑小区,24,11059,大连西苑物业管理有限公司,0.3,辽宁,2,二手房,1997
大连市甘井子区融田西园52-11,大连,大连圣安房地产开发有限公司,甘井子,20181127,38.95546176066109,121.5285003794903,亿达春田晴湾,49,15352,亿达物业管理有限公司,2.2,辽宁,2,二手房,2013
甘井子区虹城路503号1-1号,大连,大连易和房地产集团有限公司,甘井子,20181127,38.981193588625004,121.49964051837122,岭秀滨城悦和中园,33,14310,大连易兴物业服务有限公司,1.3,辽宁,2,二手房,2009
沙河口区黑石礁街5号1层1号,大连,无开发商,沙河口,20181127,38.879813345473714,121.56313742300513,黑石礁广场,24,12722,无物业管理服务,-,辽宁,2,二手房,1992
大连市甘井子区钻石湾和信园13-5,大连,远洋地产有限公司,甘井子,20181127,38.95806887148857,121.62117199773128,远洋钻石湾二期,34,21655,大连远洋基业物业管理有限公司,3.2,辽宁,2,二手房,2015
甘井子区虹城路503号1-1号,大连,大连易和房地产集团有限公司,甘井子,20181127,38.981193588625004,121.49964051837122,岭秀滨城悦和西园,21,12193,大连易兴物业服务有限公司,1.3,辽宁,2,二手房,2009
西岗区平等街21号1层2号,大连,辽宁宁安房地产开发有限公司,西岗,20181127,38.92251066253164,121.63236845125735,赛维利大厦,20,19377,大连良玖物业管理有限责任公司,1.5,辽宁,2,二手房,2004
甘井子区山东路398号,大连,大连盛铭资产管理有限公司,甘井子,20181127,38.99821826443242,121.59274974973462,亿合城,51,17955,大连盛安物业管理有限公司,1.5,辽宁,2,二手房,2013
西岗区黄河路90号公建部分,大连,暂无信息,西岗,20181127,38.92234529815978,121.62829331825485,实验小学市场街,41,23437,无物业管理服务,-,辽宁,2,二手房,1990
沙河口区民权街324号,大连,暂无信息,沙河口,20181127,38.92064616208148,121.59777611850379,79中民权小区,15,14484,大连福港物业管理有限公司,0.2,辽宁,2,二手房,1997
经济技术开发区红星海-A区81-2号1层,大连,远洋地产有限公司,开发区,20181127,39.027851194371685,121.80327394132297,红星海一期城市别馆,86,12510,大连远洋基业物业管理有限公司,0.5,辽宁,2,二手房,2010
沙河口区西南路643号,大连,无开发商,沙河口,20181127,38.943483429804665,121.5833555851182,北甸街,31,10571,无物业管理服务,-,辽宁,2,二手房,1985
甘井子区宜居园10-1号房屋,大连,大连万科置业有限公司,甘井子,20181127,39.000039431463165,121.52111738616489,万科现在城,5,14726,暂无信息,2.2,辽宁,2,二手房,2015
甘井子区泉水B2区19-1号,大连,北方沿海房地产开发（大连）有限公司,甘井子,20181127,39.0101309886317,121.60812584213187,沿海鉴筑反正LOFT,16,11718,美佳物业管理（深圳）有限公司大连分公司,1.8,辽宁,2,二手房,2013
甘井子区佳林北园2-7号,大连,大连加尔伦房地产开发有限公司,甘井子,20181127,38.96331610956877,121.52802328494242,万科金域华府,22,20780,大连万科物业服务有限公司,3,辽宁,2,二手房,2016
金州区同济路44号,大连,大连永乐房地产开发有限公司,金州,20181127,39.10476859984152,121.71234684495865,永乐金庭,32,8382,大连天河物业管理有限公司,0.8,辽宁,2,二手房,2006
中山区同心街72号1楼公建,大连,大连振屹房屋开发有限公司,中山,20181127,38.91979245940674,121.64769198230202,城市广场,24,15027,大连振屹物业有限公司,3.5,辽宁,2,二手房,2006
甘井子区泉水P3区35-2号,大连,大连鑫成置业有限公司,甘井子,20181127,39.01527710332192,121.63580499384456,欧尚广场,32,15576,大连宏华物业服务有限公司,1.5,辽宁,2,二手房,2014
中山区民运巷 47号1层2号,大连,无开发商,中山,20181127,38.905955122300846,121.64798148011702,民运巷,13,9583,无物业管理服务,-,辽宁,2,二手房,1996
开发区鹏程家园66#-6、66#-7公建,大连,大连新天润企业集团有限公司,开发区,20181127,38.90045524508753,121.63339362744885,水御兰庭,28,9810,大连港力物业管理有限公司,1.1,辽宁,2,二手房,2007
沙河口区红凌路137号,大连,大连大实企业集团房屋开发有限公司,甘井子,20181127,38.922699288974506,121.54713601744747,泊林阳光B区,6,13573,大连弘实物业管理有限公司,0.6,辽宁,2,二手房,2007
大连市甘井子区丰收路3-5号,大连,大连铁路房地产开发有限责任公司,甘井子,20181127,38.965377255081755,121.58288415324094,王家桥小区,21,11525,大连铁路物业管理有限公司,0.1,辽宁,2,二手房,1990
无门店信息,大连,大连唐银盛兴置业有限公司,开发区,20181127,34.52713835999158,118.76812980670795,钻石9座,27,9733,大连佳家物业管理有限公司,1.5,辽宁,2,二手房,2014
开发区金马路169-2-6号房屋,大连,大连亿锋集团有限公司,开发区,20181127,39.055616222703364,121.78435683280883,铜锣湾,34,10839,亿锋豪景物业管理有限公司,1.5,辽宁,2,二手房,2004
中山区金城街26号一楼,大连,无开发商,中山,20181127,38.922282529515634,121.65214466263014,39中南山街,7,23976,无物业管理服务,-,辽宁,2,二手房,1995
沙河口区前程街46号4—1—2号,大连,大连渤海红旗集团有限公司,甘井子,20181127,38.921778341674376,121.58261780680284,彩霞园,8,10329,渤海吉祥物业管理有限公司,0.4,辽宁,2,二手房,2000
开发区红星海-B区89-1号,大连,暂无信息,开发区,20181127,39.027851194371685,121.80327394132297,红星海一期艺墅,46,14569,大连远洋基业物业管理有限公司,0.5,辽宁,2,二手房,2009
甘井子区华北路花锦园28号23-3-1-2建筑物,大连,大连市中联房地产开发有限公司,甘井子,20181127,38.951627958411166,121.5739439799003,香周路（甘）,10,14905,街道办事处（居委会）代管物业,0.1,辽宁,2,二手房,1987
甘井子区惠泽南园3-4号,大连,大连全统房地产开发有限公司,甘井子,20181127,38.939326611323615,121.52337842113351,全统西山丽水,13,13195,大连新华物业管理有限公司,0.5,辽宁,2,二手房,2008
无门店信息,大连,大连龙湖西城置业有限公司,甘井子,20181127,34.52713835999158,118.76812980670795,龙湖滟澜山,27,15505,大连龙湖物业服务有限公司,6.6,辽宁,2,二手房,2015
开发区杏花里13#楼-7号,大连,大连经济技术开发区城市建设开发有限公司,开发区,20181127,31.31075067906954,120.63127837058457,颐华园,23,7952,大连经济技术开发区杏林物业管理有限公司,0.3,辽宁,2,二手房,2005
沙河口区前程街46号4—1—2号,大连,大连渤海红旗集团有限公司,甘井子,20181127,38.921778341674376,121.58261780680284,里程巷,19,9264,大连台安物业管理中心,0.4,辽宁,2,二手房,1990
无门店信息,大连,大连航宇房屋开发有限公司,甘井子,20181127,34.52713835999158,118.76812980670795,西郊棠梨园,17,11091,渤海吉祥物业管理有限公司,0.5,辽宁,2,二手房,2007
无门店信息,大连,暂无信息,沙河口,20181127,34.52713835999158,118.76812980670795,中海天赋山二期,19,17962,大连中海物业管理有限公司,2.8,辽宁,2,二手房,2017
开发区安盛里5栋-4,大连,大连万晟房地产开发有限公司,开发区,20181127,23.112106678834838,113.27801046214822,宜家大院,15,8933,大连万晟置业有限公司,0.8,辽宁,2,二手房,2002
金州区凤翔路220号,大连,大连鸿玮置业有限公司,金州,20181127,39.08410553937731,121.77700083356399,鸿玮澜山一期,23,13458,大连鸿玮物业服务有限公司,1.8,辽宁,2,二手房,2009
甘井子区泉水P3区35-2号,大连,大连半岛集团有限公司,甘井子,20181127,39.01527710332192,121.63580499384456,半岛泉水欣座,21,14382,大连半岛物业管理有限公司,1.5,辽宁,2,二手房,2010
沙河口区绿清街12号,大连,无开发商,沙河口,20181127,38.93851335419565,121.57334844377094,绿波B区,16,9046,街道办事处（居委会）代管物业,0.1,辽宁,2,二手房,1992
中山区民建街10号1单元1号,大连,无开发商,中山,20181127,38.925444479476894,121.66915026954452,39中金域朝阳,3,16048,无物业管理服务,-,辽宁,2,二手房,2000
甘井子区山东路127-2号,大连,无开发商,甘井子,20181127,38.99065559549029,121.59126483545545,七迎路,25,11098,街道办事处（居委会）代管物业,0.2,辽宁,2,二手房,1995
开发区高新里6栋-8,大连,无开发商,开发区,20181127,39.0710895068195,121.82860134358343,怡海花园二期,25,7369,街道办事处（居委会）代管物业,0.2,辽宁,2,二手房,2002
中山区清溪南街11号,大连,大连锦绣房地产开发有限公司,中山,20181127,38.88919604283904,121.66466481004835,秀月广场,16,11035,无物业管理服务,0.5,辽宁,2,二手房,1994
开发区大开高吉里33栋6号,大连,大连开建集团有限公司,开发区,20181127,39.07355836059941,121.8280439450145,高城北花园,31,7361,大连经济技术开发区聚盛达物业管理有限公司,0.2,辽宁,2,二手房,1998
中山区职工街96号1-3层公建,大连,无开发商,中山,20181127,38.92565613737007,121.66193575790903,39中开源巷,7,23763,街道办事处（居委会）代管物业,0.5,辽宁,2,二手房,1990
开发区高新里6栋-8,大连,无开发商,开发区,20181127,39.0710895068195,121.82860134358343,新港家园,24,8109,龙祥物业管理有限公司,0.3,辽宁,2,二手房,2003
中山区解放路604号,大连,无开发商,中山,20181127,38.89026319122045,121.66407876092346,鸣鹤街,3,13793,街道办事处（居委会）代管物业,0.5,辽宁,2,二手房,1998
开发区翠竹小区33栋4-1-1号,大连,暂无信息,开发区,20181127,30.635492106460237,119.69169575745704,翠竹中区,25,8584,嘉兴物业管理有限公司,0.3,辽宁,2,二手房,1996
开发区黄海西路201号107公建,大连,无开发商,开发区,20181127,39.04942604506828,121.80126318235419,倚平里,24,7958,街道办事处（居委会）代管物业,0.5,辽宁,2,二手房,2000
沙河口区连山街10号2-1-2,大连,大连城市建设集团有限公司,沙河口,20181127,38.89637522563413,121.57143690983219,星苑小区,9,10338,大连城建开发集团物业管理有限公司,0.2,辽宁,2,二手房,1994
甘井子区惠泽南园3-4号,大连,大连鑫河房地产开发有限公司,甘井子,20181127,38.939326611323615,121.52337842113351,绿色家园,4,11351,绿色家园物业管理有限公司,0.3,辽宁,2,二手房,2005
沙河口区锦江园33号公建5-8轴,大连,大连锦绣房地产开发有限公司,沙河口,20181127,38.921778341674376,121.58261780680284,锦绣小高层,6,12963,大连锦绣物业管理有限公司,0.6,辽宁,2,二手房,2000
无门店信息,大连,大连新型企业集团,甘井子,20181127,34.52713835999158,118.76812980670795,南岭花园,17,10259,大连新型物业管理有限公司,0.4,辽宁,2,二手房,2008
无门店信息,大连,远洋地产有限公司,金州,20181127,34.52713835999158,118.76812980670795,远洋假日养生庄园,83,7495,大连远洋基业物业管理有限公司,3,辽宁,2,二手房,2015
无门店信息,大连,大连鹏玥房地产开发有限公司,开发区,20181127,34.52713835999158,118.76812980670795,中环城市广场,13,8692,大连鹏玥物业公司,1.5,辽宁,2,二手房,2015
无门店信息,大连,暂无信息,西岗,20181127,34.52713835999158,118.76812980670795,34中三元街,49,24659,暂无信息,-,辽宁,2,二手房,1990
开发区红梅小区19栋-2-1-1号,大连,大连开发区世元房地产开发有限公司,开发区,20181127,29.906498897603264,121.5913630631805,世元国际公寓,29,10258,大连世元物业管理有限公司,2,辽宁,2,二手房,2009
金州区站前街道盛滨花园B区13号楼2号公建,大连,大连阿尔滨集团房地产开发有限公司,金州,20181127,39.09609011892329,121.7335816409767,盛滨花园C区,13,7322,大连阿尔滨集团物业管理有限公司,0.4,辽宁,2,二手房,1999
甘井子区红旗中路143号1层4号,大连,大连科宏房屋开发有限公司,甘井子,20181127,38.93169566676921,121.5426632438217,海港楼,23,7888,大连科海物业有限公司,0.2,辽宁,2,二手房,1996
甘井子区山东路137号,大连,无开发商,甘井子,20181127,38.99129404608926,121.59172125999353,天河路,11,10010,街道办事处（居委会）代管物业,0.1,辽宁,2,二手房,1998
西岗区长春路334号,大连,无开发商,西岗,20181127,38.89807766522607,121.63221082858387,石峰街,11,10012,大连大众物业管理有限公司,0.3,辽宁,2,二手房,1995
中山区山屏街116号1-1,大连,无开发商,中山,20181127,38.90729438486833,121.68598159980013,怡梦园,4,13532,无物业管理服务,-,辽宁,2,二手房,1900
中山区山屏街116号1-1,大连,大连中信海港投资有限公司,中山,20181127,38.90729438486833,121.68598159980013,山峦街,7,12375,无物业管理服务,-,辽宁,2,二手房,1990
开发区金马路169-2-6号房屋,大连,大连亿锋房地产实业有限公司,开发区,20181127,39.055616222703364,121.78435683280883,佳地花园,8,10274,街道办事处（居委会）代管物业,1.1,辽宁,2,二手房,2002
金州区同济路44号,大连,大连阿尔滨中辰置业有限公司,金州,20181127,39.10476859984152,121.71234684495865,瀛海金洲,60,7999,大连阿尔滨汇城物业服务有限公司,0.5,辽宁,2,二手房,2011
中山区虎滩路176号4-1-2,大连,无开发商,中山,20181127,38.890884710033156,121.69257379232747,碧波园,26,10160,大连虎滩置业物业管理有限公司,0.2,辽宁,2,二手房,1997
金州区同济路44号,大连,无开发商,金州,20181127,39.10476859984152,121.71234684495865,永乐铭庭,16,7502,无物业管理服务,-,辽宁,2,二手房,2010
无门店信息,大连,暂无信息,甘井子,20181127,34.52713835999158,118.76812980670795,山宝花园,29,19309,无物业管理服务,-,辽宁,2,二手房,1995
开发区正恒园1-16,大连,大连富华房地产有限公司,开发区,20181127,39.04823944344617,121.76165468797754,正泰园A区,16,11355,嘉泰物业管理有限公司,1.9,辽宁,2,二手房,2012
沙河口区富国街14号1-1-2,大连,无开发商,沙河口,20181127,38.901027106600836,121.59047734850638,星云街,17,11308,无物业管理服务,-,辽宁,2,二手房,1995
金州新区先进街道五一路350-1号1-2层,大连,大连中连房地产开发有限公司,金州,20181127,39.095023587156554,121.74333264248519,聚鑫小区二期,28,7884,大连新生活物业管理有限公司,0.5,辽宁,2,二手房,2008
金州区光明街道育才街42-6号1-2层,大连,大连盛铭资产管理有限公司,金州,20181127,39.109080894078986,121.7182584929096,安盛花园（金州）,14,9359,大连经济技术开发区海青物业有限公司,1,辽宁,2,二手房,2000
中山区北斗街53号1层1号,大连,暂无信息,中山,20181127,38.92727355733075,121.67002970974048,39中港湾街,3,20521,暂无信息,-,辽宁,2,二手房,-
大连市金州新区友谊街道和平路59-10号1-2层公建,大连,无开发商,金州,20181127,39.112168401852266,121.72006917947859,和平小区,20,8151,街道办事处（居委会）代管物业,0.5,辽宁,2,二手房,1996
西岗区绕山路31号公建一层东侧,大连,无开发商,西岗,20181127,38.90257514466717,121.61412736644739,和云巷,10,10640,无物业管理服务,-,辽宁,2,二手房,1990
无门店信息,大连,大连海脉房地产开发有限公司,金州,20181127,34.52713835999158,118.76812980670795,海脉未来城,20,8186,大连豪斯威物业管理有限公司,1,辽宁,2,二手房,2013
开发区东北三街94号1层,大连,大连万瑞达房地产投资有限公司,开发区,20181127,39.05723508011585,121.80570768630555,万瑞达国际公馆,8,7303,大连万瑞达物业管理公司,1.2,辽宁,2,二手房,2012
甘井子区甘井子路32号楼1单元1楼9号,大连,无开发商,甘井子,20181127,38.982488275116516,121.63345389253514,新街,19,8949,无物业管理服务,-,辽宁,2,二手房,1988
无门店信息,大连,暂无信息,甘井子,20181127,34.52713835999158,118.76812980670795,松江路（80中）,27,12709,大连新华物业管理有限公司,-,辽宁,2,二手房,1993
甘井子区华北路花锦园28号23-3-1-2建筑物,大连,无开发商,甘井子,20181127,38.951627958411166,121.5739439799003,华北路（周水子商圈）,3,14409,无物业管理服务,-,辽宁,2,二手房,1995
南山路50号,大连,无开发商,中山,20181127,38.92027296196962,121.6483012768786,友好路,7,17856,无物业管理服务,-,辽宁,2,二手房,1990
无门店信息,大连,无开发商,金州,20181127,34.52713835999158,118.76812980670795,永安四季,30,6437,无物业管理服务,0.5,辽宁,2,二手房,2012
金州区南棉路310号,大连,大连阿尔滨集团房地产开发有限公司,金州,20181127,39.09939229372624,121.72414976100345,荣盛小区,7,9446,街道办事处（居委会）代管物业,1,辽宁,2,二手房,2009
甘井子区华东路33-5号,大连,无开发商,甘井子,20181127,38.97497080220593,121.59479866243332,华东路（金三角商圈）,8,9731,无物业管理服务,0.5,辽宁,2,二手房,1995
中山区鲁迅路184号1层B—A,大连,大连绿地新城置业有限公司,中山,20181127,38.92590875965419,121.67594393403164,大连绿地中心,9,16852,上海科瑞物业管理发展有限公司大连第二分公司,4.2,辽宁,2,二手房,2015
中山区同心街72号1楼公建,大连,无开发商,中山,20181127,38.91979245940674,121.64769198230202,万家巷（昆明街）,10,15385,无物业管理服务,0.5,辽宁,2,二手房,1991
西岗区八一路102号,大连,无开发商,西岗,20181127,38.891094924332045,121.65327483516513,长春街,6,10834,无物业管理服务,-,辽宁,2,二手房,1997
无门店信息,大连,暂无信息,旅顺口,20181127,34.52713835999158,118.76812980670795,荷塘悦色,14,9139,暂无信息,-,辽宁,2,二手房,-
中山区高尚路28-1号,大连,无开发商,中山,20181127,38.892673425111305,121.67148833870213,宪卫里,18,9430,无物业管理服务,0.5,辽宁,2,二手房,1994
甘井子区山东路137号,大连,大连市大钢集团,甘井子,20181127,38.99129404608926,121.59172125999353,华南沃尔玛六和路,4,10760,街道办事处（居委会）代管物业,0.5,辽宁,2,二手房,1990
中山区高尚路28-1号,大连,无开发商,中山,20181127,38.892673425111305,121.67148833870213,高尚路,15,9205,无物业管理服务,-,辽宁,2,二手房,1993
开发区东北三街94号1层,大连,大连同济房地产开发有限公司,开发区,20181127,39.05723508011585,121.80570768630555,新东方公寓二期,29,5012,大连同济物业管理有限公司,1.5,辽宁,2,二手房,2007
无门店信息,大连,大连圣北开发有限公司,中山,20181127,34.52713835999158,118.76812980670795,亿达云集,89,19706,亿达物业管理有限公司,1.9,辽宁,2,二手房,2015
西岗区八一路196号2-1-12号,大连,大连欧美亚房地产开发有限公司,西岗,20181127,38.89127420834314,121.6483201412943,名城国际公馆,9,14343,无物业管理服务,-,辽宁,2,二手房,2007
金州区南棉路310号,大连,大连金连房地产开发有限公司,金州,20181127,39.09939229372624,121.72414976100345,金连福地,29,7849,街道办事处（居委会）代管物业,0.5,辽宁,2,二手房,2010
开发区黄海西路201号107公建,大连,无开发商,开发区,20181127,39.04942604506828,121.80126318235419,岗松里小区,89,7342,大连经济技术开发区海青物业有限公司,0.5,辽宁,2,二手房,2000
金州区拥政街道733号-8号1-2层,大连,无开发商,金州,20181127,39.11690610445662,121.73030803603723,414小区,58,6713,街道办事处（居委会）代管物业,-,辽宁,2,二手房,1989
金州区站前街道盛滨花园B区13号楼2号公建,大连,无开发商,金州,20181127,39.09609011892329,121.7335816409767,联胜小区,30,6533,街道办事处（居委会）代管物业,0.5,辽宁,2,二手房,1995
金州区站前街道盛滨花园B区13号楼2号公建,大连,无开发商,金州,20181127,39.09609011892329,121.7335816409767,金源花园小区,19,6994,街道办事处（居委会）代管物业,0.5,辽宁,2,二手房,1998
西岗区绕山路28号1层1号,大连,无开发商,西岗,20181127,38.90352859160372,121.61547503761078,连界巷,1,11748,无物业管理服务,-,辽宁,2,二手房,1991
沙河口区西南路851号3单元1层3号,大连,暂无信息,沙河口,20181127,38.94344210837944,121.58246796944378,凌山三街,2,10171,暂无信息,-,辽宁,2,二手房,-
金州新区八一路金都嘉园1号楼1号公建,大连,无开发商,金州,20181127,39.05525210261778,121.74865634199398,古城丙区,44,7573,街道办事处（居委会）代管物业,0.5,辽宁,2,二手房,1997
西岗区黄河路82号,大连,无开发商,西岗,20181127,38.92243503020161,121.6287927913896,双兴北巷,10,9212,街道办事处（居委会）代管物业,0.5,辽宁,2,二手房,1995
中山区中青街87号一单元107,大连,无开发商,中山,20181127,38.90213494248529,121.65806522267005,中青街,5,11894,无物业管理服务,-,辽宁,2,二手房,1996
金州区南棉路310号,大连,无开发商,金州,20181127,39.09939229372624,121.72414976100345,金色华庭,21,6811,大连阿尔滨集团物业管理有限公司,-,辽宁,2,二手房,2008
金州新区八一路金都嘉园1号楼1号公建,大连,无开发商,金州,20181127,39.05525210261778,121.74865634199398,永安小区,37,6234,无物业管理服务,0.5,辽宁,2,二手房,1999
中山区高尚路28-1号,大连,大连华南地产开发有限公司,中山,20181127,38.892673425111305,121.67148833870213,环山街,9,9715,街道办事处（居委会）代管物业,0.5,辽宁,2,二手房,1994
金州区拥政街道733号-8号1-2层,大连,大连市金州区房屋开发公司,金州,20181127,39.11690610445662,121.73030803603723,桂林小区,55,6785,街道办事处（居委会）代管物业,0.5,辽宁,2,二手房,1993
西岗区八一路196号1-3,大连,无开发商,西岗,20181127,38.89127420834314,121.6483201412943,三环街（八一路商圈）,3,12104,无物业管理服务,-,辽宁,2,二手房,1990
沙河口区西南路851号3单元1层3号,大连,无开发商,沙河口,20181127,38.94344210837944,121.58246796944378,凌山二街,5,10482,无物业管理服务,-,辽宁,2,二手房,1985
沙河口区富国街14号1-1-2,大连,无开发商,沙河口,20181127,38.901027106600836,121.59047734850638,星光街,2,11483,街道办事处（居委会）代管物业,0.5,辽宁,2,二手房,-
金州区金润小区B区861单元102,大连,暂无信息,金州,20181127,39.10615165380565,121.74639264534615,自然天城C区,17,7252,大连新生活物业管理有限公司,0.4,辽宁,2,二手房,2010
沙河口区黄河路535号,大连,大连城市建设集团有限公司,沙河口,20181127,38.91773777159567,121.60217159922856,79中金光小区,49,31056,无物业管理服务,-,辽宁,1,二手房,1993
沙河口区联合路133号,大连,无开发商,沙河口,20181127,38.91608561262676,121.60480987310456,79中永平,102,28729,无物业管理服务,-,辽宁,1,二手房,1994
沙河口区联合路133号,大连,大连新型房地产开发有限公司,沙河口,20181127,38.91608561262676,121.60480987310456,21中天兴花园一期,22,17632,大连万泰物业管理有限公司,0.5,辽宁,1,二手房,1998
西岗区鞍山路29号龙畔锦城东门,大连,大连万达房地产开发有限公司,西岗,20181127,38.92763470697088,121.61498923399098,长春花园,19,15891,大连万达物业管理有限公司,0.5,辽宁,1,二手房,1996
沙河口区联合路133号,大连,大连万达房地产开发有限公司,沙河口,20181127,38.91608561262676,121.60480987310456,79中万泰花园,28,27098,大连万泰物业管理有限公司,0.8,辽宁,1,二手房,1998
高新园区敬贤街25-9,大连,中海东丰地产（大连）有限公司,高新园区,20181127,38.86877373541043,121.52975162654023,中海紫御观邸一期,12,23449,大连中海物业管理有限公司,2.6,辽宁,1,二手房,2013
西岗区北岗街新康巷19-1号公建,大连,大连铁路房地产开发有限责任公司,西岗,20181127,38.9306759109621,121.61509567690577,龙畔锦城,34,20691,大连亚航物业管理有限公司,1.2,辽宁,1,二手房,2009
沙河口区五一路177-1-1-1,大连,大华集团大连房地产开发有限公司,沙河口,20181127,38.90485271510574,121.57313607267041,大华御庭,40,17609,大连乐尔居物业服务有限公司,1.4,辽宁,1,二手房,2009
中山区华乐街107-115号1单元1层2号,大连,大连海昌房地产开发有限公司,中山,20181127,38.92093821499401,121.68879267531725,海昌欣城,79,16053,大连海昌欣城物业管理有限公司,1.2,辽宁,1,二手房,2002
高新园区硅谷假日小区25号楼地下室,大连,大连鑫亿房屋开发有限公司,高新园区,20181127,38.865995717263544,121.53771220335938,硅谷假日,51,18257,大连斌弘物业管理有限公司,0.8,辽宁,1,二手房,2005
沙河口区兰田街33号,大连,大连运达房地产集团有限公司,沙河口,20181127,38.926138912221084,121.56486022834609,兰溪文苑,26,18767,大连运达物业管理有限公司,0.8,辽宁,1,二手房,2004
西岗区中山路158号唐山街市场外14号,大连,大连胜利路拓宽改造工程建设有限公司,西岗,20181127,38.91835355789945,121.63274981188985,星海绿山城,31,26339,无物业管理服务,-,辽宁,1,二手房,2015
甘井子区西南路芳茗园30号楼,大连,大连东北房屋开发有限公司,甘井子,20181127,38.961395177040636,121.59546002818708,东北名苑,46,16024,大连国合物业管理有限公司,0.5,辽宁,1,二手房,2000
"西岗区泰公街20号2层7号 西岗区久寿街22号1层14号""",大连,大连润德君城房地产开发有限公司,西岗,20181127,38.92600196862723,121.62141976476381,北京公园,25,22238,大连润德物业管理有限公司,2.2,辽宁,1,二手房,2010
甘井子区促进路200号,大连,大连亿达房地产股份有限公司,甘井子,20181127,38.95810188892782,121.58530036264898,林语家话,23,22472,亿达物业管理有限公司,1.2,辽宁,1,二手房,2005
沙河口区中山路417A-4号,大连,大连海孚房地产开发有限公司,沙河口,20181127,38.90734671814175,121.59482182703752,华业玫瑰东方,55,23269,深圳华业物业管理有限公司大连分公司,3.5,辽宁,1,二手房,2011
沙河口区鞍山路65号美都园7号1单元1层4号公建,大连,大连良运房地产开发有限公司,沙河口,20181127,38.92727525772336,121.60296423346817,良运缤纷四季,25,19187,大连良运物业管理有限公司,0.8,辽宁,1,二手房,2006
沙河口区黄河路535号,大连,大连民兴房地产开发有限公司,沙河口,20181127,38.91773777159567,121.60217159922856,79中民兴花园二期,33,25487,大连衡德物业管理有限公司,1.2,辽宁,1,二手房,2003
沙河口区杨树街4-4号公建,大连,大连金弘基房地产开发有限公司,高新园区,20181127,38.88444587249751,121.55130620045541,弘基二期,30,23613,大连金弘基物业管理有限公司,0.6,辽宁,1,二手房,2003
沙河口区知心园10号公建,大连,大连软件园开发有限公司,高新园区,20181127,38.893977135945136,121.55667141994431,亿达国际新城,31,21302,亿达物业管理有限公司,1,辽宁,1,二手房,2004
甘井子区海口路77-4号公建,大连,大连鹏生房地产开发有限公司,甘井子,20181127,38.960286398428124,121.60305183172997,鹏辉新世纪,0,17307,大连鹏辉物业管理有限公司,0.6,辽宁,1,二手房,2003
沙河口区鞍山路65号美都园7号1单元1层4号公建,大连,大连美辰房地产开发有限公司,沙河口,20181127,38.92727525772336,121.60296423346817,丽景春天,24,17021,大连远洋基业物业管理有限公司,0.8,辽宁,1,二手房,2003
沙河口区长江路738号,大连,大连大和中盛房地产有限公司,西岗,20181127,38.92379936592553,121.61207696256155,颐和香榭,20,26891,大连颐和物业管理有限公司,2.5,辽宁,1,二手房,2008
甘井子区锦城西园4#3-1-1,大连,大连锦绣房地产开发有限公司,甘井子,20181127,38.95286223185571,121.55129044777,锦城西园,20,17232,大连锦绣物业管理有限公司,0.6,辽宁,1,二手房,2006
沙河口区五一路326号,大连,大连亿达房地产股份有限公司,高新园区,20181127,38.88949370884506,121.5496388331407,亿达学清园,24,23718,大连软件园物业管理有限公司,0.5,辽宁,1,二手房,2001
沙河口区五一路109-4号,大连,大连正源房地产开发有限公司,沙河口,20181127,38.9089272537305,121.58289867190192,幸福e家二期,18,28626,大连正源物业服务有限公司,0.7,辽宁,1,二手房,2003
高新园区聚贤路36号5幢1单元1层1号,大连,大连海创房地产开发有限公司,高新园区,20181127,32.31472011562832,119.46141263909165,海创半山壹号,55,16048,大连海创物业管理有限公司,1.8,辽宁,1,二手房,2011
沙河口区黄河路562号,大连,大连新型房地产开发有限公司,沙河口,20181127,38.9167961764482,121.60352063132478,79中科学家公寓,43,22102,大连新兴物业管理有限公司,0.8,辽宁,1,二手房,1998
西岗区康平街2号（5号楼3-1-3号）,大连,大连北洋房屋开发公司,西岗,20181127,38.91044414697888,121.61980769264477,胜利花园,17,12280,大连宏成物业管理有限公司,0.5,辽宁,1,二手房,1997
沙河口区五一路109-4号,大连,大连正源房地产开发有限公司,沙河口,20181127,38.9089272537305,121.58289867190192,幸福e家一期,20,28312,大连正源物业服务有限公司,0.8,辽宁,1,二手房,2002
沙河口区富静街26号1单元1层5号,大连,大连远东房屋开发有限公司,沙河口,20181127,38.908727606250466,121.58667844684369,世嘉星海,24,24343,大连瑞信物业管理有限公司,1.6,辽宁,1,二手房,2007
甘井子区海口路77-4号公建,大连,大连圣韬房地产开发有限公司,甘井子,20181127,38.960286398428124,121.60305183172997,万福居,47,17053,大连圣韬物业管理有限公司,0.5,辽宁,1,二手房,2006
高新园区海苑街30号1单元1号公建,大连,大连大有房屋开发有限公司,高新园区,20181127,20.06392317589085,110.32302599457326,大有恬园二期,37,16000,大连家园物业有限公司,1.2,辽宁,1,二手房,2010
沙河口区成仁街91号,大连,大连万达房地产开发有限公司,沙河口,20181127,38.91539947107844,121.59585638842556,龙祥花园,17,23557,大连万达物业管理有限公司,0.8,辽宁,1,二手房,2001
沙河口区西南路96号1层2号,大连,大连宏都房地产开发有限公司,沙河口,20181127,38.890863095482466,121.56788114713203,宏都筑景Ⅰ期,29,19806,大连东方百瑞物业管理有限公司,1.4,辽宁,1,二手房,2008
大连市甘井子区丰收路3-5号,大连,大连邦德房屋开发有限公司,甘井子,20181127,38.965377255081755,121.58288415324094,芙蓉人家,35,17992,大连广丰物业管理有限公司,0.5,辽宁,1,二手房,2002
沙河口区绿清街12号,大连,大连绿波房屋开发集团有限公司,沙河口,20181127,38.93851335419565,121.57334844377094,绿波花园,25,11749,大连绿波建设发展有限公司,0.6,辽宁,1,二手房,2001
西岗区胜利路33号,大连,大连万达房地产开发有限公司,西岗,20181127,38.91309771954841,121.62500886627636,信兴花园,2,23452,大连亿安物业管理有限公司,0.5,辽宁,1,二手房,1997
沙河口区长江路738号,大连,大连民兴房地产开发有限公司,沙河口,20181127,38.92379936592553,121.61207696256155,79中民兴花园一期,6,25228,大连衡德物业管理有限公司,1.2,辽宁,1,二手房,2002
沙河口区五一路110-4号,大连,大连市中联房地产开发有限公司,沙河口,20181127,38.90710946686282,121.58172564480427,星海中龙园,17,17914,大连斌弘物业管理有限公司,0.6,辽宁,1,二手房,2004
沙河口区五一路270-274号,大连,大连誉园房地产开发有限公司,高新园区,20181127,38.89104111985908,121.55325426578435,斯坦福院落,14,20639,第一太平戴维斯物业顾问（北京）有限公司大连分公司,1.2,辽宁,1,二手房,2008
大连市甘井子区D1区11-3号,大连,大连运腾房地产开发有限公司,甘井子,20181127,38.95546176066109,121.5285003794903,锦泉源D1区,49,12747,大连嘉合物业管理有限公司,0.5,辽宁,1,二手房,2005
大连市甘井子中华路街道汇畅街48号,大连,远洋地产有限公司,甘井子,20181127,39.00552323996268,121.59684207363269,远洋自然,45,15039,大连远洋基业物业管理有限公司,1.3,辽宁,1,二手房,2010
大连市甘井子区燕南园50号,大连,大连软件园发展有限公司,高新园区,20181127,38.90172480153224,121.5363466289672,东方圣克拉一期,28,23723,亿达物业管理有限公司,2.6,辽宁,1,二手房,2010
沙河口区星海广场B3区14-2号1层,大连,大连友谊合升房地产开发有限公司,沙河口,20181127,38.88693148294673,121.58735631267305,壹品星海一期,30,20459,大连友谊物业服务有限公司,1.3,辽宁,1,二手房,2005
甘井子区汇仁南园42-16-3,大连,中铁建（大连）置业有限公司,甘井子,20181127,38.99932098520821,121.5897722676133,动力院景二期汇善南园,19,15360,大连铁龙安居物业管理有限公司,0.7,辽宁,1,二手房,2007
甘井子区迎客路郭东街一品蓝天公建14号,大连,大连鼎新房地产开发有限公司,甘井子,20181127,38.958456949708726,121.556756277476,鼎新鼎润府,23,17066,大连鼎新物业管理有限公司,0.6,辽宁,1,二手房,2006
中山区高尚路28-1号,大连,大连家园建设集团有限公司,中山,20181127,38.892673425111305,121.67148833870213,卡纳意乡,26,19084,大连四季物业服务有限公司,1.8,辽宁,1,二手房,2008
高新园敬贤街23-11号,大连,中海东丰地产（大连）有限公司,高新园区,20181127,38.86956637166276,121.5301657390922,中海紫御观邸三期,28,19176,大连中海物业管理有限公司,2.6,辽宁,1,二手房,2014
甘井子区金北街17号,大连,大连悦泰集团有限公司,甘井子,20181127,38.95546176066109,121.5285003794903,悦泰馨家,17,22691,大连优豪斯物业管理有限公司,0.5,辽宁,1,二手房,2003
大连市甘井子区丰收路3-5号,大连,大连万鼎置业有限公司,甘井子,20181127,38.965377255081755,121.58288415324094,万科蓝山,18,24146,大连万科物业服务有限公司,2.9,辽宁,1,二手房,2015
沙河口区锦江园33号公建5-8轴,大连,大连鼎新美地置业有限公司,甘井子,20181127,38.921778341674376,121.58261780680284,鼎新鼎润四季,19,18927,大连中原物业代理有限公司,1.2,辽宁,1,二手房,2010
西岗区鞍山路65-5号,大连,无开发商,沙河口,20181127,38.92701992456326,121.60258216167713,美辰臻品,6,15097,大连众和物业管理有限公司,1,辽宁,1,二手房,2007
高新园区红凌路732-4号,大连,大连软件园开发有限公司,高新园区,20181127,38.90158813547366,121.53265954348016,东方圣克拉三期,23,23356,亿达物业管理有限公司,2.6,辽宁,1,二手房,2015
西岗区鞍山路65-5号,大连,大连万益房屋开发有限公司,沙河口,20181127,38.92701992456326,121.60258216167713,万益花园,15,11942,大连自然物业管理中心,0.5,辽宁,1,二手房,2003
中山区金城街26号一楼,大连,大连万达房地产开发有限公司,中山,20181127,38.922282529515634,121.65214466263014,九中金城街,18,33078,无物业管理服务,-,辽宁,1,二手房,1992
西岗区黄河路362号公建,大连,大连万佳房地产开发有限公司,西岗,20181127,38.91819905243802,121.61365779430986,优豪斯,10,25222,大连万佳物业管理有限公司,1.6,辽宁,1,二手房,2003
西岗区黄河路90号公建部分,大连,大连民兴房地产开发有限公司,西岗,20181127,38.92234529815978,121.62829331825485,前城国际一期,8,23375,大连前城花园物业管理有限公司,1,辽宁,1,二手房,2005
甘井子区西南路芳茗园30号楼,大连,大连泰华房地产开发有限公司,甘井子,20181127,38.961395177040636,121.59546002818708,泰华府邸,8,16940,大连华安物业管理有限公司,1.5,辽宁,1,二手房,2009
甘井子区华龙南园12-4-3-1-3,大连,大连长鹭房屋开发有限公司,甘井子,20181127,38.98528794231248,121.61028969481718,晶品枫林,38,14418,北京房修一物业管理有限公司,0.5,辽宁,1,二手房,2008
沙河口区成仁街91号,大连,大连海孚房地产开发有限公司,沙河口,20181127,38.91539947107844,121.59585638842556,华业玫瑰东方Ⅱ期,24,24422,深圳华业物业管理有限公司大连分公司,3.5,辽宁,1,二手房,2014
西岗区北岗街新康巷19-1号公建,大连,大连铁龙房地产开发有限公司,西岗,20181127,38.9306759109621,121.61509567690577,北岗新居,8,12680,大连铁龙物业管理有限公司,0.3,辽宁,1,二手房,2002
中山区华乐街71号公建,大连,大连环海房地产开发有限公司,中山,20181127,38.923187679200566,121.6843197903016,华乐小区,21,12308,大连景和物业管理有限公司,0.5,辽宁,1,二手房,2000
沙河口区联合路133号,大连,大连新型房地产开发有限公司,沙河口,20181127,38.91608561262676,121.60480987310456,21中联德小区,1,19868,大连新型物业管理有限公司,0.5,辽宁,1,二手房,1998
甘井子区华北路花锦园28号23-3-1-2建筑物,大连,大连东特房地产开发有限公司,甘井子,20181127,38.951627958411166,121.5739439799003,星加坡花园,13,17700,大连东特祥禾物业管理有限公司,0.6,辽宁,1,二手房,2004
沙河口区连山街10号2-1-2,大连,大连宝嘉房地产有限公司,沙河口,20181127,38.89637522563413,121.57143690983219,星海名庭,6,20065,大连斌宏物业管理有限公司,0.6,辽宁,1,二手房,2005
中山区民运巷 47号1层2号,大连,大连荣泰房地产开发有限公司,中山,20181127,38.905955122300846,121.64798148011702,豪森茗家,8,21849,大连戴德梁行物业管理有限公司,2.2,辽宁,1,二手房,2008
沙河口区黄埔路427号,大连,大连名仕房地产开发有限公司,高新园区,20181127,38.921778341674376,121.58261780680284,名仕乐居,11,18506,大连万祥物业管理有限公司,1.3,辽宁,1,二手房,2008
沙河口区黄河路535号,大连,大连金广地产集团有限公司,沙河口,20181127,38.91773777159567,121.60217159922856,79中美加华公寓,27,22699,大连亮泰安邦物业有限公司,2,辽宁,1,二手房,2008
沙河口区南沙街36号台二2号1-1-37,大连,大连鹏生房地产开发有限公司,沙河口,20181127,38.90741410359388,121.57685699961822,鹏顺园,42,23328,大连新型物业管理有限公司,0.5,辽宁,1,二手房,2001
西岗区华北路100号1层5号,大连,大连万达房地产开发有限公司,西岗,20181127,38.91336952993919,121.6258229781024,香海花园,16,14539,大连万达物业管理有限公司,0.8,辽宁,1,二手房,1999
甘井子区惠泽南园3-4号,大连,大连鹏德房屋开发有限公司,甘井子,20181127,38.939326611323615,121.52337842113351,西山逸林,23,14354,大连三和住邦物业管理有限公司,1.3,辽宁,1,二手房,2009
甘井子区泉水B2区19-1号,大连,北方沿海房地产开发（大连）有限公司,甘井子,20181127,39.0101309886317,121.60812584213187,沿海鉴筑,30,15488,美佳物业管理（深圳）有限公司大连分公司,1.8,辽宁,1,二手房,2013
甘井子区虹港路16号楼1层公建,大连,大连建园房地产开发有限公司,甘井子,20181127,38.96457808198196,121.55421052098279,城市印象,52,11797,大连天兴物业管理有限公司,1.6,辽宁,1,二手房,2010
高新园区红凌路732-4号,大连,大连亿达房地产股份有限公司,高新园区,20181127,38.90158813547366,121.53265954348016,亿达峦翠园,36,19429,亿达物业管理有限公司,1.3,辽宁,1,二手房,2009
甘井子区汇仁南园42-16-3,大连,大连铁龙房地产开发有限公司,甘井子,20181127,38.99932098520821,121.5897722676133,动力院景一期汇仁南园,17,13808,大连铁龙安居物业管理有限公司,0.7,辽宁,1,二手房,2006
金州区小平岛B组团4号楼3号商铺,大连,大连圣岛房地产开发有限公司,高新园区,20181127,39.2986190718601,121.95658248043723,小平岛海角七号,44,19439,大连凯尔富物业管理有限公司,1.7,辽宁,1,二手房,2011
高新园区敬贤街25-9,大连,大连家豪房地产开发有限公司,高新园区,20181127,38.86877373541043,121.52975162654023,圣托里尼,25,19098,大连斌弘物业管理有限公司,1.8,辽宁,1,二手房,2013
沙河口区星海广场B3区14-2号1层,大连,大连友谊合升房地产开发有限公司,沙河口,20181127,38.88693148294673,121.58735631267305,壹品星海公寓,30,15569,大连富丽华物业管理有限公司,1.5,辽宁,1,二手房,2003
大连市沙河口区五四路199-4号,大连,无开发商,西岗,20181127,38.907987066040505,121.60249214877012,世纪家园(西岗),2,12560,大连铁龙物业管理有限公司,0.3,辽宁,1,二手房,2000
沙河口区黄河路883号,大连,大连安邦房地产开发有限公司,沙河口,20181127,38.919826721475204,121.57749657966676,阳光小筑,4,17273,大连远洋基业物业管理有限公司,0.8,辽宁,1,二手房,2007
高新园区火炬路18号,大连,大连千业房地产开发有限公司,高新园区,20181127,38.937738080520404,117.39340752036043,第8区,34,16330,大连大管家物业管理有限公司,1.9,辽宁,1,二手房,2012
甘井子区红南东街7-7号,大连,大连均卫达房地产开发有限公司,甘井子,20181127,38.92880462247992,121.54144910207062,亲亲阳光,16,11404,大连万泰物业管理有限公司,0.5,辽宁,1,二手房,2004
沙河口区中山路417A-4号,大连,大连宝嘉房地产有限公司,沙河口,20181127,38.90734671814175,121.59482182703752,德源筑座,16,19449,大连乐尔居物业服务有限公司,2.2,辽宁,1,二手房,2009
西岗区北岗街新康巷19-1号公建,大连,大连凯润房屋开发有限公司,西岗,20181127,38.9306759109621,121.61509567690577,景润一期,24,10208,无物业管理服务,-,辽宁,1,二手房,2000
中山区金城街26号一楼,大连,无开发商,中山,20181127,38.922282529515634,121.65214466263014,九中洛川街,15,26147,无物业管理服务,-,辽宁,1,二手房,1995
中山区爱华街13号,大连,威新房地产开发(大连)有限公司,中山,20181127,38.92541607518685,121.6535728031028,中山九号,23,26155,威新物业管理(大连)有限公司,3.5,辽宁,1,二手房,2003
高新园区火炬路18号,大连,大连海创房地产开发有限公司,高新园区,20181127,38.937738080520404,117.39340752036043,芝麻街,40,13402,大连海创物业管理有限公司,2.4,辽宁,1,二手房,2010
中山区爱华街13号,大连,无开发商,中山,20181127,38.92541607518685,121.6535728031028,九中安乐街,34,34159,无物业管理服务,-,辽宁,1,二手房,1990
甘井子区泉水H3区15号3单元1层2号,大连,大连新型房地产开发有限公司,甘井子,20181127,39.00158439075201,121.62616882572375,龙畔金泉四期,54,11871,大连新型物业管理有限公司,0.4,辽宁,1,二手房,2005
甘井子区知音园20号3单元1层1号,大连,大连诚信万奕房地产开发有限公司,高新园区,20181127,38.95546176066109,121.5285003794903,万奕学院派,8,25395,大连空港物业管理有限公司,1.3,辽宁,1,二手房,2010
沙河口区成仁街91号,大连,大连城市建设集团有限公司,沙河口,20181127,38.91539947107844,121.59585638842556,79中学中盈家园,22,22721,街道办事处（居委会）代管物业,0.5,辽宁,1,二手房,2002
大连市沙河口区五四路199-4号,大连,大连新型房地产开发有限公司,沙河口,20181127,38.907987066040505,121.60249214877012,五四小区,5,12196,大连新晨物业管理有限公司,0.5,辽宁,1,二手房,2000
开发区红星海-B区89-1号,大连,远洋地产有限公司,开发区,20181127,39.027851194371685,121.80327394132297,红星海五期青屿蓝,151,12226,大连远洋基业物业管理有限公司,2.2,辽宁,1,二手房,2012
沙河口区黑石礁街3号1层1-1号,大连,大连建隆置业有限公司,沙河口,20181127,38.880058010307856,121.56313403908827,富丽庭,11,17469,达波尔酒店物业管理（大连）有限公司,2.4,辽宁,1,二手房,2010
中山区爱华街13号,大连,大连一方地产有限公司,中山,20181127,38.92541607518685,121.6535728031028,一方国际,25,33040,大连一方物业管理有限公司,4.8,辽宁,1,二手房,2013
西岗区北岗街新康巷19-1号公建,大连,大连凯润房屋开发有限公司,西岗,20181127,38.9306759109621,121.61509567690577,景润二期,21,11578,大连凯润物业管理有限公司,0.3,辽宁,1,二手房,2000
西岗区八一路102号,大连,大连长策房屋开发有限公司,西岗,20181127,38.891094924332045,121.65327483516513,捷山观海,12,19075,大连鑫晟物业管理有限公司,2,辽宁,1,二手房,2009
金州区小平岛B组团4号楼3号商铺,大连,大连圣岛房地产开发有限公司,高新园区,20181127,39.2986190718601,121.95658248043723,小平岛邻海园,29,16562,大连凯尔富物业管理有限公司,1.3,辽宁,1,二手房,2007
沙河口区兰田街33号,大连,大连凭海房地产开发有限公司,沙河口,20181127,38.926138912221084,121.56486022834609,清熙园,3,9986,大连鑫诚物业有限公司,0.5,辽宁,1,二手房,2004
甘井子区泉水D1区37-7号,大连,大连运腾房地产开发有限公司,甘井子,20181127,39.013992871679214,121.61921940045104,锦泉源D4区,29,12538,大连嘉和物业管理有限公司,0.5,辽宁,1,二手房,2007
大连市沙河口区黄河路729号,大连,大连盛佳房地产开发有限公司,沙河口,20181127,38.91710565765228,121.58954758972729,城市佳园,7,16800,街道办事处（居委会）代管物业,1,辽宁,1,二手房,2004
中山区秀月街37号1层2号,大连,大连澳南房屋开发有限公司,中山,20181127,38.88757907576307,121.66311065527876,明秀嘉园,9,23485,大连澳南物业管理有限公司,1.2,辽宁,1,二手房,2007
无门店信息,大连,大连龙湖东港房地产有限公司,中山,20181127,34.52713835999158,118.76812980670795,龙湖水晶郦湾,55,25012,大连龙湖物业服务有限公司,4.5,辽宁,1,二手房,2015
甘井子区锦城东园1号3单元1层2号,大连,大连易合房地产开发有限公司,甘井子,20181127,38.952805477462775,121.55656194973994,易和紫园,4,19610,大连易兴物业服务有限公司,0.9,辽宁,1,二手房,2009
沙河口区连山街10号2-1-2,大连,大连城市建设集团有限公司,沙河口,20181127,38.89637522563413,121.57143690983219,城建花园,8,15643,大连城建开发集团物业管理有限公司,0.5,辽宁,1,二手房,2002
甘井子区泉水H3区15号3单元1层2号,大连,大连新型房地产开发有限公司,甘井子,20181127,39.00158439075201,121.62616882572375,龙畔金泉三期,53,11637,大连新型物业管理有限公司,0.5,辽宁,1,二手房,2004
沙河口区南沙街36号台二2号1-1-37,大连,大连市中联房地产开发有限公司,沙河口,20181127,38.90741410359388,121.57685699961822,健龙苑,18,21400,大连正源物业服务有限公司,0.5,辽宁,1,二手房,2000
甘井子区惠泽南园3-4号,大连,大连长鹭房屋开发有限公司,甘井子,20181127,38.939326611323615,121.52337842113351,晶品缘林,21,14890,大连三和住邦物业管理有限公司,1,辽宁,1,二手房,2008
中山区中青街87号一单元107,大连,大连金生房地产开发有限公司,中山,20181127,38.90213494248529,121.65806522267005,金生佳苑,10,18345,大连金宇物业管理有限公司,1,辽宁,1,二手房,2006
甘井子区汇仁街19号12号楼1单元102室,大连,大连凯祥房地产开发有限公司,甘井子,20181127,38.99746297497168,121.58917714380617,名贵山庄亲情园,18,13234,大连弘益达物业管理有限公司,0.5,辽宁,1,二手房,2002
甘井子区促进路200号,大连,大连鼎新房地产开发有限公司,甘井子,20181127,38.95810188892782,121.58530036264898,鼎新鼎云都,5,15491,大连鼎新物业管理有限公司,0.6,辽宁,1,二手房,2008
沙河口区沙能街101号1单元1层1号,大连,大连大力置业有限公司,沙河口,20181127,38.9366316275348,121.59031205759763,机车佳苑,5,13792,大连大力物业管理有限公司,1.5,辽宁,1,二手房,2009
沙河口区五一路219-1,大连,大连圣北房地产有限公司,沙河口,20181127,38.9026964858514,121.56644125985508,电业花园,9,12309,大连市沙河口房产物业管理有限公司,0.3,辽宁,1,二手房,1999
甘井子区祥龙街2号楼1单元1楼1号,大连,万象地产房地产开发有限公司,甘井子,20181127,38.988045874482445,121.60439401971377,枣园万象,6,16069,大连润东物业管理有限公司,1.7,辽宁,1,二手房,2012
西岗区八一路196号1-3,大连,无开发商,西岗,20181127,38.89127420834314,121.6483201412943,桃花源小区,50,8980,大连三寰物业管理有限公司,0.5,辽宁,1,二手房,1990
中山区中南路226号,大连,大连悦泰集团有限公司,中山,20181127,38.90029610333926,121.68178899957817,悦泰林里,10,24416,大连腾馨物业管理有限公司,1.2,辽宁,1,二手房,2006
大连市甘井子区银田北园14号,大连,亿达集团大连科技城发展有限公司,甘井子,20181127,38.9742441034389,121.47189841879823,亿达春田馥园,39,16790,亿达物业管理有限公司,1.5,辽宁,1,二手房,2011
中山区碧浪园4号-3号,大连,大连三寰房地产开发有限公司,中山,20181127,38.89147289460474,121.69329560326236,碧浪园一期,31,12812,大连峰霖物业管理有限公司,0.3,辽宁,1,二手房,2000
中山区共建巷61号,大连,无开发商,中山,20181127,38.91828093658718,121.66259221532148,39中明泽街,18,24970,无物业管理服务,-,辽宁,1,二手房,1993
西岗区长红街4号1号公建,大连,大连融泰房地产开发有限公司,西岗,20181127,38.91377414665191,121.6302525225721,融泰花园,13,20729,大连长春花园物业管理有限公司,0.4,辽宁,1,二手房,1996
开发区润海园中区18#2号,大连,华润（大连）房地产有限公司,开发区,20181127,39.04047273176333,121.76392358042445,华润海中国六期,47,14374,华润物业（大连）有限公司,3.1,辽宁,1,二手房,2016
沙河口区连山街44-2号半地下一层（地上一层部分）,大连,大连宏都房地产开发有限公司,沙河口,20181127,38.892991456958086,121.57299542767161,宏都筑景Ⅱ期,4,22969,东方百瑞物业有限公司,1.8,辽宁,1,二手房,2012
甘井子区汇仁街19号12号楼1单元102室,大连,大连华南房地产开发有限公司,甘井子,20181127,38.99746297497168,121.58917714380617,名贵山庄华夏园,11,13203,大连弘益达物业管理有限公司,0.5,辽宁,1,二手房,2004
沙河口区富国街34-3,大连,大连万达房地产开发有限公司,沙河口,20181127,38.90160386349964,121.58915317342193,星海自由港,7,17679,大连万景物业管理有限公司,1.2,辽宁,1,二手房,2003
西岗区长春路334号,大连,大连源通房地产开发有限公司,西岗,20181127,38.89807766522607,121.63221082858387,南石源居,2,14136,大连源通物业管理有限公司,1.3,辽宁,1,二手房,2009
西岗区鞍山路29号龙畔锦城东门,大连,无开发商,西岗,20181127,38.92763470697088,121.61498923399098,21中五一广场,22,17270,无物业管理服务,-,辽宁,1,二手房,1976
无门店信息,大连,大连亿达房地产股份有限公司,高新园区,20181127,34.52713835999158,118.76812980670795,亿达悦龙居,19,14386,亿达物业管理有限公司,2.8,辽宁,1,二手房,2015
沙河口区民权街324号,大连,无开发商,沙河口,20181127,38.92064616208148,121.59777611850379,79中恒泰大厦,4,18625,大连衡德物业管理有限公司,0.4,辽宁,1,二手房,1996
沙河口区鞍山路65号美都园7号1单元1层4号公建,大连,远洋地产有限公司,沙河口,20181127,38.92727525772336,121.60296423346817,绿都园,11,12412,大连峰霖物业管理有限公司,0.6,辽宁,1,二手房,2000
高新园区海苑街36号1单元2号公建,大连,千汇德（大连）置业有限公司,高新园区,20181127,20.06392317589085,110.32302599457326,哈佛映像,15,16913,大连千汇德物业管理有限公司,1.2,辽宁,1,二手房,2009
经济技术开发区红星海B区180栋_3号链家地产,大连,远洋地产有限公司,开发区,20181127,39.027851194371685,121.80327394132297,红星海五期岚谷,86,12731,大连远洋基业物业管理有限公司,2.2,辽宁,1,二手房,2012
沙河口区西南路358号1—2号,大连,大连弘晟房地产开发有限公司,沙河口,20181127,38.90839654326566,121.56908246905662,明月山庄,9,13971,大连衡德物业管理有限公司,0.6,辽宁,1,二手房,2003
中山区南山路59号1层4号,大连,大连恒一嘉元置业有限公司,中山,20181127,38.91992239075882,121.6479206962747,南山首府,3,27496,大连恒信物业服务有限公司,4,辽宁,1,二手房,2015
高新园敬贤街23-11号,大连,大连晟远房地产开发有限公司,高新园区,20181127,38.86956637166276,121.5301657390922,恒瑞坦城,48,16343,大连恒德物业服务有限公司,2.4,辽宁,1,二手房,2015
沙河口区星海广场B3区14-2号1层,大连,华润置地（大连）有限公司,沙河口,20181127,38.88693148294673,121.58735631267305,星海湾壹号,35,32128,华润物业（大连）有限公司,4.8,辽宁,1,二手房,2008
高新园敬贤街23-11号,大连,大连恒瑞房地产开发有限公司,高新园区,20181127,38.86956637166276,121.5301657390922,大湖山语,26,18894,大连龙湖物业服务有限公司,2.8,辽宁,1,二手房,2015
西岗区新田巷11号三单元103,大连,大连龙润房屋开发有限公司,西岗,20181127,38.89276612016956,121.64190731791966,叠彩桃源,2,14966,大连龙润物业管理有限公司,0.8,辽宁,1,二手房,2003
天河路173-2号 华润考拉22号公建,大连,大连华南房地产开发有限公司,甘井子,20181127,23.147151253133927,113.3277313198351,名贵山庄华丽园,18,11034,大连弘益达物业管理有限公司,0.5,辽宁,1,二手房,2002
沙河口区西南路358号1—2号,大连,大连恒安房地产开发有限公司,沙河口,20181127,38.90839654326566,121.56908246905662,水芙山竹,11,19706,大连上达物业管理有限公司,0.6,辽宁,1,二手房,2005
大连市沙河口区黄河路729号,大连,无开发商,沙河口,20181127,38.91710565765228,121.58954758972729,明阳花园小区,8,10591,无物业管理服务,-,辽宁,1,二手房,2000
大连市甘井子区椒房街24号楼2-104链家地产,大连,大连凯祥房地产开发有限公司,甘井子,20181127,38.985363789837166,121.61034055597686,椒金山庄,10,15214,大连凯祥物业管理有限公司,0.5,辽宁,1,二手房,2000
西岗区中山路158号唐山街市场外14号,大连,海运集团大连房屋开发有限公司,西岗,20181127,38.91835355789945,121.63274981188985,宝居佳苑,2,21736,大连城建开发集团物业管理有限公司,2,辽宁,1,二手房,2011
沙河口区红旗东路18-22号2单元1楼3号,大连,大连益海房屋开发有限公司,沙河口,20181127,38.921778341674376,121.58261780680284,西苑花园,9,14604,大连宏溢达物业管理有限公司,0.5,辽宁,1,二手房,2000
大连市甘井子区丰收路3-5号,大连,大连壹高房地产发展有限公司,甘井子,20181127,38.965377255081755,121.58288415324094,朗香小镇,11,18995,大连顶点物业管理有限公司,1.3,辽宁,1,二手房,2011
开发区松苑街23号,大连,大连天安房地产开发有限公司,开发区,20181127,22.52087710763645,113.40156104777168,天安海景花园,20,11768,大连港力物业管理有限公司,1.2,辽宁,1,二手房,2006
西岗区黄河路90号公建部分,大连,大连兴昌房屋开发有限公司,西岗,20181127,38.92234529815978,121.62829331825485,兴昌都市首府,3,33348,大连戴德梁行物业管理有限公司,1.5,辽宁,1,二手房,2005
甘井子区榆水街6-9号公建,大连,大连弘润置业有限公司,甘井子,20181127,38.97957540063716,121.52458567456938,万科城市之光,35,18862,大连万科物业服务有限公司,2.8,辽宁,1,二手房,2015
高新园区海苑街36号1单元2号公建,大连,大连海苑房屋开发有限公司,高新园区,20181127,20.06392317589085,110.32302599457326,海苑花园,20,13340,大连家园物业有限公司,0.3,辽宁,1,二手房,2000
沙河口区星海广场B3区14-9,大连,大连友谊合升房地产开发有限公司,沙河口,20181127,38.887408126588866,121.58732762887982,壹品星海二期,16,21649,大连友谊物业服务有限公司,1.9,辽宁,1,二手房,2007
中山区爱华街13号,大连,无开发商,中山,20181127,38.92541607518685,121.6535728031028,九中爱华街,8,37591,无物业管理服务,-,辽宁,1,二手房,1992
沙河口区黑石礁街5号1层1号,大连,大连鹏生房地产开发有限公司,沙河口,20181127,38.879813345473714,121.56313742300513,鹏辉广场,8,14828,大连新兴物业管理有限公司,0.5,辽宁,1,二手房,2000
大连市沙河口区西南路875号1层21号,大连,大连泰安房地产开发有限公司,沙河口,20181127,38.94485969061231,121.58418648447764,春柳河小区,19,9728,大连三宝物业有限公司,0.5,辽宁,1,二手房,2001
甘井子区祥龙街2号楼1单元1楼1号,大连,大连源隆房地产开发有限公司,甘井子,20181127,38.988045874482445,121.60439401971377,鑫汇茗苑,10,15947,大连佳和物业管理有限公司,1.6,辽宁,1,二手房,2011
中山区武昌街武昌公寓6号公建,大连,大连海昌房屋开发有限公司,中山,20181127,38.912280913445784,121.64921130527547,海昌华城,8,15465,大连海昌欣城物业管理有限公司,1.1,辽宁,1,二手房,1997
甘井子区金家街17-7号,大连,大连衡锐房屋开发有限公司,甘井子,20181127,38.97493697764367,121.60110987128529,温莎小镇,8,18839,大连长波物业管理有限公司,1.5,辽宁,1,二手房,2013
中山区华乐街71号公建,大连,暂无信息,中山,20181127,38.923187679200566,121.6843197903016,东港印象DE区,14,13847,大连众和物业管理有限公司,1.2,辽宁,1,二手房,2008
沙河口区西南路40号楼,大连,亿达房地产开发有限公司,沙河口,20181127,38.94141605900714,121.58612100465703,星浦庄园,11,11702,大连香都物业管理有限公司,0.5,辽宁,1,二手房,1997
中山区碧浪园4号-3号,大连,大连三寰房地产开发有限公司,中山,20181127,38.89147289460474,121.69329560326236,碧浪园二期,7,15210,大连峰霖物业管理有限公司,0.3,辽宁,1,二手房,2002
沙河口区鞍山路65号美都园7号1单元1层4号公建,大连,大连诚瑞项目管理有限公司,沙河口,20181127,38.92727525772336,121.60296423346817,万向城,41,10602,大连好管家物业管理有限公司,1.9,辽宁,1,二手房,2010
中山区秀月街37号1层2号,大连,大连澳南房屋开发有限公司,中山,20181127,38.88757907576307,121.66311065527876,清溪南苑,4,16000,大连中园房地产物业公司,0.6,辽宁,1,二手房,2003
西岗区香炉礁24号1-1,大连,大连大骏达房地产开发有限公司,西岗,20181127,38.91336952993919,121.6258229781024,骏达阅阳楼,9,10237,街道办事处（居委会）代管物业,1.2,辽宁,1,二手房,2010
甘井子区泉水B2区19-1号,大连,北方沿海房地产开发（大连）有限公司,甘井子,20181127,39.0101309886317,121.60812584213187,沿海鉴筑二期,20,15618,美佳物业管理（深圳）有限公司大连分公司,1.5,辽宁,1,二手房,2012
南山路50号,大连,大连铁路房地产开发有限责任公司,中山,20181127,38.92027296196962,121.6483012768786,延安小区,20,20043,大连铁路物业管理有限公司,0.5,辽宁,1,二手房,1995
中山区山屏街116号1-1,大连,大连恒悦房地产开发有限公司,中山,20181127,38.90729438486833,121.68598159980013,悦泰德里,11,22240,大连百安物业管理有限公司,1.9,辽宁,1,二手房,2008
高新园区敬贤街25-9,大连,大连名仕煜光房地产开发有限公司,高新园区,20181127,38.86877373541043,121.52975162654023,名仕智慧谷,15,19426,大连名仕物业管理有限公司,2.5,辽宁,1,二手房,2012
甘井子辛吉街150号-7号,大连,大连新星房地产开发有限公司,甘井子,20181127,38.96309956105142,121.52341678860995,新星绿城二期,15,11801,大连生生物业管理有限公司,0.5,辽宁,1,二手房,2005
开发区松苑街23号,大连,暂无信息,开发区,20181127,22.52087710763645,113.40156104777168,松峪里二期,4,11348,大连中信物业管理有限公司,0.5,辽宁,1,二手房,2000
西岗区鞍山路65-5号,大连,大连大重房屋开发有限公司,沙河口,20181127,38.92701992456326,121.60258216167713,江都春华园,2,22740,大连万兴物业管理有限公司,0.8,辽宁,1,二手房,2008
甘井子区汇仁街19号12号楼1单元102室,大连,大连华南房地产开发有限公司,甘井子,20181127,38.99746297497168,121.58917714380617,名贵山庄金盛园,11,14389,大连弘益达物业管理有限公司,0.5,辽宁,1,二手房,2004
甘井子区知音园20号3单元1层1号,大连,无开发商,高新园区,20181127,38.95546176066109,121.5285003794903,老年公寓,6,16167,无物业管理服务,-,辽宁,1,二手房,1995
中山区共建巷61号,大连,大连新型房地产开发总公司,中山,20181127,38.91828093658718,121.66259221532148,南山苑,9,34595,大连新型物业管理有限公司,0.2,辽宁,1,二手房,1990
沙河口区五一路110-4号,大连,大连大重房屋开发有限公司,沙河口,20181127,38.90710946686282,121.58172564480427,星台花园二期,21,24017,大连大重房屋开发公司物业管理中心,0.4,辽宁,1,二手房,1995
中山区民建街10号1单元1号,大连,无开发商,中山,20181127,38.925444479476894,121.66915026954452,39中学士街,26,20731,无物业管理服务,-,辽宁,1,二手房,1995
西岗区黄河路362号公建,大连,亿达集团大连房地产开发有限公司,西岗,20181127,38.91819905243802,121.61365779430986,亿达新世界,12,15976,亿达物业管理有限公司,0.5,辽宁,1,二手房,2001
甘井子区华东路33-5号,大连,大连景和房屋开发有限公司,甘井子,20181127,38.97497080220593,121.59479866243332,怡景园,11,16276,大连景和物业管理有限公司,0.5,辽宁,1,二手房,2002
无门店信息,大连,大连君悦房地产开发有限公司,甘井子,20181127,34.52713835999158,118.76812980670795,君悦晟景,20,12766,大连弘实物业有限公司,1.2,辽宁,1,二手房,2012
甘井子辛吉街150号-7号,大连,大连新星房地产开发有限公司,甘井子,20181127,38.96309956105142,121.52341678860995,新星绿城一期,30,10689,大连生生物业管理有限公司,0.5,辽宁,1,二手房,2003
甘井子区辛寨子街道中冶蓝城辛虹园39-7号公建,大连,大连中冶京诚置业有限公司,甘井子,20181127,38.98155611421408,121.49259383356096,中冶蓝城C区,26,14811,大连添翼物业服务有限公司,2,辽宁,1,二手房,2011
中山区民运巷 47号1层2号,大连,暂无信息,中山,20181127,38.905955122300846,121.64798148011702,新兴小区,9,8781,暂无信息,0.5,辽宁,1,二手房,2000
开发区翠竹小区33栋4-1-1号,大连,大连宏济开发经济有限公司,开发区,20181127,30.635492106460237,119.69169575745704,宏城金棕榈,33,9223,大连宏景物业管理有限公司,1.3,辽宁,1,二手房,2006
无门店信息,大连,大连保利东港房地产开发有限公司,中山,20181127,34.52713835999158,118.76812980670795,保利天禧,47,22347,保利物业服务有限公司,4.8,辽宁,1,二手房,2017
高新园区敬贤街25-9,大连,大连海逸房地产开发有限公司,高新园区,20181127,38.86877373541043,121.52975162654023,海逸诺丁山,17,18689,大连耕海物业服务有限公司,2.5,辽宁,1,二手房,2015
中山区秀月街37号1层2号,大连,无开发商,中山,20181127,38.88757907576307,121.66311065527876,秀月小区,25,16553,无物业管理服务,0.5,辽宁,1,二手房,1982
金州区小平岛B组团4号楼3号商铺,大连,大连安达房地产开发有限公司,高新园区,20181127,39.2986190718601,121.95658248043723,小平岛E东组团,29,19104,大连凯尔富物业管理有限公司,1.3,辽宁,1,二手房,2007
中山区民建街10号1单元1号,大连,无开发商,中山,20181127,38.925444479476894,121.66915026954452,39中明阳街,28,19690,无物业管理服务,-,辽宁,1,二手房,1993
甘井子区绿洲园63—14号,大连,大连房地产开发集团,甘井子,20181127,38.95627767383783,121.59592681827246,和润佳园,5,16293,大连益嘉物业管理有限公司,1,辽宁,1,二手房,2007
中山区共建巷61号,大连,无开发商,中山,20181127,38.91828093658718,121.66259221532148,39中望海街,12,26830,街道办事处（居委会）代管物业,0.5,辽宁,1,二手房,1995
中山区安居巷7号,大连,大连华鹏房地产有限公司,中山,20181127,38.900436431991984,121.67796628922625,海派优座,9,14696,第一东方（大连）物业服务有限公司,2.5,辽宁,1,二手房,2008
沙河口区西南路40号楼,大连,亿达集团大连房地产开发有限公司,沙河口,20181127,38.94141605900714,121.58612100465703,亿达海月公寓,6,15061,大连华艺物业管理有限公司,0.5,辽宁,1,二手房,1999
中山区山屏街116号1-1,大连,大连毅腾房屋开发有限公司,中山,20181127,38.90729438486833,121.68598159980013,中南苑,11,16666,大连中南苑物业有限公司,0.8,辽宁,1,二手房,2001
大连市高新园区七贤中路63号,大连,大连乾丞房地产开发有限公司,高新园区,20181127,38.86053006357667,121.53273606963094,昊宇山海湾,13,20015,大连三和住邦物业管理有限公司,2.6,辽宁,1,二手房,2015
西岗区华北路100号1层5号,大连,无开发商,西岗,20181127,38.91336952993919,121.6258229781024,远东小区,4,12310,无物业管理服务,-,辽宁,1,二手房,1999
甘井子区凌秀路37号-1链家地产,大连,大连九九集团有限公司,高新园区,20181127,38.883794285403965,121.52361997548515,文荟小区,10,12101,大连理工物业管理中心,0.5,辽宁,1,二手房,1994
甘井子区虹港路16号楼1层公建,大连,大连鑫奇房地产开发有限公司,甘井子,20181127,38.96457808198196,121.55421052098279,鑫境界,56,10265,大连鑫境界物业管理有限公司,1.3,辽宁,1,二手房,2009
沙河口区长江路946号-9,大连,大连北洋房屋开发公司,沙河口,20181127,38.92295863621255,121.59735298157467,北洋小区,8,11935,大连天洋物业管理有限公司,0.5,辽宁,1,二手房,1999
沙河口区昌黎街77号楼第1层公建,大连,大连城市建设集团有限公司,沙河口,20181127,38.91974518366595,121.5902918379551,79中君安公寓,10,18681,大连广安物业有限公司,1.2,辽宁,1,二手房,1998
西岗区新田巷27号1-2,大连,大连安大房屋开发有限公司,西岗,20181127,38.893215932589385,121.64103065169111,仲夏花园,6,13890,大连长风物业管理有限公司,0.4,辽宁,1,二手房,1997
沙河口区恒利园42号-8,大连,大连新型房地产开发有限公司,沙河口,20181127,38.93357562498634,121.57914091532649,中铁十三局,18,12305,大连新兴物业管理有限公司,0.3,辽宁,1,二手房,1993
无门店信息,大连,大连景和房屋开发有限公司,甘井子,20181127,34.52713835999158,118.76812980670795,怡华园,13,14635,大连景和物业管理有限公司,0.5,辽宁,1,二手房,2001
大连市沙河口区黄河路729号,大连,大连天河房地产开发集团有限公司,沙河口,20181127,38.91710565765228,121.58954758972729,天河100,3,17374,大连天河物业管理有限公司,0.8,辽宁,1,二手房,2004
沙河口区黄浦路18号—5号公建,大连,大连良运房地产开发有限公司,高新园区,20181127,38.8771225143479,121.54427480390662,翰林观海公寓,15,17495,大连良运物业管理有限公司,0.8,辽宁,1,二手房,2003
大连市甘井子区七贤路8-3号,大连,大连高新万达广场投资有限公司,高新园区,20181127,38.86659077085588,121.5392980566355,万达海公馆,17,23929,大连万达物业管理有限公司,4.5,辽宁,1,二手房,2015
西岗区胜利路33号,大连,大连恒盛房屋开发有限公司,西岗,20181127,38.91309771954841,121.62500886627636,盛阳山庄,4,9860,大连佳捷物业管理有限公司,0.5,辽宁,1,二手房,1999
西岗区平等街21号1层2号,大连,远洋地产有限公司,西岗,20181127,38.92251066253164,121.63236845125735,丽都花园,10,17776,无物业管理服务,-,辽宁,1,二手房,1997
沙河口区连山街44-2号半地下一层（地上一层部分）,大连,大连富华房地产有限公司,沙河口,20181127,38.892991456958086,121.57299542767161,富华山庄,8,13857,大连城建开发集团物业管理有限公司,0.5,辽宁,1,二手房,1998
中山区三八广场5号,大连,大连新型房地产开发总公司,中山,20181127,38.92540000551715,121.6642911149562,二七公寓,10,15705,大连新型物业管理有限公司,0.8,辽宁,1,二手房,1999
甘井子区山东路137号,大连,大连华南房地产开发有限公司,甘井子,20181127,38.99129404608926,121.59172125999353,名贵山庄青年公寓,9,13268,大连弘益达物业管理有限公司,0.5,辽宁,1,二手房,2004
南山路50号,大连,深圳市东山开发有限公司,中山,20181127,38.92027296196962,121.6483012768786,昆明花园,3,19320,深圳市东山物业管理有限公司,0.5,辽宁,1,二手房,2000
中山区民建街10号1单元1号,大连,大连港连房地产开发有限公司,中山,20181127,38.925444479476894,121.66915026954452,海港公寓（三八广场）,21,22405,大连海港物业管理有限公司,0.2,辽宁,1,二手房,1996
沙河口区星海广场B3区14-9,大连,半岛集团,沙河口,20181127,38.887408126588866,121.58732762887982,半岛听涛,12,19706,大连半岛物业管理有限公司,2.6,辽宁,1,二手房,2007
甘井子区华北路花锦园28号23-3-1-2建筑物,大连,大连东特房地产开发有限公司,甘井子,20181127,38.951627958411166,121.5739439799003,东特星中环,12,15504,大连东特祥禾物业管理有限公司,0.8,辽宁,1,二手房,2006
沙河口区连山街44-2号半地下一层（地上一层部分）,大连,无开发商,沙河口,20181127,38.892991456958086,121.57299542767161,星海嘉园,4,14139,街道办事处（居委会）代管物业,0.5,辽宁,1,二手房,2001
中山区杏林街66—5号,大连,大连泰元房地产开发有限公司,中山,20181127,38.9244189768098,121.6630029448549,保华旺苑,9,31055,保华物业管理（大连）有限公司,3.8,辽宁,1,二手房,2016
沙河口区黄河路535号,大连,大连春达房屋开发有限公司,沙河口,20181127,38.91773777159567,121.60217159922856,79中数控大厦,10,25410,大连欧德物业管理有限公司,1.2,辽宁,1,二手房,2000
中山区民建街10号1单元1号,大连,无开发商,中山,20181127,38.925444479476894,121.66915026954452,39中爱阳街,20,17952,无物业管理服务,-,辽宁,1,二手房,1993
大连市甘井子区椒房街24号楼2-104链家地产,大连,大连港置地有限公司,甘井子,20181127,38.985363789837166,121.61034055597686,大连港天下粮仓,21,18986,大连万科物业服务有限公司,2.2,辽宁,1,二手房,2017
甘井子区甘井子街3号公建,大连,无开发商,甘井子,20181127,38.982086281836246,121.63426694995971,东翠鸣苑,17,12435,大连亿新物业管理有限公司,0.5,辽宁,1,二手房,2006
中山区中南路226号,大连,大连华钧房地产开发有限公司,中山,20181127,38.90029610333926,121.68178899957817,半山花园,3,10437,大连仁和物业管理有限公司,0.7,辽宁,1,二手房,2000
莲花山路89-3号,大连,大连兴达房地产有限公司,西岗,20181127,38.90273559371702,121.6046814926709,香都花园,1,13204,大连香都物业管理有限公司,0.8,辽宁,1,二手房,1993
中山区民建街10号1单元1号,大连,无开发商,中山,20181127,38.925444479476894,121.66915026954452,39中太阳街,13,18467,无物业管理服务,-,辽宁,1,二手房,1996
大连市沙河口区五四路199-4号,大连,暂无信息,西岗,20181127,38.907987066040505,121.60249214877012,商都花园,2,21541,大连天河物业管理有限公司,0.3,辽宁,1,二手房,1993
沙河口区西南路96号1层2号,大连,无开发商,沙河口,20181127,38.890863095482466,121.56788114713203,大医物业,6,11197,街道办事处（居委会）代管物业,0.5,辽宁,1,二手房,1990
无门店信息,大连,大连一方东港置地有限公司,中山,20181127,34.52713835999158,118.76812980670795,中庚当代艺术,12,23398,大连中庚物业管理有限公司,4.5,辽宁,1,二手房,2015
沙河口区兰田街33号,大连,无开发商,沙河口,20181127,38.926138912221084,121.56486022834609,858家园,3,11368,无物业管理服务,-,辽宁,1,二手房,2000
甘井子区红旗中路143号1层4号,大连,亿海房地产开发有限公司,甘井子,20181127,38.93169566676921,121.5426632438217,水苑居,2,15760,大连万泰物业管理有限公司,0.6,辽宁,1,二手房,2003
中山区安居巷7号,大连,大连铁路房地产开发有限责任公司,西岗,20181127,38.900436431991984,121.67796628922625,沈铁铭悦,10,14425,大连铁路物业管理有限公司,1.5,辽宁,1,二手房,2014
中山区益民街16号1层1号,大连,中海地产,中山,20181127,38.93092761298906,121.66470740073377,中海海港城,38,18671,中海物业,4.2,辽宁,1,二手房,2015
莲花山路89-3号,大连,大连安邦房屋开发公司,沙河口,20181127,38.90273559371702,121.6046814926709,金地海景,20,12918,无物业管理服务,-,辽宁,1,二手房,2005
甘井子区泉水B5区27-9,大连,大连运达房地产集团有限公司,甘井子,20181127,39.014833760509994,121.60955220395961,锦泉源B6区,11,13903,政治物业管理有限公司,0.5,辽宁,1,二手房,2012
沙河口区西南路358号1—2号,大连,无开发商,沙河口,20181127,38.90839654326566,121.56908246905662,龙岗园,4,11030,大连嘉和物业管理有限公司,0.2,辽宁,1,二手房,2001
开发区兴城路29-81层,大连,无开发商,开发区,20181127,39.05020829677517,121.7578103751747,佳和园,8,11589,大连西海岸物业管理有限公司,1,辽宁,1,二手房,2005
中山区杏林街66—5号,大连,大连嘉和房地产集团有限公司,中山,20181127,38.9244189768098,121.6630029448549,嘉和园,2,22878,大连嘉和物业管理有限公司,3,辽宁,1,二手房,2005
沙河口区联合路133号,大连,大连五环房屋开发有限公司,沙河口,20181127,38.91608561262676,121.60480987310456,汇利嘉园,5,20218,大连银力物业管理有限公司,0.5,辽宁,1,二手房,2003
沙河口区西南路40号楼,大连,大连金通房屋开发有限公司,沙河口,20181127,38.94141605900714,121.58612100465703,海韵花园,6,11554,大连金通物业管理有限公司,0.4,辽宁,1,二手房,2000
大连市沙河口区五四路199-4号,大连,无开发商,沙河口,20181127,38.907987066040505,121.60249214877012,动力花园,0,18683,无物业管理服务,-,辽宁,1,二手房,2004
沙河口区兰田街33号,大连,无开发商,沙河口,20181127,38.926138912221084,121.56486022834609,马栏广场,6,10225,无物业管理服务,0.4,辽宁,1,二手房,2000
甘井子区新兴路36号3-1-3,大连,大连新型房地产开发有限公司,甘井子,20181127,38.95546176066109,121.5285003794903,泡崖二区,53,9585,大连新兴物业管理有限公司,0.5,辽宁,1,二手房,1997
无门店信息,大连,大连万林房地产开发有限公司,甘井子,20181127,34.52713835999158,118.76812980670795,我爱我家,8,13662,大连弘实物业管理有限公司,1.3,辽宁,1,二手房,2011
甘井子区哲林北园17-6号,大连,大连恒宇房地产开发有限公司,甘井子,20181127,38.9600267109581,121.53876726228256,恒宇祥苑,6,9004,亿达物业管理有限公司,0.5,辽宁,1,二手房,2003
沙河口区昌黎街77号楼第1层公建,大连,大连高新园区建设开发总公司,沙河口,20181127,38.91974518366595,121.5902918379551,79中昌隆大厦,9,19787,无物业管理服务,-,辽宁,1,二手房,1998
沙河口区杨树街4-4号公建,大连,无开发商,高新园区,20181127,38.88444587249751,121.55130620045541,育明高中,7,16079,无物业管理服务,-,辽宁,1,二手房,1998
开发区安盛里5栋-4,大连,大连新苑房地产开发有限公司,开发区,20181127,23.112106678834838,113.27801046214822,绿色新苑,7,10420,大连利堃物业管理有限公司,0.8,辽宁,1,二手房,2001
甘井子区泉水H3区15号3单元1层2号,大连,大连新型房地产开发有限公司,甘井子,20181127,39.00158439075201,121.62616882572375,龙畔金泉一期,12,10228,大连新型物业管理有限公司,0.5,辽宁,1,二手房,2002
甘井子区锦城西园4#3-1-1,大连,沈阳军区后勤部,甘井子,20181127,38.95286223185571,121.55129044777,金寓花园一期,5,14866,大连瑞祥物业管理有限公司,0.5,辽宁,1,二手房,2003
中山区华乐街71号公建,大连,暂无信息,中山,20181127,38.923187679200566,121.6843197903016,东港印象A区,21,17878,大连众和物业管理有限公司,1.2,辽宁,1,二手房,2008
高新园敬贤街23-11号,大连,暂无信息,高新园区,20181127,38.86956637166276,121.5301657390922,中海紫御观邸二期,20,20592,大连中海物业管理有限公司,2.6,辽宁,1,二手房,2013
大连市高新园区七贤中路63号,大连,大连鑫亿房屋开发有限公司,高新园区,20181127,38.86053006357667,121.53273606963094,瑞丰园,8,12949,无物业管理服务,-,辽宁,1,二手房,1999
中山区共建巷61号,大连,无开发商,中山,20181127,38.91828093658718,121.66259221532148,39中中化街,6,25455,街道办事处（居委会）代管物业,0.5,辽宁,1,二手房,1995
沙河口区联合路133号,大连,暂无信息,沙河口,20181127,38.91608561262676,121.60480987310456,21中天兴花园二期,6,18234,大连万泰物业管理有限公司,0.5,辽宁,1,二手房,1998
中山区解放路604号,大连,大连雅风房屋开发有限公司,中山,20181127,38.89026319122045,121.66407876092346,桃源旺座,1,16844,大连豪斯沃克物业有限公司,1,辽宁,1,二手房,2007
中山区虎滩路176号4-1-2,大连,大连万达房地产开发有限公司,中山,20181127,38.890884710033156,121.69257379232747,虎滩路,43,12275,大连虎滩置业物业管理有限公司,0.2,辽宁,1,二手房,1999
金州区拥政街道733号-8号1-2层,大连,大连千川房地产有限公司,金州,20181127,39.11690610445662,121.73030803603723,湖畔嘉园,17,9026,大连千川物业管理有限公司,-,辽宁,1,二手房,2007
南山路50号,大连,辽宁远大房屋开发有限公司,中山,20181127,38.92027296196962,121.6483012768786,远大大厦,21,10272,街道办事处（居委会）代管物业,2.5,辽宁,1,二手房,2000
甘井子区华北路花锦园28号23-3-1-2建筑物,大连,大连万科蓝山房地产开发有限公司,甘井子,20181127,38.951627958411166,121.5739439799003,万科公园里,4,27303,大连万科物业服务有限公司,1.5,辽宁,1,二手房,2015
西岗区平等街21号1层2号,大连,辽宁宁安房地产开发有限公司,西岗,20181127,38.92251066253164,121.63236845125735,良玖国际,15,14476,大连良玖物业管理有限责任公司,3.7,辽宁,1,二手房,2005
甘井子区祥龙街2号楼1单元1楼1号,大连,大连宏孚房屋开发有限公司,甘井子,20181127,38.988045874482445,121.60439401971377,宏孚小区,32,10207,无物业管理服务,-,辽宁,1,二手房,1995
中山区职工街96号1-3层公建,大连,大连名仕房地产开发有限公司,中山,20181127,38.92565613737007,121.66193575790903,名仕国际公寓,23,9631,大连名流物业有限公司,3.8,辽宁,1,二手房,2004
大连市甘井子区钻石湾和信园13-5,大连,远洋地产有限公司,甘井子,20181127,38.95806887148857,121.62117199773128,远洋钻石湾三期,56,19046,远洋亿家物业服务股份有限公司大连分公司,1.5,辽宁,1,二手房,2014
沙河口区中山路417A-4号,大连,大连电业房地产开发有限公司,沙河口,20181127,38.90734671814175,121.59482182703752,电力公寓,6,13037,街道办事处（居委会）代管物业,0.7,辽宁,1,二手房,2000
甘井子区泉水D1区10-2#1-1-7,大连,大连春达房屋开发有限公司,甘井子,20181127,39.014763910942854,121.61661407462454,景富铭苑,18,11955,庄河金城物业管理有限公司,0.5,辽宁,1,二手房,2004
沙河口区兰田街33号,大连,无开发商,沙河口,20181127,38.926138912221084,121.56486022834609,西苑新区,2,13415,街道办事处（居委会）代管物业,0.3,辽宁,1,二手房,2000
开发区松苑街23号,大连,大连西太平洋家属楼,开发区,20181127,22.52087710763645,113.40156104777168,松平里,9,12106,街道办事处（居委会）代管物业,0.5,辽宁,1,二手房,1995
甘井子区惠泽南园3-4号,大连,大连泓良房地产开发有限公司,甘井子,20181127,38.939326611323615,121.52337842113351,山水秀景,5,14307,大连三和住邦物业管理有限公司,1,辽宁,1,二手房,2007
沙河口区新生路万科园7—1号,大连,大连公屋发展有限公司,沙河口,20181127,38.94440370819716,121.57117928210005,春柳人家,0,14623,大连德衡物业管理有限公司,0.5,辽宁,1,二手房,2003
开发区鹏程家园66#-6、66#-7公建,大连,大连元新房地产开发有限公司,开发区,20181127,38.90045524508753,121.63339362744885,华夏海景,21,8570,大连元新物业管理有限公司,1,辽宁,1,二手房,2003
甘井子区哲林北园17-6号,大连,大连科宏房屋开发有限公司,甘井子,20181127,38.9600267109581,121.53876726228256,虹港新居,28,12975,大连空港物业管理有限公司,0.4,辽宁,1,二手房,2002
沙河口区富国街34-3,大连,无开发商,沙河口,20181127,38.90160386349964,121.58915317342193,星海街,33,10065,无物业管理服务,-,辽宁,1,二手房,1990
中山区鲁迅路184号1层B—A,大连,无开发商,中山,20181127,38.92590875965419,121.67594393403164,39中山岳街,5,15877,无物业管理服务,-,辽宁,1,二手房,1998
大连市甘井子区七贤路8-3号,大连,大连树源世嘉房地产开发有限公司,高新园区,20181127,38.86659077085588,121.5392980566355,国滨馆,20,20908,大连树源物业管理有限公司,3.5,辽宁,1,二手房,2015
开发区红星海-B区89-1号,大连,远洋地产有限公司,开发区,20181127,39.027851194371685,121.80327394132297,红星海三期郡墅,29,16739,大连远洋基业物业管理有限公司,2.2,辽宁,1,二手房,2010
西岗区长春路334号,大连,无开发商,西岗,20181127,38.89807766522607,121.63221082858387,鹏程家园,4,12699,街道办事处（居委会）代管物业,0.5,辽宁,1,二手房,2002
甘井子区芳林街17号1单元1层1号,大连,无开发商,甘井子,20181127,38.96091976856697,121.58863625429588,顺发路,19,10958,街道办事处（居委会）代管物业,0.2,辽宁,1,二手房,1993
金州区凤祥路236-2,大连,大连鸿玮置业有限公司,金州,20181127,39.08547607514868,121.7749730382401,鸿玮澜山二期,29,14152,大连鸿玮物业服务有限公司,1.8,辽宁,1,二手房,2015
甘井子区虹港路16号楼1层公建,大连,亿达房地产开发有限公司,甘井子,20181127,38.96457808198196,121.55421052098279,虹港路（机场商圈）,35,11576,亿达物业管理有限公司,0.2,辽宁,1,二手房,1996
无门店信息,大连,大连铁龙房地产开发有限公司,甘井子,20181127,34.52713835999158,118.76812980670795,连海金源,21,13394,大连铁龙安居物业管理有限公司,1.3,辽宁,1,二手房,2012
开发区东北三街94号1层,大连,大连港连房地产开发有限公司,开发区,20181127,39.05723508011585,121.80570768630555,海航YOHO湾,24,9327,海航物业管理有限公司大连分公司,1.8,辽宁,1,二手房,2014
中山区中南路226号,大连,大连永薪房屋开发有限公司,中山,20181127,38.90029610333926,121.68178899957817,海神花园,4,11831,大连永佳物业管理有限公司,0.8,辽宁,1,二手房,1999
经济技术开发区红星海-A区81-2号1层,大连,远洋地产有限公司,开发区,20181127,39.027851194371685,121.80327394132297,红星海郡墅二号,7,16635,大连远洋基业物业管理有限公司,3.5,辽宁,1,二手房,2012
高新园区聚贤路36号5幢1单元1层1号,大连,九成方元房地产（大连）有限公司,高新园区,20181127,32.31472011562832,119.46141263909165,福荣园,6,18094,九成物业（大连）有限公司,2.6,辽宁,1,二手房,2015
沙河口区星海广场B3区20—3号,大连,金世纪房地产,沙河口,20181127,38.888054001818844,121.58662952422732,金玉星海,9,12442,大连吉田物业管理有限公司,1.3,辽宁,1,二手房,2005
无门店信息,大连,大连聚达房地产开发有限公司,旅顺口,20181127,34.52713835999158,118.76812980670795,海尚明珠,96,9747,大连合生物业管理有限公司,1.5,辽宁,1,二手房,2016
无门店信息,大连,暂无信息,中山,20181127,34.52713835999158,118.76812980670795,明秀庄园一期,15,28494,暂无信息,-,辽宁,1,二手房,2012
经济技术开发区红星海-A区81-2号1层,大连,远洋地产有限公司,开发区,20181127,39.027851194371685,121.80327394132297,红星海一期原墅,28,23993,大连远洋基业物业管理有限公司,2.2,辽宁,1,二手房,2010
大连市甘井子区俊岭街7-8号,大连,大连鹏辉房地产开发有限公司,甘井子,20181127,39.02545650394225,121.60421304238861,鹏辉新天居三期,42,12224,大连鹏辉物业管理有限公司,0.8,辽宁,1,二手房,2009
甘井子区西南路979-7号公建,大连,大连万亿房地产开发有限公司,甘井子,20181127,38.96275592929325,121.5958698791777,万亿香橙,7,20661,街道办事处（居委会）代管物业,0.5,辽宁,1,二手房,2011
经济技术开发区红星海-A区81-2号1层,大连,远洋地产有限公司,开发区,20181127,39.027851194371685,121.80327394132297,红星海二期领墅,22,17923,大连远洋基业物业管理有限公司,0.5,辽宁,1,二手房,2009
大连市甘井子区椒房街24号楼2-104链家地产,大连,暂无信息,甘井子,20181127,38.985363789837166,121.61034055597686,青秀蓝湾二期,13,20870,中国铁建地产集团物业公司,2.6,辽宁,1,二手房,2016
中山区碧浪园4号-3号,大连,大连铁路房地产开发有限责任公司,中山,20181127,38.89147289460474,121.69329560326236,山水家园二期,3,18270,大连铁道物业管理有限责任公司,0.3,辽宁,1,二手房,2003
甘井子区汇仁街19号12号楼1单元102室,大连,大连华南房地产开发有限公司,甘井子,20181127,38.99746297497168,121.58917714380617,名贵山庄华春园,2,12524,大连弘益达物业管理有限公司,0.5,辽宁,1,二手房,2004
甘井子区辛寨子街道中冶蓝城辛虹园39-7号公建,大连,大连中冶京诚置业有限公司,甘井子,20181127,38.98155611421408,121.49259383356096,中冶蓝城,22,10493,大连添翼物业服务有限公司,2,辽宁,1,二手房,2013
甘井子区惠泽南园3-7号,大连,大连利丰房地产开发有限公司,甘井子,20181127,38.939326611323615,121.52337842113351,国安宜居,6,16496,大连易明物业服务有限公司,2,辽宁,1,二手房,2014
中山区武昌街武昌公寓6号公建,大连,无开发商,中山,20181127,38.912280913445784,121.64921130527547,武昌街,16,11364,大连经济技术开发区永嘉物业管理有限公司,0.3,辽宁,1,二手房,1990
甘井子区玉丽街39号楼3号公建,大连,大连乾元房地产开发有限公司,甘井子,20181127,38.98706755029984,121.55605471197089,和合美家,7,13654,大连广兴物业管理有限公司,0.8,辽宁,1,二手房,2010
大连市沙河口区五四路199-4号,大连,无开发商,沙河口,20181127,38.907987066040505,121.60249214877012,五四路,12,10846,无物业管理服务,-,辽宁,1,二手房,1992
无门店信息,大连,大连祥和房屋开发有限公司,甘井子,20181127,34.52713835999158,118.76812980670795,祥和花园,43,10747,大连市大北物业管理有限公司,0.4,辽宁,1,二手房,2007
中山区安居巷7号,大连,大连鸿霖房地产开发有限公司,中山,20181127,38.900436431991984,121.67796628922625,鸿霖大厦,14,9335,大连凯立宏物业管理有限公司,3.2,辽宁,1,二手房,2004
中山区金城街26号一楼,大连,暂无信息,中山,20181127,38.922282529515634,121.65214466263014,解放街,16,22815,无物业管理服务,-,辽宁,1,二手房,1982
中山区高尚路28-1号,大连,大连丰源房地产有限公司,中山,20181127,38.892673425111305,121.67148833870213,丰源海景,9,14010,大连丰源海景物业管理有限公司,0.5,辽宁,1,二手房,2000
无门店信息,大连,大连新兴海韵房地产开发有限公司,开发区,20181127,34.52713835999158,118.76812980670795,白石湾小区,9,7262,大连海韵物业管理有限公司,0.8,辽宁,1,二手房,2006
西岗区八一路102号,大连,大连润泰房地产开发有限公司,中山,20181127,38.891094924332045,121.65327483516513,明秀庄园二期,9,30899,大连澳邦致和物业服务有限公司,3.2,辽宁,1,二手房,2015
西岗区胜利路33号,大连,无开发商,西岗,20181127,38.91309771954841,121.62500886627636,34中林荫巷,19,25053,无物业管理服务,-,辽宁,1,二手房,1997
无门店信息,大连,大连运达房地产集团有限公司,甘井子,20181127,34.52713835999158,118.76812980670795,运达诺维溪谷三期,12,13759,大连运达物业有限公司,2,辽宁,1,二手房,2015
西岗区平等街21号1层2号,大连,无开发商,西岗,20181127,38.92251066253164,121.63236845125735,香榭里,28,8506,大连金地物业管理有限公司,3.6,辽宁,1,二手房,2010
开发区红星海-B区89-1号,大连,远洋地产有限公司,开发区,20181127,39.027851194371685,121.80327394132297,红星海五期鼎墅,19,21500,大连远洋基业物业管理有限公司,4.8,辽宁,1,二手房,2012
中山区鲁迅路184号1层B—A,大连,无开发商,中山,20181127,38.92590875965419,121.67594393403164,听海新居,0,17364,大连兆宇物业管理有限公司,0.6,辽宁,1,二手房,2003
中山区安居巷7号,大连,大连建通房地产开发有限公司,中山,20181127,38.900436431991984,121.67796628922625,民生松竹苑,2,12567,大连奎祥物业管理有限公司,1.1,辽宁,1,二手房,2003
无门店信息,大连,大连乾豪集团有限公司,开发区,20181127,34.52713835999158,118.76812980670795,乾豪海岸花园,7,13631,大连乾豪物业管理有限公司,2,辽宁,1,二手房,2003
开发区红星海-B区89-1号,大连,远洋地产有限公司,开发区,20181127,39.027851194371685,121.80327394132297,红星海三期视界,35,12745,大连远洋基业物业管理有限公司,2.2,辽宁,1,二手房,2012
无门店信息,大连,大连中政房地产开发有限公司,中山,20181127,34.52713835999158,118.76812980670795,龙溪村,10,15669,大连中政物业管理有限公司,0.8,辽宁,1,二手房,2002
甘井子区玉湖街25号2单元1层3号,大连,大连新型房地产开发有限公司,甘井子,20181127,38.97626265183615,121.54617349027997,书香府第一期,8,10963,大连新型物业管理有限公司,0.5,辽宁,1,二手房,2002
开发区红梅小区19栋-2-1-1号,大连,无开发商,开发区,20181127,29.906498897603264,121.5913630631805,金玛海景,4,10335,街道办事处（居委会）代管物业,1.1,辽宁,1,二手房,2007
无门店信息,大连,大连融昇房地产开发有限公司,甘井子,20181127,34.52713835999158,118.76812980670795,鹿港小镇,5,10213,大连三和住邦物业管理有限公司,1.3,辽宁,1,二手房,2015
甘井子区玉丽街35号4单元-1-2,大连,暂无信息,甘井子,20181127,38.98487421584909,121.55236707590676,泡崖康祥园,16,12458,大连新兴物业管理有限公司,0.5,辽宁,1,二手房,2005
沙河口区成仁街91号,大连,大连城市建设集团有限公司,沙河口,20181127,38.91539947107844,121.59585638842556,79中广荣大厦,8,17547,大连新型物业管理有限公司,1.5,辽宁,1,二手房,2002
高新园区海苑街30号1单元1号公建,大连,大连大有文园房屋开发有限公司,高新园区,20181127,20.06392317589085,110.32302599457326,大有文园公寓,12,10102,大连大有恬园物业管理有限公司,2,辽宁,1,二手房,2010
开发区松苑街23号,大连,大连众益神州地产开发有限公司,开发区,20181127,22.52087710763645,113.40156104777168,松海庄园一期,7,10986,大连万佳物业管理有限公司,0.5,辽宁,1,二手房,2000
甘井子区玉湖街18号1单元1-1,大连,大连新型房地产开发有限公司,甘井子,20181127,38.97554522550266,121.54552721066896,书香府第二期,9,10647,大连新型物业管理有限公司,0.5,辽宁,1,二手房,2002
中山区鲁迅路204号百盛新药特药商店一楼西侧部分,大连,大连港连房地产开发有限公司,中山,20181127,38.92576188797548,121.6771337100355,海港公寓（寺儿沟商圈）,10,11315,大连仁安物业管理有限公司,0.2,辽宁,1,二手房,1996
中山区北斗街53号1层1号,大连,大连大森房地产开发有限公司,中山,20181127,38.92727355733075,121.67002970974048,东港林苑,8,16067,大连美心物业管理有限公司,2.8,辽宁,1,二手房,2013
大连市开发区抚顺街30号,大连,无开发商,开发区,20181127,38.92272284555705,121.5977239817503,翠南管委会院,11,8357,街道办事处（居委会）代管物业,0.5,辽宁,1,二手房,1998
开发区兴城路29-81层,大连,大连瑞宇置业有限公司,开发区,20181127,39.05020829677517,121.7578103751747,心海阳光,11,12540,大连经济技术开发区盛辉物业服务有限公司,2,辽宁,1,二手房,2015
促进路30号2单元1楼1号,大连,大连天河房地产开发集团有限公司,甘井子,20181127,38.954133128707575,121.58355746311207,促进路,20,10768,无物业管理服务,0.5,辽宁,1,二手房,1982
甘井子区柳树南街45-11号,大连,大连顺达房屋开发有限公司,甘井子,20181127,38.93107538811559,121.48785133651938,顺达温泉花园一期,11,10056,大连顺达物业服务有限公司,0.6,辽宁,1,二手房,2003
开发区金源南里14栋-11号一层部分，14号-12号一层部分,大连,商金源地产,开发区,20181127,39.06148997014026,121.82510513314875,金苑新居,8,7156,嘉兴物业管理有限公司,0.3,辽宁,1,二手房,2004
中山区金城街26号一楼,大连,无开发商,中山,20181127,38.922282529515634,121.65214466263014,39中柳林街,3,25522,街道办事处（居委会）代管物业,-,辽宁,1,二手房,1992
沙河口区黄埔路427号,大连,暂无信息,高新园区,20181127,38.921778341674376,121.58261780680284,海洋环保所,11,15232,单位自管物业,0.2,辽宁,1,二手房,1981
开发区松苑街23号,大连,无开发商,开发区,20181127,22.52087710763645,113.40156104777168,松林里小区,6,13733,街道办事处（居委会）代管物业,0.5,辽宁,1,二手房,1996
中山区共建巷61号,大连,暂无信息,中山,20181127,38.91828093658718,121.66259221532148,39中南山福润人家,6,26979,暂无信息,-,辽宁,1,二手房,2000
开发区杏花里13#楼-7号,大连,暂无信息,金州,20181127,31.31075067906954,120.63127837058457,凤凰山花园,19,10291,大连双赢物业管理有限公司,1,辽宁,1,二手房,2009
沙河口区西南路40号楼,大连,大连城市建设集团有限公司,沙河口,20181127,38.94141605900714,121.58612100465703,星海大厦,11,10069,大连富民物业管理有限公司,0.9,辽宁,1,二手房,2002
无门店信息,大连,暂无信息,甘井子,20181127,34.52713835999158,118.76812980670795,盐岛湖,82,9629,暂无信息,0.2,辽宁,1,二手房,2000
大连市沙河口区五四路199-4号,大连,无开发商,沙河口,20181127,38.907987066040505,121.60249214877012,拥政街,7,10336,无物业管理服务,-,辽宁,1,二手房,1999
无门店信息,大连,大连西城置业有限公司（万科）,甘井子,20181127,34.52713835999158,118.76812980670795,万科西山天街,6,12805,大连万科物业服务有限公司,2,辽宁,1,二手房,2014
中山区中南路店212号门头房,大连,无开发商,中山,20181127,38.91149759691359,121.67700561077149,转山小区,11,11715,大连怡和物业服务有限公司,0.2,辽宁,1,二手房,1990
中山区中南路226号,大连,大连华谊地产房屋有限公司,中山,20181127,38.90029610333926,121.68178899957817,晨光山水,8,11864,大连格林物业管理有限公司,0.5,辽宁,1,二手房,2004
中山区安居巷7号,大连,大连普照房地产开发有限公司,中山,20181127,38.900436431991984,121.67796628922625,普照假日广场,16,13563,第一太平戴维斯物业顾问（北京）有限公司大连分公司,3.7,辽宁,1,二手房,2000
开发区金源南里14栋-11号一层部分，14号-12号一层部分,大连,大连开建房地产开发有限公司,开发区,20181127,39.06148997014026,121.82510513314875,金北花园小区,25,7211,嘉兴物业管理有限公司,-,辽宁,1,二手房,1999
金州区同济路44号,大连,大连峰景房地产开发有限公司,金州,20181127,39.10476859984152,121.71234684495865,峰景西海岸,25,8509,大连峰景物业有限公司,0.8,辽宁,1,二手房,2009
甘井子区甘井子街3号公建,大连,无开发商,甘井子,20181127,38.982086281836246,121.63426694995971,甘泉小区,12,8775,街道办事处（居委会）代管物业,0.5,辽宁,1,二手房,1990
南山路50号,大连,无开发商,中山,20181127,38.92027296196962,121.6483012768786,昆明街（独立街）,6,17622,无物业管理服务,-,辽宁,1,二手房,1988
甘井子区惠泽南园3-7号,大连,大连开成房地产开发有限公司,甘井子,20181127,38.939326611323615,121.52337842113351,开成领地,7,15348,大连旺宇物业有限公司,2,辽宁,1,二手房,2011
大连开发区金马路169-2-8号,大连,大连德泰控股有限公司,开发区,20181127,39.055616222703364,121.78435683280883,德泰时代广场,20,12009,大连德泰物业管理有限公司,0.5,辽宁,1,二手房,2014
经济技术开发区红星海-A区81-2号1层,大连,远洋地产有限公司,开发区,20181127,39.027851194371685,121.80327394132297,红星海三期领墅,14,33915,大连远洋基业物业管理有限公司,2.2,辽宁,1,二手房,2012
大连市开发区湾里东5-6号,大连,大连德玉隆房地产开发有限公司,开发区,20181127,39.07275772231556,121.85888789351343,康馨壹品,7,10100,大连亚航物业管理有限公司,1,辽宁,1,二手房,2014
无门店信息,大连,大连德银置业有限公司,中山,20181127,34.52713835999158,118.76812980670795,海韵华府,7,22478,大连金地物业管理有限公司,3.8,辽宁,1,二手房,2017
开发区大开高吉里33栋6号,大连,大连开建集团有限公司,开发区,20181127,39.07355836059941,121.8280439450145,高安里,35,6052,广宜物业有限公司,0.2,辽宁,1,二手房,1998
中山区同心街72号1楼公建,大连,大连万达房地产开发有限公司,西岗,20181127,38.91979245940674,121.64769198230202,雍景台,7,17089,大连万达物业管理有限公司,3.5,辽宁,1,二手房,2000
沙河口区黑石礁街5号1层1号,大连,无开发商,沙河口,20181127,38.879813345473714,121.56313742300513,黑石礁,15,10929,无物业管理服务,-,辽宁,1,二手房,1990
中山区秀月街37号1层2号,大连,无开发商,西岗,20181127,38.88757907576307,121.66311065527876,桃源小学,17,12661,无物业管理服务,-,辽宁,1,二手房,1990
无门店信息,大连,大连运达房地产集团有限公司,甘井子,20181127,34.52713835999158,118.76812980670795,运达诺维溪谷,0,11196,大连运达物业有限公司,2,辽宁,1,二手房,2015
西岗区东北路160号1层2号,大连,暂无信息,西岗,20181127,38.89762838073334,121.63125053999369,天源山庄缘中园,1,9855,大连弘益达物业管理有限公司,0.2,辽宁,1,二手房,2000
沙河口区黑石礁街3号1层1-1号,大连,暂无信息,沙河口,20181127,38.880058010307856,121.56313403908827,熙园,1,17566,达波尔酒店物业管理（大连）有限公司,2.2,辽宁,1,二手房,2009
沙河口区锦云北园9号2单元1层2号,大连,大连锦绣房地产开发有限公司,沙河口,20181127,38.94836395772248,121.55744845421044,锦云北园,17,8835,大连锦绣物业管理有限公司,0.3,辽宁,1,二手房,1996
甘井子区千山路66号楼2单元1楼2号,大连,大连祥盛房屋开发有限公司,甘井子,20181127,38.985716774397915,121.58287796391829,水彩巷,11,10796,大连新华物业管理有限公司,0.1,辽宁,1,二手房,1999
中山区安居巷7号,大连,大连正茂房地产开发有限公司,中山,20181127,38.900436431991984,121.67796628922625,国泰港汇中心,18,20854,大连津戎物业管理有限公司,4.5,辽宁,1,二手房,2014
开发区鹏程家园66#-6、66#-7公建,大连,大开富华房地产开发有限公司,开发区,20181127,38.90045524508753,121.63339362744885,海滨玉都,7,8596,大连志广物业管理有限责任公司,1.3,辽宁,1,二手房,2007
甘井子区华龙南园34-5号34-库4号34-5号,大连,大连台安房屋开发有限公司,甘井子,20181127,38.98270467597865,121.6117222765123,台安274,10,11842,街道办事处（居委会）代管物业,0.5,辽宁,1,二手房,2009
高新园区凌水路海苑街30号链家地产,大连,大连大有房屋开发有限公司,高新园区,20181127,38.883724627986716,121.51945812605742,大有恬园公寓,8,9336,大连大有恬园物业管理有限公司,1.2,辽宁,1,二手房,2010
