address,city,developer,district,index_date,lat,lng,name,osv,price,property,property_fee,province,tv,type,year
西岗区香炉礁24号1-1,大连,无开发商,西岗,20190106,38.91336952993919,121.6258229781024,香炉礁,138,9606,街道办事处（居委会）代管物业,0.1,辽宁,20,二手房,1979
大连经济技术开发区东城天下98-14,大连,大连乾豪集团有限公司,开发区,20190106,39.069195091289004,121.8502099927954,东城天下,312,7800,大连远洋基业物业管理有限公司,0.9,辽宁,26,二手房,2005
开发区湾里南12栋-16-17-18号,大连,大连金湾实业有限公司,开发区,20190106,39.070782084451,121.8506739675913,湾里南小区,273,7809,大连金湾物业管理有限公司,0.5,辽宁,40,二手房,2003
大连市金州区站前街道生辉第一城14-3号1-2层,大连,大连新希望家园房地产有限公司,金州,20190106,39.0569681786798,121.74773530665969,新希望家园,138,7775,大连新希望物业服务有限公司,1.2,辽宁,19,二手房,2009
沙河口区马栏北街186号,大连,大连渤海红旗集团有限公司,甘井子,20190106,38.921778341674376,121.58261780680284,马栏北街,24,10134,大连辽南物业管理有限公司,0.2,辽宁,16,二手房,1993
甘井子区宜居园10-1号房屋,大连,大连万科房地产开发有限公司,甘井子,20190106,39.000039431463165,121.52111738616489,万科魅力之城,182,13240,大连万科物业服务有限公司,1.5,辽宁,20,二手房,2012
甘井子区榆林街37号-12公建,大连,大连新型房地产开发有限公司,甘井子,20190106,38.980133141940186,121.52779506952932,泡崖美林园,207,10333,大连新型物业管理有限公司,0.3,辽宁,30,二手房,2003
沙河口区华新苑10号楼4号公建,大连,大连新型房地产开发有限公司,沙河口,20190106,38.921778341674376,121.58261780680284,侯一小区,117,9850,大连新兴物业管理有限公司,0.3,辽宁,35,二手房,1989
开发区湾里南12栋-16-17-18号,大连,大连金湾实业有限公司,开发区,20190106,39.070782084451,121.8506739675913,湾里东,176,7233,大连金湾物业管理有限公司,0.5,辽宁,16,二手房,2004
甘井子区玉湖街25号2单元1层3号,大连,大连新型房地产开发有限公司,甘井子,20190106,38.97626265183615,121.54617349027997,泡崖四区,105,9286,大连新型物业管理有限公司,0.5,辽宁,18,二手房,2002
沙河口区沙能街101号1单元1层1号,大连,大连新型房地产开发有限公司,沙河口,20190106,38.9366316275348,121.59031205759763,侯二小区,141,9790,街道办事处（居委会）代管物业,0.1,辽宁,19,二手房,1985
大连市甘井子区柳林园8-7号,大连,大连万科置业有限公司,甘井子,20190106,38.91290525308349,121.47673750074993,万科溪之谷,151,13062,大连万科物业服务有限公司,0.6,辽宁,16,二手房,2007
金州新区站前街道生辉第一城5号楼1-2层4号,大连,大连公路工程集团生辉房地产开发有限公司,金州,20190106,39.05839688242313,121.74629383174005,生辉第一城,104,9583,大连生辉物业管理有限公司,1.2,辽宁,14,二手房,2007
沙河口区新生路万科园7—1号,大连,大连绿波房屋开发集团有限公司,沙河口,20190106,38.94440370819716,121.57117928210005,绿波小区,112,9406,大连绿波建设发展有限公司,0.2,辽宁,14,二手房,1998
开发区正恒园1-16,大连,大连华宇房地产开发有限公司,开发区,20190106,39.04823944344617,121.76165468797754,左岸经典,185,8071,大连豪之英物业管理有限公司,1.8,辽宁,17,二手房,2009
甘井子区红旗花园23号楼19-24轴公建,大连,大连红旗兴达房地产开发有限公司,甘井子,20190106,38.93108029984587,121.54902145022133,兴达花园,65,11109,大连万泰物业管理有限公司,0.3,辽宁,14,二手房,2000
甘井子区锦城西园4#3-1-1,大连,大连锦绣房地产开发有限公司,沙河口,20190106,38.95286223185571,121.55129044777,锦霞北园,65,10237,大连锦绣物业管理有限公司,0.3,辽宁,11,二手房,1998
沙河口区昌黎街22号,大连,大连城市建设集团有限公司,沙河口,20190106,38.91975785098891,121.59109628369768,北昌平小区,91,11324,无物业管理服务,-,辽宁,11,二手房,1983
甘井子区玉丽街2号楼1单元4号公建,大连,大连新型房地产开发总公司,甘井子,20190106,38.98705071699301,121.55513043130172,泡崖康顺园,107,9600,大连新兴物业管理有限公司,0.5,辽宁,12,二手房,2007
无门店信息,大连,大连益宁房地产开发有限公司,开发区,20190106,34.52713835999158,118.76812980670795,岭湾峰尚一期,126,7471,大连鸿达物业管理有限公司,1.3,辽宁,12,二手房,2011
大连开发区金马路169-2-8号,大连,大连亿锋房地产实业有限公司,开发区,20190106,39.055616222703364,121.78435683280883,亿锋现代城,132,8981,亿锋豪景物业管理有限公司,1.1,辽宁,12,二手房,2006
沙河口区西南路40号楼,大连,无开发商,沙河口,20190106,38.94141605900714,121.58612100465703,星海公园,50,11289,无物业管理服务,0.5,辽宁,12,二手房,1990
沙河口区数码路北段18—20号,大连,大连软景房地产开发有限公司,高新园区,20190106,38.89150610253657,121.55065097641645,软景E居,54,24247,亿达物业管理有限公司,2.6,辽宁,12,二手房,2011
甘井子区红旗西路104-23,大连,大连万科房地产开发有限公司,甘井子,20190106,38.94011738361669,121.52831049836651,万科假日风景,57,15551,大连万科物业服务有限公司,1,辽宁,12,二手房,2007
金州新区先进街道渤海街7-4号1-2层、7-3号1-2层,大连,原金州纺织厂房地产公司,金州,20190106,39.09342713035472,121.74590886291374,金纺小区,109,6009,街道办事处（居委会）代管物业,0.5,辽宁,13,二手房,1985
沙河口区华北路448号楼1-4公建,大连,无开发商,沙河口,20190106,38.903224944733765,121.56809734950556,刘家桥,67,9502,街道办事处（居委会）代管物业,0.1,辽宁,15,二手房,1981
沙河口区富民路120号4-1-1,大连,大连渤海红旗集团有限公司,沙河口,20190106,38.930937859528605,121.5647274237578,马栏小学南,44,9573,大连辽南物业管理有限公司,0.5,辽宁,14,二手房,1995
大连经济技术开发区时代城4-3号1-2号,大连,远洋地产有限公司,开发区,20190106,39.0992481321252,121.83007860699459,远洋时代城一期,137,8037,大连远洋基业物业管理有限公司,1.5,辽宁,13,二手房,2012
沙河口区富民路120号4-1-1,大连,大连渤海红旗集团有限公司,沙河口,20190106,38.930937859528605,121.5647274237578,马栏小学北,66,9347,街道办事处（居委会）代管物业,0.2,辽宁,15,二手房,1995
甘井子区华北路花锦园28号23-3-1-2建筑物,大连,大连东特房地产开发有限公司,甘井子,20190106,38.951627958411166,121.5739439799003,东特新天地,24,14221,大连瑞祥物业管理有限公司,0.5,辽宁,11,二手房,2003
无门店信息,大连,大连金湾实业有限公司,开发区,20190106,34.52713835999158,118.76812980670795,金湾山城,104,8028,大连金湾物业管理有限公司,0.5,辽宁,11,二手房,2009
甘井子区汇仁街22号,大连,远洋地产有限公司,甘井子,20190106,38.99712640764999,121.58834420439493,远洋广场,146,15572,大连远洋基业物业管理有限公司,1.4,辽宁,15,二手房,2010
开发区金源南里14栋-11号一层部分，14号-12号一层部分,大连,无开发商,开发区,20190106,39.06148997014026,121.82510513314875,金源南里,51,7873,嘉兴物业管理有限公司,0.3,辽宁,11,二手房,2001
甘井子区新兴路36号3-1-3,大连,大连新型房地产开发有限公司,甘井子,20190106,38.95546176066109,121.5285003794903,泡崖一区,79,9133,大连新兴物业管理有限公司,0.5,辽宁,11,二手房,1992
甘井子区玉丽街2号楼1单元4号公建,大连,大连新型房地产开发有限公司,甘井子,20190106,38.98705071699301,121.55513043130172,泡崖七区,87,9490,大连新兴物业管理有限公司,0.3,辽宁,11,二手房,1999
金州区金润小区B区861单元102,大连,大连辽大房地产开发有限公司,金州,20190106,39.10615165380565,121.74639264534615,金润小区A区,123,7735,大连新兴物业管理有限公司,0.4,辽宁,11,二手房,2005
中山区中南路店212号门头房,大连,无开发商,中山,20190106,38.91149759691359,121.67700561077149,中南路,53,11965,街道办事处（居委会）代管物业,-,辽宁,11,二手房,1990
无门店信息,大连,大连金广地产集团有限公司,甘井子,20190106,34.52713835999158,118.76812980670795,泉水N3区,60,9717,无物业管理服务,0.7,辽宁,10,二手房,2000
开发区景和园1-7,大连,大连市政府工程建设指挥部,开发区,20190106,30.41892168817929,120.30896459202738,小孤山中里,106,6772,大连广谊物业管理有限公司,0.4,辽宁,9,二手房,1999
金州区南棉路310号,大连,无开发商,金州,20190106,39.09939229372624,121.72414976100345,南棉小区,135,6235,街道办事处（居委会）代管物业,0.5,辽宁,9,二手房,1990
西岗区香炉礁24号1-1,大连,无开发商,西岗,20190106,38.91336952993919,121.6258229781024,工人村,48,9497,街道办事处（居委会）代管物业,0.5,辽宁,9,二手房,1980
甘井子区绿洲园60号,大连,大连新华房屋开发有限公司,甘井子,20190106,38.95390300214936,121.59409785747448,新华绿洲,65,16201,大连新华物业管理有限公司,0.6,辽宁,8,二手房,2003
开发区黄海西路54号,大连,大连凯伦房地产开发股份有限公司,开发区,20190106,39.047714586087785,121.76688238228269,凯伦凯悦,72,7725,大连凯悦物业管理有限公司,3.1,辽宁,9,二手房,2008
无门店信息,大连,大连乐启房地产开发有限公司,甘井子,20190106,34.52713835999158,118.76812980670795,三寰融创城,73,11459,融创物业,2.2,辽宁,9,二手房,2015
沙河口区西南路643号,大连,无开发商,沙河口,20190106,38.943483429804665,121.5833555851182,交通大学,55,11222,无物业管理服务,-,辽宁,9,二手房,1955
大连市开发区左岸经典正恒园1-17,大连,大连神洲众益集团有限公司,开发区,20190106,39.049057070649155,121.76187404250511,万国宫馆二期,80,12315,加拿大高力国际物业服务有限公司,2.4,辽宁,9,二手房,2009
开发区鹏程家园66#-6、66#-7公建,大连,大连海富花园开发有限公司,开发区,20190106,38.90045524508753,121.63339362744885,海富经典,111,9067,大连银帆物业管理有限公司,1.2,辽宁,9,二手房,2009
沙河口区锦江园30号1层公建,大连,大连锦绣房地产开发有限公司,沙河口,20190106,38.921778341674376,121.58261780680284,锦江园,66,9111,大连锦绣物业管理有限公司,0.3,辽宁,9,二手房,1983
无门店信息,大连,大连乾豪集团有限公司,开发区,20190106,34.52713835999158,118.76812980670795,格林小镇,143,7037,沈阳瑞码阁物业管理有限公司大连分公司,0.6,辽宁,9,二手房,2002
沙河口区锦霞南园13号4单元1层3号,大连,大连锦绣房地产开发有限公司,沙河口,20190106,38.921778341674376,121.58261780680284,锦华中园,39,10723,大连锦绣物业管理有限公司,0.5,辽宁,9,二手房,2001
沙河口区富民路249号,大连,大连文路建设集团有限公司,沙河口,20190106,38.93341510428133,121.5770130002514,阳光月秀,41,14041,大连丰泽物业管理有限公司,0.6,辽宁,9,二手房,2006
金州区金湾路132-2号,大连,大连金新房地产开发有限公司,金州,20190106,39.10269111644727,121.72221060686516,金州福佳新天地广场,43,7528,大连福佳物业管理有限公司,1.8,辽宁,10,二手房,2011
无门店信息,大连,大连世茂嘉年华置业有限公司,金州,20190106,34.52713835999158,118.76812980670795,世茂御龙海湾,111,9634,经纬物业(中国)有限公司,2,辽宁,10,二手房,2014
沙河口区五一路219-1,大连,大连亿达房地产股份有限公司,沙河口,20190106,38.9026964858514,121.56644125985508,桃山小区,54,8839,街道办事处（居委会）代管物业,0.5,辽宁,10,二手房,1998
金州区金润花园B区47号1单元1层1号2号,大连,大连辽大房地产开发有限公司,金州,20190106,39.104347761505736,121.7451779647203,金润小区B区,136,7485,大连新兴物业管理有限公司,0.5,辽宁,10,二手房,2005
沙河口区西南路161号,大连,无开发商,沙河口,20190106,38.89269676588945,121.56639953951542,孙家沟,56,11044,无物业管理服务,-,辽宁,10,二手房,1990
金州区鹏程家园53#-8,大连,大连光伸房地产开发有限公司,开发区,20190106,39.0348243693741,121.81226722991913,绿洲半岛北岸,109,8257,大连经济技术开发区光伸物业服务有限公司,1.2,辽宁,10,二手房,2007
开发区安盛里5栋-4,大连,大连开建集团有限公司,开发区,20190106,23.112106678834838,113.27801046214822,开建阳光馨苑,69,8462,大连开利物业管理有限公司,1.2,辽宁,10,二手房,2009
经济技术开发区城润万家62-8公建,大连,大连海汇房地产开发有限公司,开发区,20190106,39.06883436780937,117.72669530355309,城润万家,96,8222,大连正源物业服务有限公司,0.5,辽宁,10,二手房,2007
沙河口区富国街14号1-1-2,大连,大连浩江房地产开发有限公司,沙河口,20190106,38.901027106600836,121.59047734850638,和平现代城,77,14818,大连万科物业服务有限公司,1,辽宁,10,二手房,2005
沙河口区黑石礁街3号1层1-1号,大连,无开发商,沙河口,20190106,38.880058010307856,121.56313403908827,浪花街,29,9921,无物业管理服务,-,辽宁,7,二手房,1991
沙河口区兰田街33号,大连,无开发商,沙河口,20190106,38.926138912221084,121.56486022834609,辽师,37,10853,无物业管理服务,-,辽宁,7,二手房,1970
开发区安盛里5栋-4,大连,大连盛铭资产管理有限公司,开发区,20190106,23.112106678834838,113.27801046214822,安盛花园,64,8057,大连经济技术开发区海青物业有限公司,1.1,辽宁,7,二手房,2003
沙河口区黄埔路427号,大连,无开发商,高新园区,20190106,38.921778341674376,121.58261780680284,凌源街,21,12147,大连凌电物业管理有限公司,0.1,辽宁,7,二手房,1981
经济技术开发区城润万家4-5号公建,大连,大连山河永好置业有限公司,开发区,20190106,39.05716325096989,121.75946281983826,山河秀景,36,8838,大连山河物业管理有限公司,1.5,辽宁,7,二手房,2010
高新园区火炬路18号,大连,大连联合柏立置业有限公司,高新园区,20190106,38.937738080520404,117.39340752036043,柏悦国际公寓,28,16177,大连柏悦国际公寓管理有限公司,3.5,辽宁,7,二手房,2012
沙河口区前程街46号4—1—2号,大连,大连渤海红旗集团有限公司,甘井子,20190106,38.921778341674376,121.58261780680284,前程街,26,10160,渤海吉祥物业管理有限公司,0.4,辽宁,7,二手房,2000
开发区安盛里5栋-4,大连,大连汽贸房屋开发有限公司,开发区,20190106,23.112106678834838,113.27801046214822,东北明珠,48,11081,大连汽贸物业管理有限公司,1.5,辽宁,7,二手房,2007
开发区红梅小区19栋-2-1-1号,大连,香港北海集团,开发区,20190106,29.906498897603264,121.5913630631805,君悦豪庭,43,10601,街道办事处（居委会）代管物业,1.2,辽宁,7,二手房,2004
西岗区八一路102号,大连,暂无信息,中山,20190106,38.891094924332045,121.65327483516513,胜鼎桃源,25,18657,暂无信息,1.8,辽宁,7,二手房,2015
甘井子区宜居园10-1号房屋,大连,大连万科房地产开发有限公司,甘井子,20190106,39.000039431463165,121.52111738616489,万科朗润园,83,13110,大连万科物业服务有限公司,1.5,辽宁,7,二手房,2010
开发区润海园中区62-9,大连,华润（大连）房地产有限公司,开发区,20190106,39.04047273176333,121.76392358042445,华润海中国四期,105,12754,华润物业（大连）有限公司,3.1,辽宁,7,二手房,2014
甘井子区知音园20号3单元1层1号,大连,亿达房地产开发有限公司,高新园区,20190106,38.95546176066109,121.5285003794903,软件园小区,39,13242,业主自筹物业,0.2,辽宁,7,二手房,1995
甘井子区红旗西路104-7,大连,大连盛华房地产开发有限公司,甘井子,20190106,38.940012695252975,121.52780738260293,水映西山,28,13447,大连长青物业管理中心,0.9,辽宁,7,二手房,2007
大连市金州新区中长街道碧海尚城5-4号1-2层,大连,无开发商,金州,20190106,39.1001690968934,121.73061017121415,碧海尚城,97,7380,街道办事处（居委会）代管物业,0.8,辽宁,8,二手房,2007
大连市开发区湾里东5-6号,大连,大连宏港房地产开发有限公司,开发区,20190106,39.07275772231556,121.85888789351343,都悦里,152,5941,大连宏港物业管理有限公司,0.3,辽宁,8,二手房,1998
西岗区香炉礁24号1-1,大连,大连新型房地产开发有限公司,西岗,20190106,38.91336952993919,121.6258229781024,金海花园西园,36,10159,无物业管理服务,0.5,辽宁,6,二手房,2001
甘井子区千山路26号,大连,大连市大钢集团,甘井子,20190106,38.985697948031984,121.58768860037272,山东路,68,11188,街道办事处（居委会）代管物业,0.2,辽宁,8,二手房,1986
开发区湾里南12栋-16-17-18号,大连,无开发商,开发区,20190106,39.070782084451,121.8506739675913,东城国际,35,8282,大连乾豪物业管理有限公司,1,辽宁,8,二手房,2006
沙河口区恒利园42号-8,大连,大连新华房屋开发有限公司,沙河口,20190106,38.93357562498634,121.57914091532649,新华同仁轩,37,16233,大连新华物业管理有限公司,0.6,辽宁,6,二手房,2000
沙河口区五一路177-1-1-1,大连,无开发商,沙河口,20190106,38.90485271510574,121.57313607267041,台山,63,10449,街道办事处（居委会）代管物业,0.5,辽宁,6,二手房,1987
经济技术开发区红星海-A区81-2号1层,大连,远洋地产有限公司,开发区,20190106,39.027851194371685,121.80327394132297,红星海一期城市别馆,90,11888,大连远洋基业物业管理有限公司,0.5,辽宁,6,二手房,2010
无门店信息,大连,大连万科房地产开发有限公司,旅顺口,20190106,34.52713835999158,118.76812980670795,万科樱花园,31,11769,大连万科物业服务有限公司,2.4,辽宁,6,二手房,2014
沙河口区红凌路137号,大连,大连大实企业集团房屋开发有限公司,甘井子,20190106,38.922699288974506,121.54713601744747,泊林阳光A区,11,12216,大连弘实物业管理有限公司,0.6,辽宁,6,二手房,2007
沙河口区五一路270-274号,大连,无开发商,高新园区,20190106,38.89104111985908,121.55325426578435,由家村,20,11459,无物业管理服务,-,辽宁,6,二手房,1990
甘井子区华龙南园34-5号34-库4号34-5号,大连,大连钧卫达房地产开发有限公司,甘井子,20190106,38.98270467597865,121.6117222765123,亲亲美境,19,11176,大连三和住邦物业管理有限公司,0.9,辽宁,6,二手房,2008
西岗区平等街21号1层2号,大连,暂无信息,西岗,20190106,38.92251066253164,121.63236845125735,实验小学英华街,62,18761,无物业管理服务,-,辽宁,6,二手房,1989
天河路173-2号 华润考拉22号公建,大连,华润置地（大连）开发有限公司,甘井子,20190106,23.147151253133927,113.3277313198351,华润考拉住区,76,13721,华润物业（大连）有限公司,2.5,辽宁,6,二手房,2015
开发区鹏程家园66#-6、66#-7公建,大连,大连神洲众益集团有限公司,开发区,20190106,38.90045524508753,121.63339362744885,众益阳光海岸,67,9260,大连万佳物业管理有限公司,1.2,辽宁,6,二手房,2005
中山区益民街16号1层1号,大连,大连恒力德实业开发有限公司,中山,20190106,38.93092761298906,121.66470740073377,港湾壹号,79,12796,大连日航酒店物业管理有限公司,3.8,辽宁,6,二手房,2009
甘井子区虹韵路114号,大连,大连亿达美加房地产开发有限公司,甘井子,20190106,38.95653310483457,121.5329869995972,第五郡五号地,67,24740,亿达物业管理有限公司,2,辽宁,6,二手房,2009
开发区松苑街23号,大连,大连盛和房地产开发有限公司,开发区,20190106,22.52087710763645,113.40156104777168,北欧假日,80,10326,大连鸿达物业管理有限公司,1.1,辽宁,6,二手房,2005
大连市甘井子区辛如街35号1单元1层1号,大连,大连新星房地产开发有限公司,甘井子,20190106,38.96862607066881,121.52294869064194,新星绿城五期,56,13122,大连生生物业有限公司,0.8,辽宁,6,二手房,2009
西岗区平等街21号1层2号,大连,无开发商,西岗,20190106,38.92251066253164,121.63236845125735,实验小学同庆街,57,19071,无物业管理服务,-,辽宁,6,二手房,1990
高新园区火炬路18号,大连,大连海脉房地产开发有限公司,高新园区,20190106,38.937738080520404,117.39340752036043,MINI印象,110,14106,大连豪斯威物业管理有限公司,2.2,辽宁,6,二手房,2012
甘井子区圣林南园3-3号,大连,大连广泰房屋开发有限公司,甘井子,20190106,38.95187275584195,121.54422808213874,美树日记,48,19789,大连华安物业管理有限公司,1.6,辽宁,6,二手房,2009
高新园区聚贤路36号5幢1单元1层1号,大连,大连金真源集团房地产开发有限公司,高新园区,20190106,32.31472011562832,119.46141263909165,山海一家一期,40,12738,大连龙海物业管理有限公司,0.6,辽宁,6,二手房,2005
甘井子区静林街34号4单元1层2,大连,大连祥盛房屋开发有限公司,甘井子,20190106,38.98321485010885,121.58185179833856,千山心城,88,12605,大连百特物业管理有限公司,0.5,辽宁,6,二手房,2003
沙河口区华新苑10号楼4号公建,大连,大连祥盛房屋开发有限公司,沙河口,20190106,38.921778341674376,121.58261780680284,香洲心城,18,16880,大连百特物业管理有限公司,1,辽宁,6,二手房,2011
沙河口区西南路643号,大连,无开发商,沙河口,20190106,38.943483429804665,121.5833555851182,北甸街,34,10365,无物业管理服务,-,辽宁,6,二手房,1985
甘井子区芳林街17号1单元1层1号,大连,大连亿达房地产股份有限公司,甘井子,20190106,38.96091976856697,121.58863625429588,唯美品格,61,26947,亿达物业管理有限公司,1.5,辽宁,6,二手房,2009
金州区同济路44号,大连,大连金开信都房地产开发有限公司,金州,20190106,39.10476859984152,121.71234684495865,海天新界,25,7571,大连西海岸物业管理有限公司,1,辽宁,6,二手房,2011
甘井子区红旗中路143号1层4号,大连,大连红旗兴达房地产开发有限公司,甘井子,20190106,38.93169566676921,121.5426632438217,兴达依山居,28,12104,大连金诚物业管理有限公司,0.3,辽宁,5,二手房,2004
甘井子区亿家缘虹韵路205,大连,大连亿达美加房地产开发有限公司,甘井子,20190106,38.95759554613104,121.5279376157567,第五郡四号地,36,25660,亿达物业管理有限公司,2,辽宁,5,二手房,2010
大连市沙河口区文萃街1号1-2-2；大连市沙河口区由家五小区五号楼1单元2层1,大连,大连理工科技城建设开发有限公司,高新园区,20190106,38.88596852074166,121.54389553303217,文萃轩小区,26,15359,大连理工物业管理中心,0.2,辽宁,5,二手房,1990
甘井子区锦城东园1号3单元1层2号,大连,大连锦绣房地产开发有限公司,沙河口,20190106,38.952805477462775,121.55656194973994,锦城园C区,24,13787,大连锦绣物业管理有限公司,0.6,辽宁,5,二手房,2006
甘井子区泉水D6区51号,大连,大连锦丰和源祥房地产开发有限公司,甘井子,20190106,39.00897610161069,121.61789300655198,泉水家年华,72,12081,街道办事处（居委会）代管物业,0.9,辽宁,5,二手房,2009
西岗区鞍山路65-5号,大连,大连万达房地产开发有限公司,沙河口,20190106,38.92701992456326,121.60258216167713,79中广电中心,63,25866,无物业管理服务,-,辽宁,5,二手房,1988
甘井子区红旗花园23号楼19-24轴公建,大连,大连银泰房地产有限公司,甘井子,20190106,38.93108029984587,121.54902145022133,祥和园,18,12797,无物业管理服务,0.5,辽宁,5,二手房,2002
甘井子区泉水D6区51号,大连,大连锦丰和源祥房地产开发有限公司,甘井子,20190106,39.00897610161069,121.61789300655198,泉水人家幸福里,81,12344,大连泽霖物业管理有限公司,0.9,辽宁,5,二手房,2009
甘井子区惠泽南园3-4号,大连,大连鹏德房屋开发有限公司,甘井子,20190106,38.939326611323615,121.52337842113351,西山阳光水岸,36,14497,大连三和住邦物业管理有限公司,1,辽宁,5,二手房,2007
沙河口区恒利园42号-8,大连,无开发商,沙河口,20190106,38.93357562498634,121.57914091532649,新建小区,5,10570,无物业管理服务,-,辽宁,6,二手房,1980
沙河口区前程街46号4—1—2号,大连,大连银地置业发展有限公司,沙河口,20190106,38.921778341674376,121.58261780680284,观山满庭芳,58,16548,大连新展物业管理有限公司,1,辽宁,5,二手房,2008
甘井子区山东路315号14栋1单元1跃2层13号,大连,华润置地（大连）开发有限公司,甘井子,20190106,39.00206212579579,121.59357231641214,华润置地广场一期,49,17968,华润物业（大连）有限公司,2.8,辽宁,5,二手房,2013
大连市甘井子中华路街道汇畅街48号,大连,远洋地产有限公司,甘井子,20190106,39.00552323996268,121.59684207363269,远洋荣域,97,17028,远洋亿家物业服务股份有限公司大连分公司,2.8,辽宁,5,二手房,2016
沙河口区富国街34-3,大连,大连万达房地产开发有限公司,沙河口,20190106,38.90160386349964,121.58915317342193,星海人家,44,23930,大连万景物业管理有限公司,1.2,辽宁,5,二手房,2001
无门店信息,大连,大连金宸集团,金州,20190106,34.52713835999158,118.76812980670795,金宸联郡,11,7940,大连四通物业管理有限公司,1.4,辽宁,6,二手房,2015
甘井子区玉丽街2号楼1单元4号公建,大连,暂无信息,甘井子,20190106,38.98705071699301,121.55513043130172,玉意街,35,8817,大连新兴物业管理有限公司,0.3,辽宁,6,二手房,2002
中山区山屏街116号1-1,大连,大连中信海港投资有限公司,中山,20190106,38.90729438486833,121.68598159980013,山屏街,28,10478,大连大众物业管理有限公司,-,辽宁,6,二手房,1988
沙河口区兰田街33号,大连,无开发商,沙河口,20190106,38.926138912221084,121.56486022834609,兰田街,9,11110,街道办事处（居委会）代管物业,0.4,辽宁,6,二手房,1990
沙河口区西南路851号3单元1层3号,大连,无开发商,沙河口,20190106,38.94344210837944,121.58246796944378,李家街,21,10416,无物业管理服务,0.1,辽宁,6,二手房,1985
沙河口区绿清街12号,大连,无开发商,沙河口,20190106,38.93851335419565,121.57334844377094,绿波B区,15,8318,街道办事处（居委会）代管物业,0.1,辽宁,5,二手房,1992
金州新区先进街道渤海街7-4号1-2层、7-3号1-2层,大连,大连海洋房地产开发有限公司,金州,20190106,39.09342713035472,121.74590886291374,金海嘉园,20,7607,大连辽渔物业管理有限公司,0.8,辽宁,6,二手房,2007
开发区景和园1-7,大连,无开发商,开发区,20190106,30.41892168817929,120.30896459202738,古耕景和园,25,8479,街道办事处（居委会）代管物业,0.5,辽宁,5,二手房,2008
无门店信息,大连,大连环宇置业有限公司,开发区,20190106,34.52713835999158,118.76812980670795,环宇品阁,53,5479,大连环宇物业管理有限公司,1.5,辽宁,5,二手房,2010
开发区安盛里5栋-4,大连,大连华宇房地产开发有限公司,开发区,20190106,23.112106678834838,113.27801046214822,叠翠花香,27,8136,大连经济技术开发区永嘉物业管理有限公司,0.5,辽宁,5,二手房,2000
开发区黄海西路54号,大连,开发区城建局,开发区,20190106,39.047714586087785,121.76688238228269,青松北里,50,7520,大连经济技术开发区中强物业管理有限公司,0.2,辽宁,5,二手房,1996
甘井子区玉丽街2号楼1单元4号公建,大连,大连新型房地产开发有限公司,甘井子,20190106,38.98705071699301,121.55513043130172,泡崖康居园,45,9179,大连新兴物业管理有限公司,0.5,辽宁,5,二手房,2000
经济技术开发区红星海-A区81-2号1层,大连,大连光伸房地产开发有限公司,开发区,20190106,39.027851194371685,121.80327394132297,绿洲半岛三期,32,8825,大连经济技术开发区光伸物业服务有限公司,0.6,辽宁,5,二手房,2005
甘井子区山东路170—7号,大连,大连市大钢集团,甘井子,20190106,38.98379863132532,121.58715890734231,华中街,21,10885,街道办事处（居委会）代管物业,0.5,辽宁,5,二手房,1986
开发区松苑街23号,大连,大连泰乐房地产开发有限公司,开发区,20190106,22.52087710763645,113.40156104777168,碧海华庭,28,5874,大连海滨物业管理有限公司,0.5,辽宁,5,二手房,2005
甘井子区甘井子路32号楼1单元1楼9号,大连,无开发商,甘井子,20190106,38.982488275116516,121.63345389253514,文体街,113,8995,街道办事处（居委会）代管物业,0.1,辽宁,5,二手房,1985
甘井子区千山路26号,大连,大连嘉兴房地产开发有限公司,甘井子,20190106,38.985697948031984,121.58768860037272,千山路,50,10461,无物业管理服务,0.5,辽宁,5,二手房,1989
大连市甘井子区丰收路3-5号,大连,无开发商,甘井子,20190106,38.965377255081755,121.58288415324094,王家桥,44,13294,大连铁路物业管理有限公司,0.1,辽宁,5,二手房,1989
甘井子区柳树南街45-10号,大连,大连顺达房屋开发有限公司,甘井子,20190106,38.92567666296449,121.4841330254372,顺达温泉花园三期,30,10371,大连顺达物业服务有限公司,0.6,辽宁,5,二手房,2007
金州区胜利西小区44号楼,大连,大连金宸集团,金州,20190106,39.10507689383061,121.71536524220103,连大文润金宸一二期,39,8937,大连四通物业管理有限公司,0.9,辽宁,5,二手房,2010
金州新区站前街道生辉第一城5号楼1-2层4号,大连,大连新希望家园房地产有限公司,金州,20190106,39.05839688242313,121.74629383174005,新希望乐城,49,9062,大连新希望物业服务有限公司,1.6,辽宁,5,二手房,2013
甘井子区柳树南街45-10号,大连,大连都源置业有限公司,甘井子,20190106,38.92567666296449,121.4841330254372,依云溪谷,45,12841,大连远洋物业管理有限公司,1.2,辽宁,5,二手房,2008
金州新区先进街道渤海街7-4号1-2层、7-3号1-2层,大连,大连九鼎置地有限公司,金州,20190106,39.09342713035472,121.74590886291374,万科城,65,10119,大连万科物业服务有限公司,2.2,辽宁,5,二手房,2015
甘井子辛吉街150号-7号,大连,大连金马房屋开发有限公司,甘井子,20190106,38.96309956105142,121.52341678860995,金马圣隆,25,11982,大连金马圣隆物业管理有限公司,0.5,辽宁,5,二手房,2006
高新园区火炬路18号,大连,大连嘉创房地产开发有限公司,高新园区,20190106,38.937738080520404,117.39340752036043,嘉创E人国际,46,13692,大连紫金物业管理有限公司,2,辽宁,4,二手房,2011
大连市沙河口区黄河路729号,大连,无开发商,沙河口,20190106,38.91710565765228,121.58954758972729,南昌平小区,22,10607,街道办事处（居委会）代管物业,0.8,辽宁,5,二手房,1986
高新园区海苑街36号1单元2号公建,大连,大连鸿越房地产开发有限公司,高新园区,20190106,20.06392317589085,110.32302599457326,康桥小镇,19,16764,大连长青物业管理中心,1.3,辽宁,4,二手房,2010
甘井子区红旗西路104-7,大连,大连安邦房地产开发有限公司,甘井子,20190106,38.940012695252975,121.52780738260293,水畔香谷,17,13189,大连万科绿色家园物业有限公司,1,辽宁,4,二手房,2007
高新园区火炬路18号,大连,大连奥泰房地产开发有限公司,高新园区,20190106,38.937738080520404,117.39340752036043,因特摩尔,50,15892,大连奥泰物业服务有限公司,2.6,辽宁,4,二手房,2011
沙河口区红旗东路18-22号2单元1楼3号,大连,无开发商,甘井子,20190106,38.921778341674376,121.58261780680284,天泉山庄,14,10800,大连铁龙安居物业管理有限公司,0.5,辽宁,4,二手房,2000
开发区润海园中区30-1,大连,华润置地（大连）开发有限公司,开发区,20190106,39.04047273176333,121.76392358042445,华润海中国一期,91,14240,华润物业（大连）有限公司,1.8,辽宁,4,二手房,2009
高新园区聚贤路36号5幢1单元1层1号,大连,大连法马克房地产开发有限公司,高新园区,20190106,32.31472011562832,119.46141263909165,中铁诺德滨海花园,61,17930,大连中铁诺德物业服务有限公司,2.3,辽宁,4,二手房,2015
甘井子区中华路泉水A1区86号4单元1层1号,大连,大连运泽房地产开发有限公司,甘井子,20190106,39.0040066317761,121.60658685435251,润泽园,77,14375,大连城建开发集团物业管理有限公司,1.4,辽宁,4,二手房,2012
沙河口区黄浦路18号—5号公建,大连,大连良运房地产开发有限公司,高新园区,20190106,38.8771225143479,121.54427480390662,翰林观海,24,20295,大连良运物业管理有限公司,0.8,辽宁,4,二手房,2003
高新园区海苑街30号1单元1号公建,大连,大连大有文园房屋开发有限公司,高新园区,20190106,20.06392317589085,110.32302599457326,大有文园,56,16256,大连大有恬园物业管理有限公司,2,辽宁,4,二手房,2012
甘井子区汇仁街22号,大连,大连永高房屋开发有限公司,甘井子,20190106,38.99712640764999,121.58834420439493,加州洋房,52,13707,大连怡和物业服务有限公司,0.9,辽宁,4,二手房,2008
甘井子区祥溢园4号1单元1层9号公建,大连,大连长鹭房屋开发有限公司,甘井子,20190106,38.92981664067587,121.54940314023253,亲亲家园,61,13164,渤海吉祥物业管理有限公司,0.5,辽宁,4,二手房,2004
金州区先进街道渤海街1-4号1-2层,大连,无开发商,金州,20190106,39.09512910553563,121.74578812616167,金元小区,49,6112,街道办事处（居委会）代管物业,0.1,辽宁,5,二手房,1993
甘井子区促进路30号2-1-1,大连,福佳集团有限公司,甘井子,20190106,38.954133128707575,121.58355746311207,府佳名都,20,15230,大连富佳物业管理有限公司,0.5,辽宁,4,二手房,2002
金州新区先进街道五一路350-1号1-2层,大连,无开发商,金州,20190106,39.095023587156554,121.74333264248519,康居小区,36,6520,街道办事处（居委会）代管物业,-,辽宁,5,二手房,1998
无门店信息,大连,暂无信息,甘井子,20190106,34.52713835999158,118.76812980670795,鹏辉新世纪三期北园,21,15183,大连鹏辉物业管理有限公司,0.6,辽宁,5,二手房,2003
无门店信息,大连,无开发商,甘井子,20190106,34.52713835999158,118.76812980670795,五二三厂,39,7475,无物业管理服务,0.5,辽宁,5,二手房,1987
开发区杏树里10栋-14,大连,大连名城房地产开发有限公司,开发区,20190106,39.08113818354046,121.78505742127606,名城和顺人家,69,8148,大连君悦天下物业管理中心,0.5,辽宁,4,二手房,2010
沙河口区兰田街33号,大连,无开发商,沙河口,20190106,38.926138912221084,121.56486022834609,兰玉街,12,10731,街道办事处（居委会）代管物业,0.4,辽宁,4,二手房,1990
开发区黄海西路54号,大连,开发区城建局,开发区,20190106,39.047714586087785,121.76688238228269,青松南里,64,7100,大连经济技术开发区中强物业管理有限公司,0.5,辽宁,4,二手房,2003
沙河口区前程街46号4—1—2号,大连,大连渤海红旗集团有限公司,甘井子,20190106,38.921778341674376,121.58261780680284,兰丰巷,17,9457,大连辽南物业管理有限公司,0.2,辽宁,4,二手房,1992
甘井子区华北路花锦园28号23-3-1-2建筑物,大连,大连东特房地产开发有限公司,甘井子,20190106,38.951627958411166,121.5739439799003,东特爱俪舍,27,13961,大连东特祥禾物业管理有限公司,0.6,辽宁,4,二手房,2004
大连市经济技术开发区东城园98-14,大连,大连聚美房地产开发有限公司,开发区,20190106,39.0695450284039,121.85051433870218,聚美东湾,36,10801,大连聚美房地产开发有限公司,1.6,辽宁,4,二手房,2016
沙河口区锦石路8号,大连,大连锦绣房地产开发有限公司,沙河口,20190106,38.94771288948481,121.56110903658733,锦泉南园,41,9912,大连锦绣物业管理有限公司,0.3,辽宁,4,二手房,1996
大连经济技术开发区时代城4-3号1-2号,大连,远洋地产有限公司,开发区,20190106,39.0992481321252,121.83007860699459,远洋时代城四期,35,7970,大连远洋基业物业管理有限公司,1.5,辽宁,4,二手房,2012
开发区杏树里10栋-14,大连,大连华宇房地产开发有限公司,开发区,20190106,39.08113818354046,121.78505742127606,华宇凤凰城,64,7313,大连华宇物业管理有限公司,1,辽宁,4,二手房,2009
中山区虎滩路176号4-1-2,大连,大连三寰房地产开发有限公司,中山,20190106,38.890884710033156,121.69257379232747,碧涛北园,28,10541,大连虎滩置业物业管理有限公司,0.2,辽宁,4,二手房,1997
经济技术开发区红星海-A区81-2号1层,大连,远洋地产有限公司,开发区,20190106,39.027851194371685,121.80327394132297,红星海三期境界,74,12059,大连远洋基业物业管理有限公司,2.2,辽宁,4,二手房,2012
沙河口区南沙街36号台二2号1-1-37,大连,无开发商,沙河口,20190106,38.90741410359388,121.57685699961822,南沙,61,10065,无物业管理服务,1,辽宁,4,二手房,1995
经济技术开发区红星海-A区81-2号1层,大连,远洋地产有限公司,开发区,20190106,39.027851194371685,121.80327394132297,红星海二期视界,46,13046,大连远洋基业物业管理有限公司,0.5,辽宁,4,二手房,2012
甘井子区凌秀路37号-1链家地产,大连,千汇德（大连）置业有限公司,高新园区,20190106,38.883794285403965,121.52361997548515,哈佛世纪,20,17284,大连千汇德物业管理有限公司,2.4,辽宁,4,二手房,2014
沙河口区五一路110-4号,大连,大连大重房屋开发有限公司,沙河口,20190106,38.90710946686282,121.58172564480427,星台花园一期,22,13975,大连大重房屋开发公司物业管理中心,-,辽宁,4,二手房,1998
沙河口区昌黎街77号楼第1层公建,大连,大连金新房地产开发有限公司,沙河口,20190106,38.91974518366595,121.5902918379551,福佳新天地,53,12992,大连福佳物业管理有限公司,1.8,辽宁,4,二手房,2003
无门店信息,大连,大连中海新城置业有限公司,甘井子,20190106,34.52713835999158,118.76812980670795,中海凤凰熙岸,28,11934,大连中海物业管理有限公司,2.3,辽宁,4,二手房,2016
甘井子区泉水B5区27-9,大连,大连运达房地产集团有限公司,甘井子,20190106,39.014833760509994,121.60955220395961,锦泉源B5区,46,11457,政治物业管理有限公司,0.1,辽宁,4,二手房,1999
沙河口区黑石礁街5号1层1号,大连,无开发商,沙河口,20190106,38.879813345473714,121.56313742300513,黑石礁广场,19,12366,无物业管理服务,-,辽宁,4,二手房,1992
金州区先进街道陶然居公建2-2号1层,大连,大连金信集团房地产有限公司,金州,20190106,39.08283372756215,121.76170982507143,金信陶然居,39,8852,北京瑞思特物业管理有限公司,0.5,辽宁,4,二手房,2007
金州新区先进街道五一路350-1号1-2层,大连,暂无信息,金州,20190106,39.095023587156554,121.74333264248519,聚鑫小区三期,46,6294,大连新生活物业管理有限公司,0.5,辽宁,4,二手房,2008
甘井子区祥龙街2号楼1单元1楼1号,大连,大连恒新房地产开发有限公司,甘井子,20190106,38.988045874482445,121.60439401971377,华东人家,39,12982,大连福佳物业管理有限公司,1,辽宁,3,二手房,2007
"西岗区泰公街20号2层7号 西岗区久寿街22号1层14号""",大连,大连润德君城房地产开发有限公司,西岗,20190106,38.92600196862723,121.62141976476381,北京公园,25,22722,大连润德物业管理有限公司,2.2,辽宁,3,二手房,2010
沙河口区绿波路34号楼5单元1楼3号,大连,大连东北房屋开发有限公司,沙河口,20190106,38.940473883711306,121.57312402324945,帝欧花园,35,15270,大连绿波建设发展有限公司,0.6,辽宁,3,二手房,2005
西岗区黄河路362号公建,大连,大连万峰房地产开发有限公司,西岗,20190106,38.91819905243802,121.61365779430986,万达华府一期,52,25514,大连万景物业管理有限公司,1.3,辽宁,3,二手房,2005
甘井子区绿洲园60号,大连,大连友谊合升房地产开发有限公司,甘井子,20190106,38.95390300214936,121.59409785747448,壹品天城,59,25601,大连富丽华物业管理有限公司,0.5,辽宁,3,二手房,2011
甘井子区芳韵街31号,大连,亿达集团大连房地产开发有限公司,甘井子,20190106,38.95628814568166,121.59125586946814,亿达世纪城,34,21223,亿达物业管理有限公司,0.9,辽宁,3,二手房,2002
沙河口区长江路738号,大连,勋业（大连）置业有限公司,西岗,20190106,38.92379936592553,121.61207696256155,远洋风景,50,22150,大连远洋风景物业服务中心,1.9,辽宁,3,二手房,2007
金州区拥政街道733号-8号1-2层,大连,大连市金州区房屋开发公司,金州,20190106,39.11690610445662,121.73030803603723,桂林小区,57,6203,街道办事处（居委会）代管物业,0.5,辽宁,4,二手房,1993
大连经济技术开发区时代城4-3号1-2号,大连,暂无信息,开发区,20190106,39.0992481321252,121.83007860699459,摩宿公寓,33,6835,大连远洋基业物业管理有限公司,1.5,辽宁,4,二手房,2012
金州区拥政街道733号-8号1-2层,大连,无开发商,金州,20190106,39.11690610445662,121.73030803603723,花园小区,13,7123,大连四通物业管理有限公司,0.1,辽宁,4,二手房,1993
中山区高尚路28-1号,大连,无开发商,中山,20190106,38.892673425111305,121.67148833870213,宪卫里,19,9063,无物业管理服务,0.5,辽宁,4,二手房,1994
金州区站前街道盛滨花园B区13号楼2号公建,大连,大连阿尔滨集团房地产开发有限公司,金州,20190106,39.09609011892329,121.7335816409767,盛滨花园B区,29,6688,大连阿尔滨集团物业管理有限公司,0.4,辽宁,4,二手房,2000
金州区鹏程家园53#-8,大连,大连海富花园开发有限公司,开发区,20190106,39.0348243693741,121.81226722991913,鹏程家园（开发区）,12,6887,广宜物业有限公司,1.2,辽宁,4,二手房,2006
开发区红梅小区19栋-2-1-1号,大连,大开中和祥房地产开发有限公司,开发区,20190106,29.906498897603264,121.5913630631805,金丰大厦,26,8785,新加坡物业管理有限公司,1.9,辽宁,4,二手房,2012
大连市沙河口区西南路875号1层21号,大连,无开发商,沙河口,20190106,38.94485969061231,121.58418648447764,西南路（春柳商圈）,5,10280,大连三宝物业有限公司,0.5,辽宁,4,二手房,1990
无门店信息,大连,暂无信息,西岗,20190106,34.52713835999158,118.76812980670795,34中纪念街,47,23482,无物业管理服务,-,辽宁,4,二手房,1990
甘井子区华北路花锦园28号23-3-1-2建筑物,大连,无开发商,甘井子,20190106,38.951627958411166,121.5739439799003,久胜街,14,14601,街道办事处（居委会）代管物业,0.1,辽宁,4,二手房,1989
开发区黄海西路201号107公建,大连,开发区城建局,开发区,20190106,39.04942604506828,121.80126318235419,金湖里,39,5997,大连中信物业管理有限公司,0.1,辽宁,4,二手房,1998
开发区红梅小区19栋-2-1-1号,大连,无开发商,开发区,20190106,29.906498897603264,121.5913630631805,古耕国际酒店公寓,49,9399,街道办事处（居委会）代管物业,3,辽宁,4,二手房,2010
沙河口区西南路96号1层2号,大连,无开发商,沙河口,20190106,38.890863095482466,121.56788114713203,西沟小区,20,10772,无物业管理服务,-,辽宁,4,二手房,1990
甘井子区金北路17号,大连,无开发商,甘井子,20190106,38.97553393692831,121.59969720502335,76中学桥北,50,15555,无物业管理服务,-,辽宁,3,二手房,1970
无门店信息,大连,大连龙湖西城置业有限公司,甘井子,20190106,34.52713835999158,118.76812980670795,龙湖滟澜山,29,17320,大连龙湖物业服务有限公司,6.6,辽宁,4,二手房,2015
甘井子区千山路66号楼2单元1楼2号,大连,大连宜和房地产开发有限公司,甘井子,20190106,38.985716774397915,121.58287796391829,盛世闲庭,41,13339,大连衡德物业管理有限公司,0.5,辽宁,3,二手房,2003
甘井子区华龙南园34-5号34-库4号34-5号,大连,大连运达房地产集团有限公司,甘井子,20190106,38.98270467597865,121.6117222765123,泊岭紫郡,21,11507,大连怡和物业服务有限公司,0.9,辽宁,3,二手房,2009
沙河口区星海广场B3区14-2号1层,大连,大连友谊合升房地产开发有限公司,沙河口,20190106,38.88693148294673,121.58735631267305,壹品星海公寓,30,15692,大连富丽华物业管理有限公司,1.5,辽宁,3,二手房,2003
沙河口区前程街46号4—1—2号,大连,大连欧兰房地产开发有限公司,甘井子,20190106,38.921778341674376,121.58261780680284,耕海山尚,9,15552,大连耕海物业管理有限公司,1.5,辽宁,3,二手房,2010
沙河口区知心园10号公建,大连,亿达房地产开发有限公司,高新园区,20190106,38.893977135945136,121.55667141994431,亿达康派,6,17446,亿达物业管理有限公司,1.5,辽宁,3,二手房,2006
沙河口区星海广场B3区14-9,大连,大连友谊合升房地产开发有限公司,沙河口,20190106,38.887408126588866,121.58732762887982,壹品星海三期,39,21805,大连友谊物业服务有限公司,1.9,辽宁,3,二手房,2007
无门店信息,大连,大连软件园瑞安发展有限公司,高新园区,20190106,34.52713835999158,118.76812980670795,大连天地悦翠台,52,13301,暂无信息,1,辽宁,3,二手房,2013
西岗区黄河路90号公建部分,大连,大连鼎森房地产开发有限公司,西岗,20190106,38.92234529815978,121.62829331825485,金宸国际,21,15217,英联华（香港）物业管理顾问有限公司,2.2,辽宁,3,二手房,2004
大连市甘井子区软件园路122号,大连,大连鑫园房屋开发有限公司,高新园区,20190106,38.89286578891647,121.53266600180116,新新园二期,12,13911,大连理工物业管理中心,0.5,辽宁,3,二手房,2005
甘井子区华龙南园12-4-3-1-3,大连,大连长鹭房屋开发有限公司,甘井子,20190106,38.98528794231248,121.61028969481718,晶品枫林,41,12212,北京房修一物业管理有限公司,0.5,辽宁,3,二手房,2008
无门店信息,大连,大连亚联房地产开发有限公司,甘井子,20190106,34.52713835999158,118.76812980670795,翡翠春城,49,12788,大连亚联物业管理有限公司,1.6,辽宁,3,二手房,2012
甘井子区哲林北园17-6号,大连,大连亿达美加房地产开发有限公司,甘井子,20190106,38.9600267109581,121.53876726228256,第五郡三号地,56,25262,亿达物业管理有限公司,2.2,辽宁,3,二手房,2012
甘井子区泉水K2区1号-7,大连,大连新型房地产开发有限公司,甘井子,20190106,39.01148211821007,121.63131997900962,龙畔金泉五期K4区,86,10965,大连新兴物业管理有限公司,0.5,辽宁,3,二手房,2008
开发区兴城路29-81层,大连,大连亿锋房地产实业有限公司,开发区,20190106,39.05020829677517,121.7578103751747,亿锋广场一期,71,13250,大连广恒物业管理有限公司,2.5,辽宁,3,二手房,2013
甘井子区中华路泉水A1区86号4单元1层1号,大连,大连科技园房地产开发有限公司,甘井子,20190106,39.0040066317761,121.60658685435251,奥林园,48,12057,大连衡德物业管理有限公司,0.5,辽宁,3,二手房,2004
中山区武昌街武昌公寓6号公建,大连,大连武昌房地产开发有限公司,中山,20190106,38.912280913445784,121.64921130527547,部居逸阁,22,11943,大连宜佳物业管理有限公司,1,辽宁,3,二手房,2005
甘井子区美域盛景A2区10-6,大连,大连泉水园房屋开发有限公司,甘井子,20190106,39.00656691782301,121.6101668021319,骏腾名苑,71,12278,大连衡德物业管理有限公司,0.5,辽宁,3,二手房,2006
西岗区八一路102号,大连,大连澳南房屋开发有限公司,中山,20190106,38.891094924332045,121.65327483516513,明秀山庄A区,56,31072,大连澳邦致和物业服务有限公司,1.9,辽宁,3,二手房,2008
甘井子区红旗中路143号1层4号,大连,大连长鹭房屋开发有限公司,甘井子,20190106,38.93169566676921,121.5426632438217,西街晶品,19,16899,大连万泰物业管理有限公司,0.8,辽宁,3,二手房,2006
西岗区黄河路82号,大连,大连民兴房地产开发有限公司,西岗,20190106,38.92243503020161,121.6287927913896,前城国际二期,22,20855,大连前城花园物业管理有限公司,1.5,辽宁,3,二手房,2000
西岗区平等街21号1层2号,大连,辽宁宁安房地产开发有限公司,西岗,20190106,38.92251066253164,121.63236845125735,赛维利大厦,16,17592,大连良玖物业管理有限责任公司,1.5,辽宁,3,二手房,2004
金州区小平岛B组团4号楼3号商铺,大连,大连圣岛房地产开发有限公司,高新园区,20190106,39.2986190718601,121.95658248043723,小平岛海悦山,55,18035,大连凯尔富物业管理有限公司,1.3,辽宁,3,二手房,2011
沙河口区锦霞南园13号3-1-1,大连,大连锦绣房地产开发有限公司,沙河口,20190106,38.921778341674376,121.58261780680284,锦霞南园,45,10238,大连锦绣物业管理有限公司,0.3,辽宁,3,二手房,1998
沙河口区兰田街33号,大连,大连万合房地产开发有限公司,沙河口,20190106,38.926138912221084,121.56486022834609,万合新家园,8,15212,大连佳宜物业管理有限公司,0.6,辽宁,3,二手房,2004
中山区同心街72号1楼公建,大连,无开发商,中山,20190106,38.91979245940674,121.64769198230202,南山里,15,15074,无物业管理服务,-,辽宁,3,二手房,1990
天河路173-2号 华润考拉22号公建,大连,大连世隆房地产开发有限公司,甘井子,20190106,23.147151253133927,113.3277313198351,桑尼小镇,13,14300,大连大家物业管理有限公司,1.9,辽宁,3,二手房,2014
甘井子区泉水E1区27号-3公建,大连,大连时代房地产开发有限公司,甘井子,20190106,39.002846129004375,121.61312453141336,泉水友好园,18,11821,大连爱静物业服务有限公司,0.5,辽宁,3,二手房,1998
甘井子区红旗西路104-7,大连,大连盛达实业总公司,甘井子,20190106,38.940012695252975,121.52780738260293,盛新园,25,10777,大连盛新物业管理有限公司,0.3,辽宁,3,二手房,2000
中山区爱华街13号,大连,无开发商,中山,20190106,38.92541607518685,121.6535728031028,39中安阳街,29,23076,无物业管理服务,-,辽宁,3,二手房,1993
甘井子区虹城路503号1-1号,大连,大连易和房地产集团有限公司,甘井子,20190106,38.981193588625004,121.49964051837122,岭秀滨城悦和西园,20,12591,大连易兴物业服务有限公司,1.3,辽宁,3,二手房,2009
沙河口区兰田街33号,大连,渤海恒达房屋开发有限公司,沙河口,20190106,38.926138912221084,121.56486022834609,西苑小区,21,10932,大连西苑物业管理有限公司,0.3,辽宁,3,二手房,1997
沙河口区富国街14号1-1-2,大连,大连永辉房地产开发有限公司,沙河口,20190106,38.901027106600836,121.59047734850638,百年汇,75,15681,大连百年城物业管理有限公司,2.8,辽宁,3,二手房,2007
高新园区硅谷假日小区25号楼地下室,大连,暂无信息,高新园区,20190106,38.865995717263544,121.53771220335938,硅谷假日公寓,15,13352,大连斌弘物业管理有限公司,1.5,辽宁,3,二手房,2005
金州区小平岛B组团4号楼3号商铺,大连,大连安达房地产开发有限公司,高新园区,20190106,39.2986190718601,121.95658248043723,小平岛亲海园A2组团,38,17910,大连凯尔富物业管理有限公司,1.7,辽宁,3,二手房,2007
大连市甘井子区辛如街35号1单元1层1号,大连,大连新星房地产开发有限公司,甘井子,20190106,38.96862607066881,121.52294869064194,新星绿城六期,29,13210,大连生生物业管理有限公司,1,辽宁,3,二手房,2008
中山区中南路226号,大连,大连亿泰房屋开发有限公司,中山,20190106,38.90029610333926,121.68178899957817,亿泰庄园,11,13398,大连远洋基业物业管理有限公司,0.7,辽宁,3,二手房,1999
中山区华乐街107-115号1单元1层2号,大连,大连华旭置业有限公司,中山,20190106,38.92093821499401,121.68879267531725,东港第,16,29721,大连华锐世纪物业管理有限公司,3,辽宁,3,二手房,2015
甘井子区祥龙街2号楼1单元1楼1号,大连,大连美辰房地产开发有限公司,甘井子,20190106,38.988045874482445,121.60439401971377,美辰香醒,45,13873,大连众和物业管理有限公司,1.4,辽宁,3,二手房,2012
开发区兴城路29-81层,大连,大连亿锋集团有限公司,开发区,20190106,39.05020829677517,121.7578103751747,亿锋广场三期,38,13712,大连广恒物业管理有限公司,2.8,辽宁,3,二手房,2015
甘井子区柳树南街45-11号,大连,中海新海汇（大连）置业有限公司,甘井子,20190106,38.93107538811559,121.48785133651938,中海御湖熙谷,44,13795,大连中海物业管理有限公司,2.2,辽宁,3,二手房,2014
中山区碧浪园4号-3号,大连,无开发商,中山,20190106,38.89147289460474,121.69329560326236,碧海园,21,15823,大连远洋基业物业管理有限公司,0.5,辽宁,3,二手房,2000
西岗区香炉礁24号1-1,大连,大连新型房地产开发有限公司,西岗,20190106,38.91336952993919,121.6258229781024,金海花园东园,25,11543,大连新兴物业管理有限公司,0.5,辽宁,3,二手房,2001
大连市甘井子区七贤路8-3号,大连,大连万达商业地产有限公司,高新园区,20190106,38.86659077085588,121.5392980566355,万达海景公寓,80,12628,大连万达物业管理有限公司,2.9,辽宁,3,二手房,2013
甘井子区汇达园26号,大连,大连红星美凯龙投资发展有限公司,甘井子,20190106,38.99704654604941,121.59758808878767,红星国际广场,79,13441,红星物业管理有限公司,1.5,辽宁,3,二手房,2014
开发区高新里6栋-8,大连,大连富远房地产开发有限公司,开发区,20190106,39.0710895068195,121.82860134358343,一河两公园,42,9036,大连锦明物业服务有限公司,1.7,辽宁,3,二手房,2016
无门店信息,大连,大连运达房地产集团有限公司,甘井子,20190106,34.52713835999158,118.76812980670795,运达诺维溪谷一期,26,14184,大连运达物业有限公司,1.8,辽宁,3,二手房,2010
中山区职工街96号1-3层公建,大连,无开发商,中山,20190106,38.92565613737007,121.66193575790903,39中开源巷,7,25597,街道办事处（居委会）代管物业,0.5,辽宁,3,二手房,1990
开发区金源南里14栋-11号一层部分，14号-12号一层部分,大连,大连开建房地产开发有限公司,开发区,20190106,39.06148997014026,121.82510513314875,金源北里安居小区,49,6941,嘉兴物业管理有限公司,0.3,辽宁,3,二手房,1999
无门店信息,大连,无开发商,金州,20190106,34.52713835999158,118.76812980670795,滨海丰园,85,7209,街道办事处（居委会）代管物业,0.5,辽宁,3,二手房,2011
沙河口区锦石路8号,大连,大连锦绣房地产开发有限公司,沙河口,20190106,38.94771288948481,121.56110903658733,锦泉中园,29,10116,大连锦绣物业管理有限公司,0.3,辽宁,3,二手房,1996
沙河口区西南路40号楼,大连,无开发商,沙河口,20190106,38.94141605900714,121.58612100465703,尖山街,6,11467,无物业管理服务,-,辽宁,3,二手房,1990
无门店信息,大连,大连安邦房地产开发有限公司,甘井子,20190106,34.52713835999158,118.76812980670795,安邦阳光润城,19,12189,无物业管理服务,-,辽宁,3,二手房,2011
沙河口区黄河路883号,大连,无开发商,沙河口,20190106,38.919826721475204,121.57749657966676,沙区医院,25,10808,无物业管理服务,-,辽宁,3,二手房,1990
西岗区绕山路31号公建一层东侧,大连,远洋地产有限公司,沙河口,20190106,38.90257514466717,121.61412736644739,莲花小区,12,10082,无物业管理服务,-,辽宁,3,二手房,1996
甘井子区虹港路16号楼1层公建,大连,无开发商,甘井子,20190106,38.96457808198196,121.55421052098279,迎客路（机场商圈）,35,10727,街道办事处（居委会）代管物业,0.2,辽宁,3,二手房,1990
开发区大开高吉里33栋6号,大连,大连金港集团有限公司,开发区,20190106,39.07355836059941,121.8280439450145,高祥里,46,7118,街道办事处（居委会）代管物业,0.3,辽宁,3,二手房,1992
无门店信息,大连,大连乾豪集团有限公司,开发区,20190106,34.52713835999158,118.76812980670795,乾豪新界,49,9833,大连乾豪物业管理有限公司,1.7,辽宁,3,二手房,2015
开发区兴城路29-81层,大连,大连华宇房地产开发有限公司,开发区,20190106,39.05020829677517,121.7578103751747,华宇梧桐苑,13,11655,大连永嘉物业管理公司,1.9,辽宁,3,二手房,2013
开发区大开高吉里33栋6号,大连,大连开建集团有限公司,开发区,20190106,39.07355836059941,121.8280439450145,高城花园,30,7053,嘉兴物业管理有限公司,0.2,辽宁,3,二手房,2002
沙河口区红凌路137号,大连,大连大实企业集团房屋开发有限公司,甘井子,20190106,38.922699288974506,121.54713601744747,泊林阳光B区,6,13315,大连弘实物业管理有限公司,0.6,辽宁,3,二手房,2007
西岗区东北路160号1层2号,大连,大连天源房屋开发有限公司,西岗,20190106,38.89762838073334,121.63125053999369,天源山庄,24,8594,大连弘益达物业管理有限公司,0.2,辽宁,3,二手房,1997
大连市甘井子区丰收路3-5号,大连,大连铁路房地产开发有限责任公司,甘井子,20190106,38.965377255081755,121.58288415324094,王家桥小区,24,11056,大连铁路物业管理有限公司,0.1,辽宁,3,二手房,1989
沙河口区民权街324号,大连,无开发商,沙河口,20190106,38.92064616208148,121.59777611850379,富鸿国际大厦,8,12373,北京凯莱物业管理有限公司大连分公司,1.5,辽宁,3,二手房,2000
开发区兴城路29-81层,大连,中合北大荒（大连）置业有限公司,开发区,20190106,39.05020829677517,121.7578103751747,银帆国际,26,10271,大连中合物业管理有限公司,2,辽宁,3,二手房,2015
无门店信息,大连,暂无信息,甘井子,20190106,34.52713835999158,118.76812980670795,鹏辉新世纪四期,41,15011,大连鹏辉物业管理有限公司,0.6,辽宁,3,二手房,2003
开发区东北三街94号1层,大连,大连同济房地产开发有限公司,开发区,20190106,39.05723508011585,121.80570768630555,新东方公寓二期,38,4997,大连同济物业管理有限公司,1.5,辽宁,3,二手房,2007
无门店信息,大连,大连馨悦房地产开发有限公司,金州,20190106,34.52713835999158,118.76812980670795,悦泰山里,80,8488,大连百安物业管理有限公司,0.5,辽宁,3,二手房,2009
甘井子区祥龙街2号楼1单元1楼1号,大连,暂无信息,甘井子,20190106,38.988045874482445,121.60439401971377,华南商业大厦,10,8485,暂无信息,1.4,辽宁,3,二手房,2007
中山区高尚路28-1号,大连,无开发商,中山,20190106,38.892673425111305,121.67148833870213,高洁巷,21,9397,街道办事处（居委会）代管物业,0.5,辽宁,3,二手房,1993
开发区东北三街94号1层,大连,大连同济房地产开发有限公司,开发区,20190106,39.05723508011585,121.80570768630555,新东方公寓三期,67,5837,大连同济物业管理有限公司,1.5,辽宁,3,二手房,2009
大连市金州新区友谊街道和平路59-10号1-2层公建,大连,大连金连房地产开发有限公司,金州,20190106,39.112168401852266,121.72006917947859,金连佳地,14,9868,街道办事处（居委会）代管物业,1.5,辽宁,3,二手房,2010
中山区山屏街116号1-1,大连,暂无信息,中山,20190106,38.90729438486833,121.68598159980013,山屏美境,2,16259,无物业管理服务,3.5,辽宁,3,二手房,2009
金州区站前街道盛滨花园B区13号楼2号公建,大连,大连和嘉房地产开发有限公司,金州,20190106,39.09609011892329,121.7335816409767,和嘉佳园,66,6139,街道办事处（居委会）代管物业,0.5,辽宁,3,二手房,2009
金州区站前街道盛滨花园B区13号楼2号公建,大连,大连阿尔滨集团房地产开发有限公司,金州,20190106,39.09609011892329,121.7335816409767,盛滨花园C区,12,6932,大连阿尔滨集团物业管理有限公司,0.4,辽宁,3,二手房,1999
无门店信息,大连,大连圣北开发有限公司,中山,20190106,34.52713835999158,118.76812980670795,亿达云集,84,17983,亿达物业管理有限公司,1.9,辽宁,3,二手房,2015
开发区金马路169-2-6号房屋,大连,大连亿锋房地产实业有限公司,开发区,20190106,39.055616222703364,121.78435683280883,佳地花园,10,9303,街道办事处（居委会）代管物业,1.1,辽宁,3,二手房,2002
甘井子区玉云路27-3-1-3,大连,暂无信息,甘井子,20190106,38.97896234099927,121.55865563488358,泡崖新六区,20,9387,大连新型物业管理有限公司,0.3,辽宁,3,二手房,2003
中山区山屏街116号1-1,大连,大连中信海港投资有限公司,中山,20190106,38.90729438486833,121.68598159980013,山峦街,8,10770,无物业管理服务,-,辽宁,3,二手房,1990
金州新区先进街道五一路350-1号1-2层,大连,大连中连房地产开发有限公司,金州,20190106,39.095023587156554,121.74333264248519,聚鑫小区二期,29,6921,大连新生活物业管理有限公司,0.5,辽宁,3,二手房,2008
金州区金润小区B区861单元102,大连,大连中连房地产开发有限公司,金州,20190106,39.10615165380565,121.74639264534615,自然天城B区,51,6270,大连新生活物业管理有限公司,0.4,辽宁,3,二手房,2010
无门店信息,大连,大连中政房地产开发有限公司,中山,20190106,34.52713835999158,118.76812980670795,中政小区,16,10892,大连中政物业管理有限公司,0.3,辽宁,3,二手房,1999
大连市沙河口区知邻街50号,大连,无开发商,沙河口,20190106,38.921778341674376,121.58261780680284,玉门街,19,10251,无物业管理服务,-,辽宁,3,二手房,1993
沙河口区连山街10号2-1-2,大连,无开发商,沙河口,20190106,38.89637522563413,121.57143690983219,连山街,6,11147,街道办事处（居委会）代管物业,0.5,辽宁,3,二手房,1993
无门店信息,大连,暂无信息,甘井子,20190106,34.52713835999158,118.76812980670795,76中学桥南,55,13996,大连新华物业管理有限公司,0.2,辽宁,3,二手房,1970
沙河口区中山路417A-4号,大连,大连海孚房地产开发有限公司,沙河口,20190106,38.90734671814175,121.59482182703752,华业玫瑰东方,74,22956,深圳华业物业管理有限公司大连分公司,3.5,辽宁,2,二手房,2011
沙河口区富静街26号1单元1层5号,大连,大连正源房地产开发有限公司,沙河口,20190106,38.908727606250466,121.58667844684369,幸福e家五期,149,32796,大连正源物业服务有限公司,1.8,辽宁,2,二手房,2008
沙河口区杨树街4-4号公建,大连,大连金弘基房地产开发有限公司,高新园区,20190106,38.88444587249751,121.55130620045541,弘基二期,30,20342,大连金弘基物业管理有限公司,0.6,辽宁,2,二手房,2003
金州区站前街道盛滨花园B区13号楼2号公建,大连,无开发商,金州,20190106,39.09609011892329,121.7335816409767,金源花园小区,16,5887,街道办事处（居委会）代管物业,0.5,辽宁,3,二手房,1998
金州区先进街道渤海街1-4号1-2层,大连,无开发商,金州,20190106,39.09512910553563,121.74578812616167,百畅园,19,5831,街道办事处（居委会）代管物业,0.5,辽宁,3,二手房,2000
西岗区三元街73号3单元1层2,大连,暂无信息,西岗,20190106,38.91459734722941,121.63112153703432,34中胜利路,21,25246,无物业管理服务,0.5,辽宁,2,二手房,1985
金州新区先进街道五一路350-1号1-2层,大连,无开发商,金州,20190106,39.095023587156554,121.74333264248519,八里河小区,20,6264,街道办事处（居委会）代管物业,0.5,辽宁,3,二手房,2009
金州区拥政街道733号-8号1-2层,大连,无开发商,金州,20190106,39.11690610445662,121.73030803603723,古城甲区,80,6800,街道办事处（居委会）代管物业,0.5,辽宁,3,二手房,1990
沙河口区华北路404号,大连,暂无信息,沙河口,20190106,38.8862815932937,121.59082948696123,柳华街,20,9600,无物业管理服务,0.1,辽宁,3,二手房,1985
金州区南棉路310号,大连,无开发商,金州,20190106,39.09939229372624,121.72414976100345,金色华庭,21,6417,大连阿尔滨集团物业管理有限公司,-,辽宁,3,二手房,2008
金州新区八一路金都嘉园1号楼1号公建,大连,无开发商,金州,20190106,39.05525210261778,121.74865634199398,古城丙区,40,6550,街道办事处（居委会）代管物业,0.5,辽宁,3,二手房,1997
无门店信息,大连,暂无信息,甘井子,20190106,34.52713835999158,118.76812980670795,巾帼小区,24,9798,大连新华物业管理有限公司,-,辽宁,3,二手房,1993
无门店信息,大连,无开发商,金州,20190106,34.52713835999158,118.76812980670795,香山翌景,12,6335,街道办事处（居委会）代管物业,0.5,辽宁,3,二手房,2010
金州区站前街道盛滨花园B区13号楼2号公建,大连,大连阿尔滨集团房地产开发有限公司,金州,20190106,39.09609011892329,121.7335816409767,盛滨花园A区,42,5338,大连阿尔滨集团物业管理有限公司,0.4,辽宁,3,二手房,2001
大连市金州新区友谊街道和平路59-10号1-2层公建,大连,无开发商,金州,20190106,39.112168401852266,121.72006917947859,古城乙区,122,6259,无物业管理服务,-,辽宁,3,二手房,1992
金州区同济路44号,大连,大连金州金山房地产开发有限公司,金州,20190106,39.10476859984152,121.71234684495865,金山小区,56,6034,大连金山物业管理有限公司,-,辽宁,3,二手房,1999
金州区金湾路132-2号,大连,无开发商,金州,20190106,39.10269111644727,121.72221060686516,胜利西小区,70,6613,街道办事处（居委会）代管物业,0.5,辽宁,3,二手房,1992
金州区金润花园B区47号1单元1层1号2号,大连,暂无信息,金州,20190106,39.104347761505736,121.7451779647203,民馨小区,67,5988,无物业管理服务,0.5,辽宁,3,二手房,-
沙河口区绿清街12号,大连,大连绿波房屋开发集团有限公司,沙河口,20190106,38.93851335419565,121.57334844377094,绿香花园,11,11698,大连大伟物业管理有限公司,0.4,辽宁,2,二手房,2001
西岗区鞍山路65-5号,大连,大连华阳房地产开发有限公司,沙河口,20190106,38.92701992456326,121.60258216167713,华阳风尚,8,14626,北京凯莱物业管理有限公司大连分公司,1.3,辽宁,2,二手房,2009
大连市甘井子中华路街道汇畅街48号,大连,远洋地产有限公司,甘井子,20190106,39.00552323996268,121.59684207363269,远洋自然,50,16532,大连远洋基业物业管理有限公司,1.3,辽宁,2,二手房,2010
大连市甘井子区燕南园50号,大连,大连软件园发展有限公司,高新园区,20190106,38.90172480153224,121.5363466289672,东方圣克拉二期,40,24607,亿达物业管理有限公司,2.6,辽宁,2,二手房,2011
甘井子区虹港路16号楼1层公建,大连,大连建园房地产开发有限公司,甘井子,20190106,38.96457808198196,121.55421052098279,城市印象,47,13520,大连天兴物业管理有限公司,1.6,辽宁,2,二手房,2010
大连市甘井子区七贤路8-3号,大连,大连瑞恒置业有限公司,高新园区,20190106,38.86659077085588,121.5392980566355,未名山,45,22028,大连龙湖物业服务有限公司,3,辽宁,2,二手房,2015
中山区爱华街13号,大连,大连汇邦置业有限公司,中山,20190106,38.92541607518685,121.6535728031028,汇邦中心,28,41226,大连新昌物业管理有限公司,4.2,辽宁,2,二手房,2012
西岗区黄河路362号公建,大连,大连万佳房地产开发有限公司,西岗,20190106,38.91819905243802,121.61365779430986,优豪斯,10,24018,大连万佳物业管理有限公司,1.6,辽宁,2,二手房,2003
甘井子区金北街17号,大连,大连悦泰集团有限公司,甘井子,20190106,38.95546176066109,121.5285003794903,悦泰馨家,22,22364,大连优豪斯物业管理有限公司,0.5,辽宁,2,二手房,2003
沙河口区星海广场B3区20—3号,大连,大连飞通房地产开发有限公司,沙河口,20190106,38.888054001818844,121.58662952422732,东方星海,81,15060,大连兆恒物业管理有限公司,2.9,辽宁,2,二手房,2009
甘井子区西南路979-7号公建,大连,大连祥盛房屋开发有限公司,甘井子,20190106,38.96275592929325,121.5958698791777,金盛家园,31,15788,大连宏华物业管理有限公司,0.5,辽宁,2,二手房,2001
开发区润海园中区30-1,大连,华润（大连）房地产有限公司,开发区,20190106,39.04047273176333,121.76392358042445,华润海中国三期,138,12736,华润物业（大连）有限公司,3.1,辽宁,2,二手房,-
中山区华乐街93—1号,大连,大连环海房地产开发有限公司,中山,20190106,38.921950924512124,121.68673151242629,华乐环海花园,18,19924,大连景和物业管理有限公司,1.1,辽宁,2,二手房,2004
甘井子区金家街17-7号,大连,无开发商,甘井子,20190106,38.97493697764367,121.60110987128529,金二小学北,7,18012,无物业管理服务,-,辽宁,2,二手房,1970
中山区中南路226号,大连,大连国合嘉汇房地产开发有限公司,中山,20190106,38.90029610333926,121.68178899957817,枫合万嘉,24,19551,大连国合物业管理有限公司,1,辽宁,2,二手房,2005
西岗区长红街4号1号公建,大连,大连丰源房地产开发有限公司,西岗,20190106,38.91377414665191,121.6302525225721,丰源山庄,12,21861,大连广安物业有限公司,0.4,辽宁,2,二手房,1996
甘井子区山东路315号14栋1单元1跃2层13号,大连,华润置地（大连）有限公司,甘井子,20190106,39.00206212579579,121.59357231641214,华润置地广场二期,32,18186,华润物业（大连）有限公司,0.5,辽宁,2,二手房,2013
沙河口区黄河路562号,大连,大连新型房地产开发有限公司,沙河口,20190106,38.9167961764482,121.60352063132478,79中科学家公寓,42,19175,大连新兴物业管理有限公司,0.8,辽宁,2,二手房,1998
大连市甘井子区辛如街35号1单元1层1号,大连,大连新星房地产开发有限公司,甘井子,20190106,38.96862607066881,121.52294869064194,新星绿城四期,20,12832,大连生生物业管理有限公司,0.8,辽宁,2,二手房,2008
甘井子区泉水D1区37-7号,大连,大连运腾房地产开发有限公司,甘井子,20190106,39.013992871679214,121.61921940045104,锦泉源D4区,24,12312,大连嘉和物业管理有限公司,0.5,辽宁,2,二手房,2007
开发区兴城路29-81层,大连,大连亿锋房地产实业有限公司,开发区,20190106,39.05020829677517,121.7578103751747,亿锋广场二期,35,13251,大连广恒物业管理有限公司,2.5,辽宁,2,二手房,2015
大连市甘井子区椒房街24号楼2-104链家地产,大连,大连圣韬房地产开发有限公司,甘井子,20190106,38.985363789837166,121.61034055597686,万福山庄,19,12752,大连海旭物业管理有限公司,0.5,辽宁,2,二手房,2005
甘井子区红南东街7-7号,大连,大连大实企业集团房屋开发有限公司,甘井子,20190106,38.92880462247992,121.54144910207062,泊林和山,22,10262,大连弘实物业管理有限公司,0.6,辽宁,2,二手房,2007
西岗区鞍山路65-5号,大连,大连恒利房屋开发有限公司,沙河口,20190106,38.92701992456326,121.60258216167713,中长花园,13,13014,大连金星物业管理中心,0.5,辽宁,2,二手房,2000
甘井子区泉水E1区27号-3公建,大连,大连百思泰置业有限公司,甘井子,20190106,39.002846129004375,121.61312453141336,钰桥中央庭院,44,15706,大连百嘉物业管理有限公司,1.8,辽宁,2,二手房,2014
沙河口区黑石礁街3号1层1-1号,大连,大连建隆置业有限公司,沙河口,20190106,38.880058010307856,121.56313403908827,富丽庭,10,17276,达波尔酒店物业管理（大连）有限公司,2.4,辽宁,2,二手房,2010
中山区爱华街13号,大连,无开发商,中山,20190106,38.92541607518685,121.6535728031028,九中安民街,25,35459,无物业管理服务,-,辽宁,2,二手房,1995
西岗区香炉礁24号1-1,大连,中瑞置业（大连）有限公司,西岗,20190106,38.91336952993919,121.6258229781024,香周首府,67,17272,中融物业管理有限公司,3,辽宁,2,二手房,2014
沙河口区星海广场B3区14-2号1层,大连,大连万达房地产开发有限公司,沙河口,20190106,38.88693148294673,121.58735631267305,大连明珠,51,22720,大连万象美物业管理有限公司,3.5,辽宁,2,二手房,2008
高新园区聚贤路36号5幢1单元1层1号,大连,大连金真源集团房地产开发有限公司,高新园区,20190106,32.31472011562832,119.46141263909165,山海一家三期,14,16410,大连龙海物业管理有限公司,1.2,辽宁,2,二手房,2010
中山区北斗街53号1层1号,大连,大连万众房屋开发有限公司,中山,20190106,38.92727355733075,121.67002970974048,清华园(中山),19,16381,大连万众物业有限公司,1.7,辽宁,2,二手房,2003
甘井子区红韵路114号,大连,大连亿达美加房地产开发有限公司,甘井子,20190106,38.95546176066109,121.5285003794903,第五郡六号地,37,27968,亿达物业管理有限公司,3,辽宁,2,二手房,2009
莲花山路89-3号,大连,大连建兴房屋开发有限公司,沙河口,20190106,38.90273559371702,121.6046814926709,府佳家园,3,12875,大连富佳物业管理有限公司,0.6,辽宁,2,二手房,2002
西岗区鞍山路29号龙畔锦城东门,大连,大连凯润房屋开发有限公司,西岗,20190106,38.92763470697088,121.61498923399098,景润一期,26,10091,无物业管理服务,-,辽宁,2,二手房,2000
中山区杏林街66—5号,大连,嘉和房地产集团有限公司,中山,20190106,38.9244189768098,121.6630029448549,嘉和花样年华二期,41,18634,大连嘉和物业管理有限公司,2,辽宁,2,二手房,2005
无门店信息,大连,北方沿海房地产开发（大连）有限公司,沙河口,20190106,34.52713835999158,118.76812980670795,星海大观,139,15324,北京世邦魏理仕物业管理服务有限公司大连分公司,4.4,辽宁,2,二手房,2008
西岗区平等街21号1层2号,大连,裕景兴业（大连）有限公司,西岗,20190106,38.92251066253164,121.63236845125735,中心裕景,40,18269,第一太平戴维斯物业顾问（北京）有限公司大连分公司,3.8,辽宁,2,二手房,2012
甘井子区红旗西路104-7,大连,大连盛达基业房地产开发有限公司,甘井子,20190106,38.940012695252975,121.52780738260293,依山云水,23,13072,大连盛新物业管理有限公司,0.4,辽宁,2,二手房,2004
金州区小平岛B组团4号楼3号商铺,大连,大连圣岛房地产开发有限公司,高新园区,20190106,39.2986190718601,121.95658248043723,小平岛揽海名寓,24,17453,大连凯尔富物业管理有限公司,1.7,辽宁,2,二手房,2010
高新园区红凌路732-4号,大连,大华集团大连房地产开发有限公司,高新园区,20190106,38.90158813547366,121.53265954348016,大华爱琴湾,28,18214,大连大华物业管理有限公司,1.8,辽宁,2,二手房,2010
甘井子区山东路137号,大连,大连新型房地产开发有限公司,甘井子,20190106,38.99129404608926,121.59172125999353,华南花园,22,11281,大连天洋物业管理有限公司,0.3,辽宁,2,二手房,1990
甘井子区汇仁街19号12号楼1单元102室,大连,大连华南房地产开发有限公司,甘井子,20190106,38.99746297497168,121.58917714380617,名贵山庄金盛园,12,14114,大连弘益达物业管理有限公司,0.5,辽宁,2,二手房,2004
中山区华乐街71号公建,大连,暂无信息,中山,20190106,38.923187679200566,121.6843197903016,东港印象DE区,13,12550,大连众和物业管理有限公司,1.2,辽宁,2,二手房,2008
甘井子区华北路花锦园28号23-3-1-2建筑物,大连,大连东特房地产开发有限公司,甘井子,20190106,38.951627958411166,121.5739439799003,东特金星公馆,23,14203,大连东特祥禾物业管理有限公司,1.2,辽宁,2,二手房,2009
沙河口区黄浦路18号—5号公建,大连,无开发商,高新园区,20190106,38.8771225143479,121.54427480390662,东电小区,13,13256,大连凌电物业管理有限公司,0.3,辽宁,2,二手房,1992
沙河口区民权街324号,大连,大连中源翔房屋开发有限公司,沙河口,20190106,38.92064616208148,121.59777611850379,79中五四华庭,4,25328,大连祥益物业管理有限公司,2.6,辽宁,2,二手房,2008
中山区共建巷61号,大连,大连新型房地产开发总公司,中山,20190106,38.91828093658718,121.66259221532148,南山苑,8,29999,大连新型物业管理有限公司,1.5,辽宁,2,二手房,1990
中山区虎滩路62号,大连,大连国泰房地产开发有限公司,中山,20190106,38.886587440841225,121.69237728440392,帝柏湾,20,18869,加拿大高力国际物业服务有限公司,2,辽宁,2,二手房,2007
大连市甘井子区钻石湾和信园13-5,大连,远洋地产有限公司,甘井子,20190106,38.95806887148857,121.62117199773128,远洋钻石湾二期,30,21511,大连远洋基业物业管理有限公司,3.2,辽宁,2,二手房,2015
大连市沙河口区五四路199-4号,大连,中航国际中航地产,沙河口,20190106,38.907987066040505,121.60249214877012,中航国际广场,26,21112,中航物业管理有限公司大连分公司,2.5,辽宁,2,二手房,2017
开发区松苑街23号,大连,大连天安房地产开发有限公司,开发区,20190106,22.52087710763645,113.40156104777168,天安海景花园,14,11435,大连港力物业管理有限公司,1.2,辽宁,2,二手房,2006
高新园区海苑街36号1单元2号公建,大连,大连海苑房屋开发有限公司,高新园区,20190106,20.06392317589085,110.32302599457326,海苑花园,20,13139,大连家园物业有限公司,0.3,辽宁,2,二手房,2000
甘井子区山东路398号,大连,大连盛铭资产管理有限公司,甘井子,20190106,38.99821826443242,121.59274974973462,亿合城,46,16559,大连盛安物业管理有限公司,1.5,辽宁,2,二手房,2013
甘井子区山东路398号,大连,华润置地（大连）开发有限公司,甘井子,20190106,38.99821826443242,121.59274974973462,华润置地广场三期,40,20087,华润物业（大连）有限公司,2.9,辽宁,2,二手房,2016
甘井子金地艺境博艺西园2-1号,大连,大连天意房地产开发有限公司,甘井子,20190106,39.04402110608829,121.665484498555,金地艺境,129,12734,大连金地物业管理有限公司,0.5,辽宁,2,二手房,2011
大连市甘井子区银田北园14号,大连,亿达集团大连科技城发展有限公司,甘井子,20190106,38.9742441034389,121.47189841879823,亿达春田馥园,44,17502,亿达物业管理有限公司,1.5,辽宁,2,二手房,2011
大连市高新园区七贤中路63号,大连,大连全统房地产开发有限公司,高新园区,20190106,38.86053006357667,121.53273606963094,君海阁,18,16852,大连城建开发集团物业管理有限公司,2.2,辽宁,2,二手房,2013
开发区小孤山西里3栋-11号,大连,大连九龙汇房地产开发有限公司,开发区,20190106,39.02715282297674,121.80682183666346,九龙汇,38,8649,大连宏亮红物业管理有限公司,1.9,辽宁,2,二手房,2009
中山区民建街10号1单元1号,大连,无开发商,中山,20190106,38.925444479476894,121.66915026954452,39中爱阳街,16,17582,无物业管理服务,-,辽宁,2,二手房,1993
沙河口区前程街46号4—1—2号,大连,大连渤海红旗集团有限公司,甘井子,20190106,38.921778341674376,121.58261780680284,彩霞园,7,10007,渤海吉祥物业管理有限公司,0.4,辽宁,2,二手房,2000
金州区同济路44号,大连,大连金宸集团,金州,20190106,39.10476859984152,121.71234684495865,连大文润金宸三期,39,9696,大连四通物业管理有限公司,1,辽宁,2,二手房,2010
开发区红星海-B区89-1号,大连,暂无信息,开发区,20190106,39.027851194371685,121.80327394132297,红星海一期艺墅,43,14528,大连远洋基业物业管理有限公司,0.5,辽宁,2,二手房,2009
无门店信息,大连,大连唐银盛兴置业有限公司,开发区,20190106,34.52713835999158,118.76812980670795,钻石9座,23,8885,大连佳家物业管理有限公司,1.5,辽宁,2,二手房,2014
中山区秀月街37号1层2号,大连,无开发商,中山,20190106,38.88757907576307,121.66311065527876,桃仙小区,9,10984,街道办事处（居委会）代管物业,0.5,辽宁,2,二手房,1992
大连市甘井子区七贤路8-3号,大连,大连高新万达广场投资有限公司,高新园区,20190106,38.86659077085588,121.5392980566355,万达海公馆,17,25361,大连万达物业管理有限公司,4.5,辽宁,2,二手房,2015
沙河口区昌黎街77号楼第1层公建,大连,大连城市建设集团有限公司,沙河口,20190106,38.91974518366595,121.5902918379551,79中君安公寓,12,16144,大连广安物业有限公司,1.2,辽宁,2,二手房,1998
中山区安居巷7号,大连,大连长荣房屋开发有限公司,中山,20190106,38.900436431991984,121.67796628922625,休斯顿公寓,22,12183,大连长荣物业管理有限公司,2.6,辽宁,2,二手房,2003
沙河口区数码路(北段)20-6号,大连,大连软景房地产开发有限公司,高新园区,20190106,38.890045799133254,121.55191912957606,亿达软景中心,17,20999,亿达物业管理有限公司,3.5,辽宁,2,二手房,2014
大连市开发区裕民新苑42-7,大连,无开发商,开发区,20190106,39.070771020021674,121.85093056856022,澳东世纪,17,9957,街道办事处（居委会）代管物业,0.5,辽宁,2,二手房,2013
甘井子区柳树南街45-10号,大连,中体产业集团大连乐百年置业有限公司,甘井子,20190106,38.92567666296449,121.4841330254372,水木清华,14,11348,大连辰谊物业管理有限公司,1.2,辽宁,2,二手房,2009
大连市甘井子区软件园路122号,大连,大连理工科技城建设开发有限公司,高新园区,20190106,38.89286578891647,121.53266600180116,理工园,15,12395,街道办事处（居委会）代管物业,1,辽宁,2,二手房,2000
甘井子区玉丽街39号楼3号公建,大连,大连新型房地产开发有限公司,甘井子,20190106,38.98706755029984,121.55605471197089,玉浓街,45,8905,大连新兴物业管理有限公司,0.2,辽宁,2,二手房,2002
沙河口区黄河路535号,大连,大连春达房屋开发有限公司,沙河口,20190106,38.91773777159567,121.60217159922856,79中数控大厦,10,22719,大连欧德物业管理有限公司,1.2,辽宁,2,二手房,2000
中山区民建街10号1单元1号,大连,大连港连房地产开发有限公司,中山,20190106,38.925444479476894,121.66915026954452,海港公寓（三八广场）,24,20026,大连海港物业管理有限公司,0.2,辽宁,2,二手房,1996
甘井子区华东路33-5号,大连,大连凯祥房地产开发有限公司,甘井子,20190106,38.97497080220593,121.59479866243332,商城花园,17,10539,大连凯祥物业管理有限公司,0.5,辽宁,2,二手房,2000
开发区小孤山西里3栋-11号,大连,大连开发区世元房地产开发有限公司,开发区,20190106,39.02715282297674,121.80682183666346,东庭印象,24,8323,大连经济技术开发区鹏达物业管理有限公司,1.2,辽宁,2,二手房,2007
甘井子区惠泽南园3-4号,大连,大连鑫河房地产开发有限公司,甘井子,20190106,38.939326611323615,121.52337842113351,绿色家园,5,10626,绿色家园物业管理有限公司,0.3,辽宁,2,二手房,2005
沙河口区黑石礁街3号1层1-1号,大连,大连辰熙房地产开发有限公司,沙河口,20190106,38.880058010307856,121.56313403908827,辰熙星海国际,16,13684,大连世邦友好物业管理有限公司,2.2,辽宁,2,二手房,2006
开发区大开高吉里33栋6号,大连,大连开建集团有限公司,开发区,20190106,39.07355836059941,121.8280439450145,高城北花园,33,7575,大连经济技术开发区聚盛达物业管理有限公司,0.2,辽宁,2,二手房,1998
中山区山屏街116号1-1,大连,无开发商,中山,20190106,38.90729438486833,121.68598159980013,怡和街,28,10898,街道办事处（居委会）代管物业,0.5,辽宁,2,二手房,1990
中山区益民街16号1层1号,大连,大连三鑫房地产开发有限公司,中山,20190106,38.93092761298906,121.66470740073377,金和苑,8,20026,大连报业物业管理有限公司三鑫分公司,3.5,辽宁,2,二手房,2004
沙河口区星海广场B3区14-9,大连,大连一方地产有限公司,沙河口,20190106,38.887408126588866,121.58732762887982,星海阳光,23,20666,大连中海物业管理有限公司,1.6,辽宁,2,二手房,2004
甘井子区华东路22号公建,大连,大连盖特房地产开发有限公司,甘井子,20190106,38.97736184953593,121.5935814234334,盖特名园,12,10154,大连弘益达物业管理有限公司,0.5,辽宁,2,二手房,2004
开发区翠竹小区33栋4-1-1号,大连,暂无信息,开发区,20190106,30.635492106460237,119.69169575745704,翠竹中区,26,8477,嘉兴物业管理有限公司,0.3,辽宁,2,二手房,1996
甘井子区华龙南园12-4-3-1-3,大连,大连融汇置业有限公司,甘井子,20190106,38.98528794231248,121.61028969481718,格林翠庭,8,13979,北京房修一物业管理有限公司,1.3,辽宁,2,二手房,2009
中山区金城街26号一楼,大连,辽宁远大房屋开发有限公司,中山,20190106,38.922282529515634,121.65214466263014,远大大厦,11,8901,街道办事处（居委会）代管物业,2.5,辽宁,2,二手房,2000
大连市沙河口区五四路199-4号,大连,无开发商,沙河口,20190106,38.907987066040505,121.60249214877012,新华街,6,11869,无物业管理服务,-,辽宁,2,二手房,1999
沙河口区锦霞南园1号1层公建,大连,大连锦绣房地产开发有限公司,沙河口,20190106,38.921778341674376,121.58261780680284,锦虹南园,12,9531,大连锦绣物业管理有限公司,0.3,辽宁,2,二手房,1998
无门店信息,大连,大连经开万达广场投资有限公司,开发区,20190106,34.52713835999158,118.76812980670795,大连开发区万达广场,93,7908,大连万达物业管理有限公司,2.5,辽宁,2,二手房,2015
无门店信息,大连,大连鲁能置业有限公司,金州,20190106,34.52713835999158,118.76812980670795,鲁能优山美地,90,9697,长城物业集团股份有限大连分公司,1.8,辽宁,2,二手房,2012
甘井子区宜居园10-1号房屋,大连,大连万科置业有限公司,甘井子,20190106,39.000039431463165,121.52111738616489,万科现在城,6,13680,大连万科物业服务有限公司,2.2,辽宁,2,二手房,2015
大连市甘井子区七贤路8-3号,大连,大连树源世嘉房地产开发有限公司,高新园区,20190106,38.86659077085588,121.5392980566355,国滨馆,18,21414,大连树源物业管理有限公司,3.5,辽宁,2,二手房,2015
沙河口区西南路40号楼,大连,无开发商,沙河口,20190106,38.94141605900714,121.58612100465703,杭州街,13,10403,无物业管理服务,-,辽宁,2,二手房,1990
沙河口区西南路643号,大连,无开发商,沙河口,20190106,38.943483429804665,121.5833555851182,恒达花园（沙河口）,15,10510,无物业管理服务,-,辽宁,2,二手房,1990
中山区爱华街13号,大连,大连一方地产有限公司,中山,20190106,38.92541607518685,121.6535728031028,大连国际酒店,14,21000,大连一方物业管理有限公司,3.0,辽宁,2,二手房,2006
中山区杏林街66—5号,大连,无开发商,中山,20190106,38.9244189768098,121.6630029448549,39中民生里,12,24898,街道办事处（居委会）代管物业,0.5,辽宁,2,二手房,1990
中山区同心街72号1楼公建,大连,大连振屹房屋开发有限公司,中山,20190106,38.91979245940674,121.64769198230202,城市广场,24,14641,大连振屹物业有限公司,3.5,辽宁,2,二手房,2006
中山区北斗街53号1层1号,大连,大连名仕房地产开发有限公司,中山,20190106,38.92727355733075,121.67002970974048,名仕财富中心,48,10017,holiday inn酒店物业管理有限公司,4.3,辽宁,2,二手房,2006
无门店信息,大连,新兴际华集团有限公司,甘井子,20190106,34.52713835999158,118.76812980670795,中华城,18,14454,大连仲邦维行物业管理有限公司,2.5,辽宁,2,二手房,2017
西岗区长春路334号,大连,大连新型房地产开发总公司,西岗,20190106,38.89807766522607,121.63221082858387,林茂小区,23,8584,大连新型物业管理有限公司,0.2,辽宁,2,二手房,1995
沙河口区中山路552-1-1公建,大连,大连绿城房地产开发有限公司,沙河口,20190106,38.90339064542996,121.593567176308,深蓝中心,24,18034,绿城物业服务集团有限公司大连分公司,4.9,辽宁,2,二手房,2012
无门店信息,大连,大连新型企业集团,甘井子,20190106,34.52713835999158,118.76812980670795,南岭花园,11,10197,大连新型物业管理有限公司,0.4,辽宁,2,二手房,2008
开发区黄海西路201号107公建,大连,无开发商,开发区,20190106,39.04942604506828,121.80126318235419,倚平里,27,7530,街道办事处（居委会）代管物业,0.5,辽宁,2,二手房,2000
沙河口区鞍山路65号美都园7号1单元1层4号公建,大连,大连正源房地产开发有限公司,沙河口,20190106,38.92727525772336,121.60296423346817,正源小区,14,10102,大连正源物业服务有限公司,0.3,辽宁,2,二手房,1998
西岗区新田巷11号三单元103,大连,无开发商,西岗,20190106,38.89276612016956,121.64190731791966,新船巷,28,8269,无物业管理服务,-,辽宁,2,二手房,1992
无门店信息,大连,暂无信息,西岗,20190106,34.52713835999158,118.76812980670795,34中三元街,44,24342,无物业管理服务,-,辽宁,2,二手房,1990
中山区中青街43号,大连,无开发商,中山,20190106,38.90150598268117,121.65711014604845,解放路（青云街商圈）,7,11352,街道办事处（居委会）代管物业,0.6,辽宁,2,二手房,1997
天河路173-2号 华润考拉22号公建,大连,无开发商,甘井子,20190106,23.147151253133927,113.3277313198351,七胜路,13,10003,街道办事处（居委会）代管物业,0.5,辽宁,2,二手房,1989
沙河口区锦云北园9号2单元1层2号,大连,大连锦绣房地产开发有限公司,沙河口,20190106,38.94836395772248,121.55744845421044,锦云北园,21,8995,大连锦绣物业管理有限公司,0.3,辽宁,2,二手房,1996
无门店信息,大连,暂无信息,甘井子,20190106,34.52713835999158,118.76812980670795,山宝花园,24,17724,无物业管理服务,-,辽宁,2,二手房,1970
甘井子区泉水K4区1号2单元1层1号,大连,暂无信息,甘井子,20190106,39.01482019232349,121.63242049308988,龙畔金泉五期K3区,42,11949,大连新兴物业管理有限公司,0.5,辽宁,2,二手房,2008
甘井子区华东路33-5号,大连,大连宜和房地产开发有限公司,甘井子,20190106,38.97497080220593,121.59479866243332,松江路,1,9153,大连新华物业管理有限公司,-,辽宁,2,二手房,1993
无门店信息,大连,大连亿达房地产股份有限公司,旅顺口,20190106,34.52713835999158,118.76812980670795,亿达玉龙湾,43,8676,亿达物业管理有限公司,1.5,辽宁,2,二手房,2013
西岗区八一路102号,大连,无开发商,西岗,20190106,38.891094924332045,121.65327483516513,杏环街,13,8426,无物业管理服务,-,辽宁,2,二手房,1994
金州区同济路44号,大连,大连峰景房地产开发有限公司,金州,20190106,39.10476859984152,121.71234684495865,峰景西海岸,28,8058,大连峰景物业有限公司,0.8,辽宁,2,二手房,2009
金州区光明街道育才街42-6号1-2层,大连,大连金华房地产开发有限公司,金州,20190106,39.109080894078986,121.7182584929096,金华小区一期,53,6917,大连金华兴物业有限公司,0.5,辽宁,2,二手房,2003
西岗区康平街2号（5号楼3-1-3号）,大连,无开发商,西岗,20190106,38.91044414697888,121.61980769264477,康平街,2,12021,无物业管理服务,-,辽宁,2,二手房,1995
开发区正恒园1-16,大连,大连富华房地产有限公司,开发区,20190106,39.04823944344617,121.76165468797754,正泰园A区,15,10962,嘉泰物业管理有限公司,1.9,辽宁,2,二手房,2012
开发区金源南里14栋-11号一层部分，14号-12号一层部分,大连,大连开建房地产开发有限公司,开发区,20190106,39.06148997014026,121.82510513314875,金北花园小区,20,7058,嘉兴物业管理有限公司,0.3,辽宁,2,二手房,1999
沙河口区连山街10号2-1-2,大连,大连城市建设集团有限公司,沙河口,20190106,38.89637522563413,121.57143690983219,莱州街,21,9764,无物业管理服务,-,辽宁,2,二手房,1990
甘井子区华东路33-5号,大连,无开发商,甘井子,20190106,38.97497080220593,121.59479866243332,华东路（金三角商圈）,8,10185,无物业管理服务,0.5,辽宁,2,二手房,1995
金州区南棉路310号,大连,大连阿尔滨集团房地产开发有限公司,金州,20190106,39.09939229372624,121.72414976100345,荣盛小区,7,7897,街道办事处（居委会）代管物业,1,辽宁,2,二手房,2009
无门店信息,大连,昕德（大连）房地产开发有限公司,金州,20190106,34.52713835999158,118.76812980670795,伟桥金北嘉园,43,6504,街道办事处（居委会）代管物业,0.5,辽宁,2,二手房,2012
无门店信息,大连,暂无信息,西岗,20190106,34.52713835999158,118.76812980670795,34中民众街,10,24523,无物业管理服务,-,辽宁,2,二手房,1990
西岗区八一路196号2-1-12号,大连,大连欧美亚房地产开发有限公司,西岗,20190106,38.89127420834314,121.6483201412943,名城国际公馆,11,14356,无物业管理服务,-,辽宁,2,二手房,2007
西岗区八一路102号,大连,无开发商,西岗,20190106,38.891094924332045,121.65327483516513,长春街,6,10308,无物业管理服务,-,辽宁,2,二手房,1997
中山区鲁迅路184号1层B—A,大连,大连绿地新城置业有限公司,中山,20190106,38.92590875965419,121.67594393403164,大连绿地中心,12,17411,上海科瑞物业管理发展有限公司大连第二分公司,4.2,辽宁,2,二手房,2015
开发区杏花里13#楼-7号,大连,无开发商,开发区,20190106,31.31075067906954,120.63127837058457,杏花里,52,6124,大连经济技术开发区杏林物业管理有限公司,0.5,辽宁,2,二手房,1993
中山区高尚路28-1号,大连,无开发商,中山,20190106,38.892673425111305,121.67148833870213,高尚路,17,8573,无物业管理服务,-,辽宁,2,二手房,1993
中山区职工街96号1-3层公建,大连,无开发商,中山,20190106,38.92565613737007,121.66193575790903,北斗街（三八广场）,8,15252,无物业管理服务,-,辽宁,2,二手房,1993
金州区南棉路310号,大连,大连金连房地产开发有限公司,金州,20190106,39.09939229372624,121.72414976100345,金连福地,29,6914,街道办事处（居委会）代管物业,0.5,辽宁,2,二手房,2010
甘井子区玉丽街2号楼1单元4号公建,大连,暂无信息,甘井子,20190106,38.98705071699301,121.55513043130172,玉山路,19,9387,大连新兴物业管理有限公司,0.5,辽宁,2,二手房,2002
中山区高尚路28-1号,大连,无开发商,中山,20190106,38.892673425111305,121.67148833870213,高原街,14,9415,街道办事处（居委会）代管物业,0.5,辽宁,2,二手房,1996
甘井子区山东路137号,大连,大连市大钢集团,甘井子,20190106,38.99129404608926,121.59172125999353,华南沃尔玛六和路,7,10714,街道办事处（居委会）代管物业,0.5,辽宁,2,二手房,1990
大连市金州新区友谊街道和平路59-10号1-2层公建,大连,无开发商,金州,20190106,39.112168401852266,121.72006917947859,和平小区,25,7143,街道办事处（居委会）代管物业,0.5,辽宁,2,二手房,1996
开发区翠竹小区33栋4-1-1号,大连,大连福恒房地产开发有限公司,开发区,20190106,30.635492106460237,119.69169575745704,福佳国际,32,5299,大连福佳物业管理有限公司,1.5,辽宁,2,二手房,2007
西岗区长春路334号,大连,无开发商,西岗,20190106,38.89807766522607,121.63221082858387,新城街（石道街商圈）,8,9884,无物业管理服务,-,辽宁,2,二手房,1989
无门店信息,大连,暂无信息,甘井子,20190106,34.52713835999158,118.76812980670795,鹏辉新世纪二期,15,15118,大连鹏辉物业管理有限公司,0.6,辽宁,2,二手房,2003
沙河口区西南路851号3单元1层3号,大连,无开发商,沙河口,20190106,38.94344210837944,121.58246796944378,春柳街,5,9339,街道办事处（居委会）代管物业,0.1,辽宁,2,二手房,1985
中山区高尚路28-1号,大连,无开发商,中山,20190106,38.892673425111305,121.67148833870213,高寿街,10,8621,无物业管理服务,-,辽宁,2,二手房,1991
金州新区八一路金都嘉园1号楼1号公建,大连,无开发商,金州,20190106,39.05525210261778,121.74865634199398,永安小区,35,6158,无物业管理服务,0.5,辽宁,2,二手房,1999
中山区山屏街116号1-1,大连,无开发商,中山,20190106,38.90729438486833,121.68598159980013,山峦北巷,5,11598,无物业管理服务,-,辽宁,2,二手房,1985
金州区站前街道盛滨花园B区13号楼2号公建,大连,无开发商,金州,20190106,39.09609011892329,121.7335816409767,联胜小区,22,6362,街道办事处（居委会）代管物业,0.5,辽宁,2,二手房,1995
中山区中青街87号一单元107,大连,无开发商,中山,20190106,38.90213494248529,121.65806522267005,中青街,5,18206,无物业管理服务,-,辽宁,2,二手房,1996
无门店信息,大连,大连宝泰华置业发展有限公司,金州,20190106,34.52713835999158,118.76812980670795,海天富地,27,9944,大连戴德梁行物业管理有限公司,1.6,辽宁,2,二手房,2013
中山区高尚路28-1号,大连,大连华南地产开发有限公司,中山,20190106,38.892673425111305,121.67148833870213,环山街,9,9659,街道办事处（居委会）代管物业,0.5,辽宁,2,二手房,1994
无门店信息,大连,暂无信息,西岗,20190106,34.52713835999158,118.76812980670795,34中茂田巷,6,25481,无物业管理服务,-,辽宁,2,二手房,1984
西岗区八一路196号1-3,大连,无开发商,西岗,20190106,38.89127420834314,121.6483201412943,三环街（八一路商圈）,4,10938,无物业管理服务,-,辽宁,2,二手房,1990
甘井子区玉湖街25号2单元1层3号,大连,暂无信息,甘井子,20190106,38.97626265183615,121.54617349027997,玉水街,3,8106,无物业管理服务,-,辽宁,2,二手房,1988
开发区黄海西路201号107公建,大连,开发区城建局,开发区,20190106,39.04942604506828,121.80126318235419,东阁里,35,5942,大连经济技术开发区海青物业有限公司,0.4,辽宁,2,二手房,1994
金州区南棉路310号,大连,暂无信息,金州,20190106,39.09939229372624,121.72414976100345,光明现代城,5,7199,无物业管理服务,-,辽宁,2,二手房,2004
开发区东北三街94号1层,大连,大连万瑞达房地产投资有限公司,开发区,20190106,39.05723508011585,121.80570768630555,万瑞达国际公馆,10,7262,大连万瑞达物业管理公司,1.2,辽宁,2,二手房,2012
金州区站前街道盛滨花园B区13号楼2号公建,大连,大连阿尔滨集团房地产开发有限公司,金州,20190106,39.09609011892329,121.7335816409767,现代雅筑,35,5784,大连阿尔滨集团物业管理有限公司,0.5,辽宁,2,二手房,2009
金州新区先进街道五一路350-1号1-2层,大连,暂无信息,金州,20190106,39.095023587156554,121.74333264248519,聚鑫小区一期,43,6182,大连新生活物业管理有限公司,0.5,辽宁,2,二手房,1993
中山区鲁迅路184号1层B—A,大连,无开发商,中山,20190106,38.92590875965419,121.67594393403164,海滨住宅小区（寺儿沟商圈）,7,10993,无物业管理服务,-,辽宁,2,二手房,1995
开发区东北三街94号1层,大连,鑫鸿房地产开发公司,开发区,20190106,39.05723508011585,121.80570768630555,雍景国际,30,5550,街道办事处（居委会）代管物业,1.2,辽宁,2,二手房,2002
沙河口区昌黎街77号楼第1层公建,大连,清远君行房地产有限公司,沙河口,20190106,38.91974518366595,121.5902918379551,君安国际,0,13492,街道办事处（居委会）代管物业,11,辽宁,2,二手房,2010
沙河口区民权街324号,大连,大连城市建设集团有限公司,沙河口,20190106,38.92064616208148,121.59777611850379,天兴新家园,14,26655,大连天兴物业管理有限公司,0.5,辽宁,1,二手房,1999
沙河口区黄河路535号,大连,大连城市建设集团有限公司,沙河口,20190106,38.91773777159567,121.60217159922856,79中金光小区,38,23194,无物业管理服务,-,辽宁,1,二手房,1993
沙河口区联合路133号,大连,大连新型房地产开发有限公司,沙河口,20190106,38.91608561262676,121.60480987310456,21中天兴花园一期,24,15793,大连万泰物业管理有限公司,0.5,辽宁,1,二手房,1998
高新园区书香街1A#1-1-2,大连,大连金弘基房地产开发有限公司,高新园区,20190106,38.880372108393104,121.55218773010999,弘基一期,18,17287,大连金弘基物业管理有限公司,0.6,辽宁,1,二手房,2001
中山区中青街87号一单元107,大连,大连亿达房地产股份有限公司,中山,20190106,38.90213494248529,121.65806522267005,青云林海,39,19065,亿达物业管理有限公司,1,辽宁,1,二手房,2001
沙河口区黄河路535号,大连,大连建园房地产开发有限公司,沙河口,20190106,38.91773777159567,121.60217159922856,79中城市公元,39,24783,大连斌弘物业管理有限公司,2.6,辽宁,1,二手房,2009
西岗区鞍山路29号龙畔锦城东门,大连,大连万达房地产开发有限公司,西岗,20190106,38.92763470697088,121.61498923399098,长春花园,17,15170,大连万达物业管理有限公司,0.5,辽宁,1,二手房,1996
沙河口区五一路177-1-1-1,大连,大华集团大连房地产开发有限公司,沙河口,20190106,38.90485271510574,121.57313607267041,大华御庭,43,19840,大连乐尔居物业服务有限公司,1.4,辽宁,1,二手房,2009
高新园区硅谷假日小区25号楼地下室,大连,大连鑫亿房屋开发有限公司,高新园区,20190106,38.865995717263544,121.53771220335938,硅谷假日,49,18134,大连斌弘物业管理有限公司,0.8,辽宁,1,二手房,2005
高新园区敬贤街25-9,大连,中海东丰地产（大连）有限公司,高新园区,20190106,38.86877373541043,121.52975162654023,中海紫御观邸一期,12,22599,大连中海物业管理有限公司,2.6,辽宁,1,二手房,2013
甘井子区西南路芳茗园30号楼,大连,大连东北房屋开发有限公司,甘井子,20190106,38.961395177040636,121.59546002818708,东北名苑,39,15474,大连国合物业管理有限公司,0.5,辽宁,1,二手房,2000
甘井子区芳林街17号1单元1层1号,大连,大连亿达房地产股份有限公司,甘井子,20190106,38.96091976856697,121.58863625429588,林语家话,27,22876,亿达物业管理有限公司,1.2,辽宁,1,二手房,2005
西岗区中山路158号唐山街市场外14号,大连,大连胜利路拓宽改造工程建设有限公司,西岗,20190106,38.91835355789945,121.63274981188985,星海绿山城,28,25538,无物业管理服务,1.5,辽宁,1,二手房,2015
沙河口区兰田街33号,大连,大连运达房地产集团有限公司,沙河口,20190106,38.926138912221084,121.56486022834609,兰溪文苑,28,17486,大连运达物业管理有限公司,0.8,辽宁,1,二手房,2004
沙河口区新生路万客园3-7,大连,大连万科锦绣花城开发有限公司,沙河口,20190106,38.94412875710208,121.57006756704837,万科城市花园,39,17983,大连万科物业服务有限公司,1.5,辽宁,1,二手房,2005
沙河口区黄河路535号,大连,大连民兴房地产开发有限公司,沙河口,20190106,38.91773777159567,121.60217159922856,79中民兴花园二期,33,24655,大连衡德物业管理有限公司,1.2,辽宁,1,二手房,2003
甘井子区锦城西园4#3-1-1,大连,大连锦绣房地产开发有限公司,沙河口,20190106,38.95286223185571,121.55129044777,锦华北园,62,12190,大连锦绣物业管理有限公司,0.6,辽宁,1,二手房,2002
沙河口区鞍山路65号美都园7号1单元1层4号公建,大连,大连良运房地产开发有限公司,沙河口,20190106,38.92727525772336,121.60296423346817,良运缤纷四季,28,19011,大连良运物业管理有限公司,0.8,辽宁,1,二手房,2006
沙河口区知心园10号公建,大连,大连软件园开发有限公司,高新园区,20190106,38.893977135945136,121.55667141994431,亿达国际新城,36,20093,亿达物业管理有限公司,1,辽宁,1,二手房,2004
沙河口区五一路326号,大连,大连亿达房地产股份有限公司,高新园区,20190106,38.88949370884506,121.5496388331407,亿达学清园,26,20813,大连软件园物业管理有限公司,0.5,辽宁,1,二手房,2001
沙河口区长江路738号,大连,大连大和中盛房地产有限公司,西岗,20190106,38.92379936592553,121.61207696256155,颐和香榭,22,25522,大连颐和物业管理有限公司,2.5,辽宁,1,二手房,2008
西岗区黄河路362号公建,大连,大连万达商业地产有限公司,西岗,20190106,38.91819905243802,121.61365779430986,万达华府二期,29,19924,大连万景物业管理有限公司,1.6,辽宁,1,二手房,2006
高新园区海苑街30号1单元1号公建,大连,大连大有房屋开发有限公司,高新园区,20190106,20.06392317589085,110.32302599457326,大有恬园二期,35,15037,大连家园物业有限公司,1.2,辽宁,1,二手房,2010
甘井子区泉水D1区37-7号,大连,大连运腾房地产开发有限公司,甘井子,20190106,39.013992871679214,121.61921940045104,锦泉源D2区,149,11491,大连嘉毅物业管理有限公司,0.5,辽宁,1,二手房,2005
沙河口区五一路109-4号,大连,大连正源房地产开发有限公司,沙河口,20190106,38.9089272537305,121.58289867190192,幸福e家一期,22,27098,大连正源物业服务有限公司,0.8,辽宁,1,二手房,2002
甘井子区汇仁南园42-16-3,大连,中铁建（大连）置业有限公司,甘井子,20190106,38.99932098520821,121.5897722676133,动力院景三期汇善园,37,13356,大连铁龙安居物业管理有限公司,0.9,辽宁,1,二手房,2007
高新园区聚贤路36号5幢1单元1层1号,大连,大连海创房地产开发有限公司,高新园区,20190106,32.31472011562832,119.46141263909165,海创半山壹号,57,14822,大连海创物业管理有限公司,1.8,辽宁,1,二手房,2011
高新园区海苑街36号1单元2号公建,大连,大连大有房屋开发有限公司,高新园区,20190106,20.06392317589085,110.32302599457326,大有恬园,42,14323,大连家园物业有限公司,0.5,辽宁,1,二手房,2004
西岗区康平街2号（5号楼3-1-3号）,大连,大连北洋房屋开发公司,西岗,20190106,38.91044414697888,121.61980769264477,胜利花园,18,12707,大连宏成物业管理有限公司,0.5,辽宁,1,二手房,1997
沙河口区富静街26号1单元1层5号,大连,大连远东房屋开发有限公司,沙河口,20190106,38.908727606250466,121.58667844684369,世嘉星海,32,24251,大连瑞信物业管理有限公司,1.6,辽宁,1,二手房,2007
沙河口区西南路96号1层2号,大连,大连宏都房地产开发有限公司,沙河口,20190106,38.890863095482466,121.56788114713203,宏都筑景Ⅰ期,24,19636,大连东方百瑞物业管理有限公司,1.4,辽宁,1,二手房,2008
中山区华乐街107-115号1单元1层2号,大连,大连金广地产集团有限公司,中山,20190106,38.92093821499401,121.68879267531725,金广东海岸,76,21114,大连金广物业有限公司,2.2,辽宁,1,二手房,2009
甘井子区海口路77-4号公建,大连,大连圣韬房地产开发有限公司,甘井子,20190106,38.960286398428124,121.60305183172997,万福居,44,16113,大连圣韬物业管理有限公司,0.5,辽宁,1,二手房,2006
沙河口区成仁街91号,大连,大连万达房地产开发有限公司,沙河口,20190106,38.91539947107844,121.59585638842556,龙祥花园,18,22424,大连万达物业管理有限公司,0.8,辽宁,1,二手房,2001
西岗区胜利路33号,大连,大连万达房地产开发有限公司,西岗,20190106,38.91309771954841,121.62500886627636,信兴花园,2,23330,大连亿安物业管理有限公司,0.5,辽宁,1,二手房,1997
沙河口区长江路738号,大连,大连民兴房地产开发有限公司,沙河口,20190106,38.92379936592553,121.61207696256155,79中民兴花园一期,6,24083,大连衡德物业管理有限公司,1.2,辽宁,1,二手房,2002
沙河口区黄河路883号,大连,大连正源房地产开发有限公司,沙河口,20190106,38.919826721475204,121.57749657966676,幸福e家四期,50,28987,大连正源物业服务有限公司,1.2,辽宁,1,二手房,2007
沙河口区五一路270-274号,大连,大连誉园房地产开发有限公司,高新园区,20190106,38.89104111985908,121.55325426578435,斯坦福院落,14,19647,第一太平戴维斯物业顾问（北京）有限公司大连分公司,1.2,辽宁,1,二手房,2008
沙河口区五一路110-4号,大连,大连市中联房地产开发有限公司,沙河口,20190106,38.90710946686282,121.58172564480427,星海中龙园,19,18151,大连斌弘物业管理有限公司,0.6,辽宁,1,二手房,2004
大连市甘井子区丰收路3-5号,大连,大连邦德房屋开发有限公司,甘井子,20190106,38.965377255081755,121.58288415324094,芙蓉人家,48,15376,大连广丰物业管理有限公司,0.5,辽宁,1,二手房,2002
高新园区红凌路732-4号,大连,大华集团大连置业有限公司,高新园区,20190106,38.90158813547366,121.53265954348016,大华锦绣华城一期,45,22261,大连大华物业管理有限公司,2.5,辽宁,1,二手房,2010
中山区华乐街71号公建,大连,大连中银房地产开发有限公司,中山,20190106,38.923187679200566,121.6843197903016,澳景园,30,15735,大连衡德物业管理有限公司,1,辽宁,1,二手房,2003
甘井子区锦城东园1号3单元1层2号,大连,大连锦绣房地产开发有限公司,沙河口,20190106,38.952805477462775,121.55656194973994,锦城东园,24,15452,大连锦绣物业管理有限公司,0.6,辽宁,1,二手房,2006
沙河口区五一路96B-8号,大连,大连正源房地产开发有限公司,沙河口,20190106,38.91064944863509,121.58640982385212,幸福e家三期,50,34833,大连正源物业服务有限公司,1,辽宁,1,二手房,2004
大连市甘井子区燕南园50号,大连,大连软件园发展有限公司,高新园区,20190106,38.90172480153224,121.5363466289672,东方圣克拉一期,34,20943,亿达物业管理有限公司,2.6,辽宁,1,二手房,2010
甘井子区金家街17-7号,大连,大连嘉兴房地产开发有限公司,甘井子,20190106,38.97493697764367,121.60110987128529,青林美地,31,18134,大连嘉盛物业管理有限公司,0.5,辽宁,1,二手房,2003
中山区杏林街66—5号,大连,大连万达房地产开发有限公司,中山,20190106,38.9244189768098,121.6630029448549,明泽苑,8,26150,大连万达物业管理有限公司,2,辽宁,1,二手房,2000
甘井子区迎客路郭东街一品蓝天公建14号,大连,大连鼎新房地产开发有限公司,甘井子,20190106,38.958456949708726,121.556756277476,鼎新鼎润府,23,16877,大连鼎新物业管理有限公司,0.6,辽宁,1,二手房,2006
甘井子区红南东街7-7号,大连,大连良运房地产开发有限公司,甘井子,20190106,38.92880462247992,121.54144910207062,山居笔记,17,14429,大连良运物业管理有限公司,1.5,辽宁,1,二手房,2009
沙河口区星海广场B3区14-2号1层,大连,大连友谊合升房地产开发有限公司,沙河口,20190106,38.88693148294673,121.58735631267305,壹品星海一期,38,20922,大连友谊物业服务有限公司,1.3,辽宁,1,二手房,2005
中山区高尚路28-1号,大连,大连家园建设集团有限公司,中山,20190106,38.892673425111305,121.67148833870213,卡纳意乡,31,19041,大连四季物业服务有限公司,1.8,辽宁,1,二手房,2008
西岗区鞍山路65-5号,大连,无开发商,沙河口,20190106,38.92701992456326,121.60258216167713,美辰臻品,7,15421,大连众和物业管理有限公司,1,辽宁,1,二手房,2007
高新园敬贤街23-11号,大连,中海东丰地产（大连）有限公司,高新园区,20190106,38.86956637166276,121.5301657390922,中海紫御观邸三期,25,18041,大连中海物业管理有限公司,2.6,辽宁,1,二手房,2014
沙河口区锦江园30号1层公建,大连,大连鼎新美地置业有限公司,甘井子,20190106,38.921778341674376,121.58261780680284,鼎新鼎润四季,20,17846,大连中原物业代理有限公司,1.2,辽宁,1,二手房,2010
大连市甘井子区丰收路3-5号,大连,大连万鼎置业有限公司,甘井子,20190106,38.965377255081755,121.58288415324094,万科蓝山,18,24666,大连万科物业服务有限公司,2.9,辽宁,1,二手房,2015
中山区金城街26号一楼,大连,大连万达房地产开发有限公司,中山,20190106,38.922282529515634,121.65214466263014,九中金城街,14,31055,无物业管理服务,-,辽宁,1,二手房,1992
高新园区红凌路732-4号,大连,大连软件园开发有限公司,高新园区,20190106,38.90158813547366,121.53265954348016,东方圣克拉三期,22,22601,亿达物业管理有限公司,2.6,辽宁,1,二手房,2015
无门店信息,大连,大华集团大连置业有限公司,高新园区,20190106,34.52713835999158,118.76812980670795,大华锦绣华城三期,37,20045,大连大华物业管理有限公司,2.5,辽宁,1,二手房,2012
西岗区鞍山路65-5号,大连,大连万益房屋开发有限公司,沙河口,20190106,38.92701992456326,121.60258216167713,万益花园,10,12275,大连自然物业管理中心,0.5,辽宁,1,二手房,2003
沙河口区黄河路562号,大连,大连新型房地产开发有限公司,沙河口,20190106,38.9167961764482,121.60352063132478,79中中山公寓,11,22494,大连新兴物业管理有限公司,0.7,辽宁,1,二手房,1999
沙河口区西南路358号1—2号,大连,大连泰安房地产开发有限公司,沙河口,20190106,38.90839654326566,121.56908246905662,泰安花园,23,13054,大连三宝物业发展有限公司,0.5,辽宁,1,二手房,1998
金州区小平岛B组团4号楼3号商铺,大连,安达圣岛开发有限公司,高新园区,20190106,39.2986190718601,121.95658248043723,小平岛亲海园,61,14962,大连凯尔富物业管理有限公司,1.3,辽宁,1,二手房,2007
沙河口区西南路643号,大连,大连泰安房地产开发有限公司,沙河口,20190106,38.943483429804665,121.5833555851182,幸福小区(沙河口),34,10712,大连三宝物业发展有限公司,0.3,辽宁,1,二手房,1998
甘井子区泉水B2区19-1号,大连,北方沿海房地产开发（大连）有限公司,甘井子,20190106,39.0101309886317,121.60812584213187,沿海鉴筑,34,14565,美佳物业管理（深圳）有限公司大连分公司,1.8,辽宁,1,二手房,2013
高新园区海苑街36号1单元2号公建,大连,大连友谊合升房地产开发有限公司,高新园区,20190106,20.06392317589085,110.32302599457326,壹品漫谷,25,15471,大连富丽华物业管理有限公司,1,辽宁,1,二手房,2008
大连市高新园区七贤中路63号,大连,大连招宇房地产有限公司,高新园区,20190106,38.86053006357667,121.53273606963094,招商兰溪谷,33,20206,招商局物业管理有限公司大连分公司,2.6,辽宁,1,二手房,2015
沙河口区联合路133号,大连,大连新型房地产开发有限公司,沙河口,20190106,38.91608561262676,121.60480987310456,21中联德小区,3,23210,大连新型物业管理有限公司,0.5,辽宁,1,二手房,1998
无门店信息,大连,大华集团大连置业有限公司,高新园区,20190106,34.52713835999158,118.76812980670795,大华锦绣华城四期,19,21075,大连大华物业管理有限公司,2.5,辽宁,1,二手房,2015
西岗区黄河路90号公建部分,大连,大连民兴房地产开发有限公司,西岗,20190106,38.92234529815978,121.62829331825485,前城国际一期,9,20211,大连前城花园物业管理有限公司,1,辽宁,1,二手房,2005
中山区秀月街37号1层2号,大连,大连澳南房屋开发有限公司,中山,20190106,38.88757907576307,121.66311065527876,明秀山庄B区,29,29487,大连澳邦致和物业服务有限公司,1.9,辽宁,1,二手房,2008
沙河口区成仁街91号,大连,大连海孚房地产开发有限公司,沙河口,20190106,38.91539947107844,121.59585638842556,华业玫瑰东方Ⅱ期,27,22864,深圳华业物业管理有限公司大连分公司,3.5,辽宁,1,二手房,2014
沙河口区锦江园30号1层公建,大连,大连市经济适用房建设发展中心,沙河口,20190106,38.921778341674376,121.58261780680284,锦绣园,22,12679,大连锦绣物业管理有限公司,0.5,辽宁,1,二手房,2000
甘井子区华北路花锦园28号23-3-1-2建筑物,大连,大连东特房地产开发有限公司,甘井子,20190106,38.951627958411166,121.5739439799003,星加坡花园,20,15599,大连东特祥禾物业管理有限公司,0.6,辽宁,1,二手房,2004
甘井子区金家街17-7号,大连,大连三业房地产开发有限公司,甘井子,20190106,38.97493697764367,121.60110987128529,紫金枫尚,6,20486,亿达物业管理有限公司,0.8,辽宁,1,二手房,2007
沙河口区黄河路535号,大连,大连金广地产集团有限公司,沙河口,20190106,38.91773777159567,121.60217159922856,79中美加华公寓,29,18093,大连亮泰安邦物业有限公司,2,辽宁,1,二手房,2008
沙河口区连山街10号2-1-2,大连,大连宝嘉房地产有限公司,沙河口,20190106,38.89637522563413,121.57143690983219,星海名庭,7,19892,大连斌宏物业管理有限公司,0.6,辽宁,1,二手房,2005
开发区红梅小区19栋-2-1-1号,大连,开发区城建局,开发区,20190106,29.906498897603264,121.5913630631805,红梅小区,40,9964,街道办事处（居委会）代管物业,0.3,辽宁,1,二手房,1995
中山区华乐街71号公建,大连,大连环海房地产开发有限公司,中山,20190106,38.923187679200566,121.6843197903016,华乐小区,22,12233,大连景和物业管理有限公司,0.5,辽宁,1,二手房,2000
沙河口区黄埔路427号,大连,大连名仕房地产开发有限公司,高新园区,20190106,38.921778341674376,121.58261780680284,名仕乐居,12,18332,大连万祥物业管理有限公司,1.3,辽宁,1,二手房,2008
甘井子区汇仁南园42-16-3,大连,大连铁龙房地产开发有限公司,甘井子,20190106,38.99932098520821,121.5897722676133,动力院景一期汇仁南园,19,14147,大连铁龙安居物业管理有限公司,0.7,辽宁,1,二手房,2006
中山区民运巷 47号1层2号,大连,大连荣泰房地产开发有限公司,中山,20190106,38.905955122300846,121.64798148011702,豪森茗家,9,21622,大连戴德梁行物业管理有限公司,2.2,辽宁,1,二手房,2008
高新园区火炬路18号,大连,大连海创房地产开发有限公司,高新园区,20190106,38.937738080520404,117.39340752036043,芝麻街,38,12472,大连海创物业管理有限公司,2.4,辽宁,1,二手房,2010
甘井子区红旗西路104-23,大连,大连鹏德房屋开发有限公司,甘井子,20190106,38.94011738361669,121.52831049836651,逸林派,20,13380,大连三和住邦物业管理有限公司,1.6,辽宁,1,二手房,2011
金州区小平岛B组团4号楼3号商铺,大连,大连圣岛房地产开发有限公司,高新园区,20190106,39.2986190718601,121.95658248043723,小平岛海角七号,44,18712,大连凯尔富物业管理有限公司,1.7,辽宁,1,二手房,2011
中山区职工街96号1-3层公建,大连,大连泛华房屋开发有限公司,中山,20190106,38.92565613737007,121.66193575790903,泛华领城,32,12155,无物业管理服务,3.2,辽宁,1,二手房,2012
中山区职工街96号1-3层公建,大连,大连嘉和房地产开发有限公司,中山,20190106,38.92565613737007,121.66193575790903,嘉和花样年华一期,61,18248,大连嘉和物业管理有限公司,3,辽宁,1,二手房,2003
甘井子区泉水B2区19-1号,大连,大连金广集团,甘井子,20190106,39.0101309886317,121.60812584213187,金色阳光家园,31,11599,大连金广物业服务有限公司,0.5,辽宁,1,二手房,2002
高新园区敬贤街25-9,大连,大连家豪房地产开发有限公司,高新园区,20190106,38.86877373541043,121.52975162654023,圣托里尼,28,17942,大连斌弘物业管理有限公司,1.8,辽宁,1,二手房,2013
大连市沙河口区五四路199-4号,大连,无开发商,西岗,20190106,38.907987066040505,121.60249214877012,世纪家园(西岗),2,14679,大连铁龙物业管理有限公司,0.3,辽宁,1,二手房,2000
无门店信息,大连,大连顺迈房地产开发有限公司,沙河口,20190106,34.52713835999158,118.76812980670795,星海国宝,36,18464,长城物业集团股份有限大连分公司,3,辽宁,1,二手房,2003
甘井子区红南东街7-7号,大连,大连均卫达房地产开发有限公司,甘井子,20190106,38.92880462247992,121.54144910207062,亲亲阳光,10,10794,大连万泰物业管理有限公司,0.5,辽宁,1,二手房,2004
沙河口区锦霞南园13号3-1-1,大连,大连锦绣房地产开发有限公司,沙河口,20190106,38.921778341674376,121.58261780680284,锦华南园,20,9744,大连锦绣物业管理有限公司,0.3,辽宁,1,二手房,2002
中山区金城街26号一楼,大连,无开发商,中山,20190106,38.922282529515634,121.65214466263014,九中洛川街,15,30298,无物业管理服务,-,辽宁,1,二手房,1995
沙河口区中山路417A-4号,大连,大连宝嘉房地产有限公司,沙河口,20190106,38.90734671814175,121.59482182703752,德源筑座,15,19391,大连乐尔居物业服务有限公司,2.5,辽宁,1,二手房,2009
甘井子区知音园20号3单元1层1号,大连,大连诚信万奕房地产开发有限公司,高新园区,20190106,38.95546176066109,121.5285003794903,万奕学院派,10,23867,大连空港物业管理有限公司,1.3,辽宁,1,二手房,2010
沙河口区黄浦路18号—5号公建,大连,大连高新技术产业园区建设开发总公司,高新园区,20190106,38.8771225143479,121.54427480390662,学府1+1,4,17406,街道办事处（居委会）代管物业,0.5,辽宁,1,二手房,2007
沙河口区成仁街91号,大连,大连城市建设集团有限公司,沙河口,20190106,38.91539947107844,121.59585638842556,79中学中盈家园,21,18061,街道办事处（居委会）代管物业,0.5,辽宁,1,二手房,2002
甘井子区泉水D1区37-7号,大连,大连运腾房地产开发有限公司,甘井子,20190106,39.013992871679214,121.61921940045104,锦泉源D3区,58,11434,大连南虹物业管理有限公司,0.5,辽宁,1,二手房,2007
甘井子区锦城东园1号3单元1层2号,大连,大连鹏生房地产开发有限公司,甘井子,20190106,38.952805477462775,121.55656194973994,鹏辉新纪元,15,14954,大连鹏辉物业管理有限公司,0.5,辽宁,1,二手房,2006
大连市沙河口区五四路199-4号,大连,大连新型房地产开发有限公司,西岗,20190106,38.907987066040505,121.60249214877012,新华公寓,4,14207,大连新型物业管理有限公司,0.5,辽宁,1,二手房,1997
西岗区新田巷27号1-2,大连,大连海苑房屋开发有限公司,西岗,20190106,38.893215932589385,121.64103065169111,半岛故乡,6,14597,大连半岛物业管理有限公司,0.8,辽宁,1,二手房,2002
高新园区敬贤街25-9,大连,大连邦盛发展有限公司,高新园区,20190106,38.86877373541043,121.52975162654023,雯君庭,29,19043,大连意美物业服务有限公司,2.3,辽宁,1,二手房,2013
中山区秀月街37号1层2号,大连,大连澳南房屋开发有限公司,中山,20190106,38.88757907576307,121.66311065527876,明秀嘉园,5,21610,大连澳南物业管理有限公司,1.2,辽宁,1,二手房,2007
西岗区八一路102号,大连,大连长策房屋开发有限公司,西岗,20190106,38.891094924332045,121.65327483516513,捷山观海,8,17644,大连鑫晟物业管理有限公司,2,辽宁,1,二手房,2009
中山区共建巷61号,大连,大连恒盛房屋开发有限公司,中山,20190106,38.91828093658718,121.66259221532148,月恒花园,5,24748,大连佳捷物业管理有限公司,0.8,辽宁,1,二手房,2001
甘井子区华北路花锦园28号23-3-1-2建筑物,大连,大连东特房地产开发有限公司,沙河口,20190106,38.951627958411166,121.5739439799003,东特新居,12,10944,大连东特祥禾物业管理有限公司,0.5,辽宁,1,二手房,2000
沙河口区南沙街36号台二2号1-1-37,大连,大连市中联房地产开发有限公司,沙河口,20190106,38.90741410359388,121.57685699961822,健龙苑,20,20653,大连正源物业服务有限公司,0.5,辽宁,1,二手房,2000
甘井子区惠泽南园3-4号,大连,大连长鹭房屋开发有限公司,甘井子,20190106,38.939326611323615,121.52337842113351,晶品缘林,20,14357,大连三和住邦物业管理有限公司,1,辽宁,1,二手房,2008
沙河口区长江路738号,大连,大连凯润房屋开发有限公司,西岗,20190106,38.92379936592553,121.61207696256155,景润二期,17,11045,大连凯润物业管理有限公司,0.3,辽宁,1,二手房,2000
中山区爱华街13号,大连,大连一方地产有限公司,中山,20190106,38.92541607518685,121.6535728031028,一方国际,23,30440,大连一方物业管理有限公司,4.8,辽宁,1,二手房,2013
金州区小平岛B组团4号楼3号商铺,大连,大连圣岛房地产开发有限公司,高新园区,20190106,39.2986190718601,121.95658248043723,小平岛邻海园,29,15201,大连凯尔富物业管理有限公司,1.3,辽宁,1,二手房,2007
沙河口区成仁街91号,大连,无开发商,沙河口,20190106,38.91539947107844,121.59585638842556,西安路公寓,11,10868,大连协和物业管理有限公司,0.5,辽宁,1,二手房,2000
沙河口区连山街10号2-1-2,大连,大连城市建设集团有限公司,沙河口,20190106,38.89637522563413,121.57143690983219,城建花园,7,14806,大连城建开发集团物业管理有限公司,0.5,辽宁,1,二手房,2002
中山区中南路226号,大连,大连市建设控股有限公司,中山,20190106,38.90029610333926,121.68178899957817,欧洲小镇,10,17622,大连大众物业管理有限公司,0.8,辽宁,1,二手房,2004
中山区中南路226号,大连,大连悦泰集团有限公司,中山,20190106,38.90029610333926,121.68178899957817,悦泰林里,11,23239,大连腾馨物业管理有限公司,1.2,辽宁,1,二手房,2006
甘井子区榆水街6-9号公建,大连,大连弘润置业有限公司,甘井子,20190106,38.97957540063716,121.52458567456938,万科城市之光,33,19641,大连万科物业服务有限公司,2.8,辽宁,1,二手房,2015
甘井子区汇仁街19号12号楼1单元102室,大连,大连华南房地产开发有限公司,甘井子,20190106,38.99746297497168,121.58917714380617,名贵山庄华夏园,10,12157,大连弘益达物业管理有限公司,0.5,辽宁,1,二手房,2004
沙河口区南沙街36号台二2号1-1-37,大连,大连康加立置业有限公司,沙河口,20190106,38.90741410359388,121.57685699961822,台四小区,31,10965,大连弘达物业管理有限公司,-,辽宁,1,二手房,1996
西岗区长红街4号1号公建,大连,大连融泰房地产开发有限公司,西岗,20190106,38.91377414665191,121.6302525225721,融泰花园,12,20963,大连长春花园物业管理有限公司,0.6,辽宁,1,二手房,1996
沙河口区连山街44-2号半地下一层（地上一层部分）,大连,大连宏都房地产开发有限公司,沙河口,20190106,38.892991456958086,121.57299542767161,宏都筑景Ⅱ期,5,22902,东方百瑞物业有限公司,1.8,辽宁,1,二手房,2012
西岗区康平街2号（5号楼3-1-3号）,大连,大连圣元房地产开发有限公司,西岗,20190106,38.91044414697888,121.61980769264477,亿达天琴山,16,19544,亿达物业管理有限公司,2.5,辽宁,1,二手房,2013
甘井子区祥龙街2号楼1单元1楼1号,大连,万象地产房地产开发有限公司,甘井子,20190106,38.988045874482445,121.60439401971377,枣园万象,10,14393,大连润东物业管理有限公司,1.7,辽宁,1,二手房,2012
开发区润海园中区18#2号,大连,华润（大连）房地产有限公司,开发区,20190106,39.04047273176333,121.76392358042445,华润海中国六期,41,13075,华润物业（大连）有限公司,3.1,辽宁,1,二手房,2016
沙河口区长江路946号-9,大连,无开发商,沙河口,20190106,38.92295863621255,121.59735298157467,城品城,7,16670,大连万景物业管理有限公司,2,辽宁,1,二手房,2010
沙河口区五一路219-1,大连,大连圣北房地产有限公司,沙河口,20190106,38.9026964858514,121.56644125985508,电业花园,9,11801,大连市沙河口房产物业管理有限公司,0.3,辽宁,1,二手房,1999
沙河口区西南路851号3单元1层3号,大连,大连振屹房屋开发有限公司,沙河口,20190106,38.94344210837944,121.58246796944378,柳馨家园,4,10741,街道办事处（居委会）代管物业,0.6,辽宁,1,二手房,2000
大连市甘井子区燕南园50号,大连,大连鑫园房屋开发有限公司,高新园区,20190106,38.90172480153224,121.5363466289672,新新园一期,15,13561,大连理工物业管理中心,0.3,辽宁,1,二手房,2000
西岗区八一路196号1-3,大连,大连三环置业有限公司,西岗,20190106,38.89127420834314,121.6483201412943,桃花源小区,39,8831,大连三寰物业管理有限公司,0.5,辽宁,1,二手房,1996
中山区共建巷61号,大连,无开发商,中山,20190106,38.91828093658718,121.66259221532148,39中明泽街,20,21263,无物业管理服务,-,辽宁,1,二手房,1993
中山区碧浪园4号-3号,大连,大连三寰房地产开发有限公司,中山,20190106,38.89147289460474,121.69329560326236,碧浪园一期,31,12254,大连峰霖物业管理有限公司,0.3,辽宁,1,二手房,1999
沙河口区民权街324号,大连,无开发商,沙河口,20190106,38.92064616208148,121.59777611850379,79中恒泰大厦,4,17425,大连衡德物业管理有限公司,0.4,辽宁,1,二手房,1996
西岗区长春路334号,大连,大连源通房地产开发有限公司,西岗,20190106,38.89807766522607,121.63221082858387,南石源居,2,14726,大连源通物业管理有限公司,1.3,辽宁,1,二手房,2009
沙河口区长江路946号-9,大连,大连机车商业城有限公司,沙河口,20190106,38.92295863621255,121.59735298157467,兴工街,53,10993,街道办事处（居委会）代管物业,0.2,辽宁,1,二手房,1985
沙河口区鞍山路65号美都园7号1单元1层4号公建,大连,远洋地产有限公司,沙河口,20190106,38.92727525772336,121.60296423346817,绿都园,11,12259,大连峰霖物业管理有限公司,0.6,辽宁,1,二手房,2000
沙河口区富国街34-3,大连,大连万达房地产开发有限公司,沙河口,20190106,38.90160386349964,121.58915317342193,星海自由港,8,17318,大连万景物业管理有限公司,1.2,辽宁,1,二手房,2003
中山区爱华街13号,大连,无开发商,中山,20190106,38.92541607518685,121.6535728031028,九中一德街,11,36033,无物业管理服务,-,辽宁,1,二手房,1984
中山区三八广场5号,大连,大连宏正房地产开发有限公司,中山,20190106,38.92540000551715,121.6642911149562,宏都嘉园,1,20528,大连宏进物业管理有限公司,1.5,辽宁,1,二手房,2002
西岗区大同街125号,大连,大连新型房地产开发有限公司,西岗,20190106,38.920458602340894,121.61445835429899,银寰花园,15,9798,街道办事处（居委会）代管物业,0.5,辽宁,1,二手房,1995
甘井子区金家街17-7号,大连,大连衡锐房屋开发有限公司,甘井子,20190106,38.97493697764367,121.60110987128529,衡逸园一期,24,16695,大连衡锐物业管理公司,1,辽宁,1,二手房,2010
沙河口区展望街29,大连,大连嘉源置业发展有限公司,沙河口,20190106,38.93473052900021,121.57390298303343,御园,43,16029,大连御博物业,2,辽宁,1,二手房,2015
甘井子区辛寨子街道中冶蓝城辛虹园39-7号公建,大连,大连中冶京诚置业有限公司,甘井子,20190106,38.98155611421408,121.49259383356096,中冶蓝城D区,30,13798,大连添翼物业服务有限公司,2,辽宁,1,二手房,2011
中山区南山路59号1层4号,大连,大连恒一嘉元置业有限公司,中山,20190106,38.91992239075882,121.6479206962747,南山首府,3,27434,大连恒信物业服务有限公司,4,辽宁,1,二手房,2015
大连市甘井子区椒房街24号楼2-104链家地产,大连,大连凯祥房地产开发有限公司,甘井子,20190106,38.985363789837166,121.61034055597686,椒金山庄,14,13892,大连凯祥物业管理有限公司,0.5,辽宁,1,二手房,2000
西岗区中山路158号唐山街市场外14号,大连,海运集团大连房屋开发有限公司,西岗,20190106,38.91835355789945,121.63274981188985,宝居佳苑,2,22276,大连城建开发集团物业管理有限公司,2,辽宁,1,二手房,2011
天河路173-2号 华润考拉22号公建,大连,大连华南房地产开发有限公司,甘井子,20190106,23.147151253133927,113.3277313198351,名贵山庄华丽园,19,11375,大连弘益达物业管理有限公司,0.5,辽宁,1,二手房,2002
大连市沙河口区西南路875号1层21号,大连,大连泰安房地产开发有限公司,沙河口,20190106,38.94485969061231,121.58418648447764,春柳河小区,20,10288,大连三宝物业有限公司,0.5,辽宁,1,二手房,2001
高新园敬贤街23-11号,大连,大连晟远房地产开发有限公司,高新园区,20190106,38.86956637166276,121.5301657390922,恒瑞坦城,52,15931,大连恒德物业服务有限公司,2.4,辽宁,1,二手房,2015
中山区武昌街武昌公寓6号公建,大连,大连中盛集团有限公司,中山,20190106,38.912280913445784,121.64921130527547,武昌花园,10,12236,无物业管理服务,0.3,辽宁,1,二手房,1990
沙河口区西南路358号1—2号,大连,大连恒安房地产开发有限公司,沙河口,20190106,38.90839654326566,121.56908246905662,水芙山竹,10,19435,大连上达物业管理有限公司,0.6,辽宁,1,二手房,2005
沙河口区星海广场B3区14-2号1层,大连,华润置地（大连）有限公司,沙河口,20190106,38.88693148294673,121.58735631267305,星海湾壹号,36,44863,华润物业（大连）有限公司,4.8,辽宁,1,二手房,2008
中山区爱华街13号,大连,无开发商,中山,20190106,38.92541607518685,121.6535728031028,九中爱华街,8,33736,无物业管理服务,-,辽宁,1,二手房,1992
西岗区新田巷11号三单元103,大连,大连龙润房屋开发有限公司,西岗,20190106,38.89276612016956,121.64190731791966,叠彩桃源,3,14982,大连龙润物业管理有限公司,0.8,辽宁,1,二手房,2003
甘井子区泉水B2区19-1号,大连,大连运达房地产集团有限公司,甘井子,20190106,39.0101309886317,121.60812584213187,锦泉源B1区,38,11529,大连佳泰物业管理有限公司,0.5,辽宁,1,二手房,2001
沙河口区红旗东路18-22号2单元1楼3号,大连,大连益海房屋开发有限公司,沙河口,20190106,38.921778341674376,121.58261780680284,西苑花园,4,12679,大连宏溢达物业管理有限公司,0.5,辽宁,1,二手房,2000
高新园敬贤街23-11号,大连,大连恒瑞房地产开发有限公司,高新园区,20190106,38.86956637166276,121.5301657390922,大湖山语,27,18865,大连龙湖物业服务有限公司,2.8,辽宁,1,二手房,2015
开发区小孤山西里3栋-11号,大连,大连广隆房地产开发有限公司,开发区,20190106,39.02715282297674,121.80682183666346,文华园,20,9032,大连广隆物业管理有限公司,1.1,辽宁,1,二手房,2007
西岗区黄河路90号公建部分,大连,大连兴昌房屋开发有限公司,西岗,20190106,38.92234529815978,121.62829331825485,兴昌都市首府,2,27818,大连戴德梁行物业管理有限公司,1.5,辽宁,1,二手房,2005
甘井子区金家街17-7号,大连,大连衡锐房屋开发有限公司,甘井子,20190106,38.97493697764367,121.60110987128529,温莎小镇,4,18324,大连长波物业管理有限公司,1.5,辽宁,1,二手房,2013
中山区碧浪园4号-3号,大连,大连三寰房地产开发有限公司,中山,20190106,38.89147289460474,121.69329560326236,碧浪园二期,7,14780,大连峰霖物业管理有限公司,0.3,辽宁,1,二手房,2002
沙河口区西南路40号楼,大连,亿达房地产开发有限公司,沙河口,20190106,38.94141605900714,121.58612100465703,星浦庄园,11,10125,大连香都物业管理有限公司,0.5,辽宁,1,二手房,1997
开发区松苑街23号,大连,开发区城建局,开发区,20190106,22.52087710763645,113.40156104777168,东山花园,10,11202,大连戎旅物业管理有限公司,0.8,辽宁,1,二手房,2006
中山区武昌街武昌公寓6号公建,大连,大连海昌房屋开发有限公司,中山,20190106,38.912280913445784,121.64921130527547,海昌华城,9,17358,大连海昌欣城物业管理有限公司,1.1,辽宁,1,二手房,1997
甘井子区泉水D1区10-2#1-1-7,大连,大连运达房地产集团有限公司,甘井子,20190106,39.014763910942854,121.61661407462454,锦泉源B4区,25,10366,大连佳泰物业管理有限公司,0.5,辽宁,1,二手房,2002
西岗区华北路100号1层5号,大连,大连双振房屋开发有限公司,沙河口,20190106,38.91336952993919,121.6258229781024,香茗苑,2,13827,大连双振物业有限公司,0.5,辽宁,1,二手房,2003
中山区秀月街37号1层2号,大连,大连澳南房屋开发有限公司,中山,20190106,38.88757907576307,121.66311065527876,清溪南苑,2,15792,大连中园房地产物业公司,0.6,辽宁,1,二手房,2003
中山区鲁迅路184号1层B—A,大连,大连华顺房地产开发公司,中山,20190106,38.92590875965419,121.67594393403164,春和花园,9,13550,大连华富物业管理有限公司,0.5,辽宁,1,二手房,2004
沙河口区红凌路137号,大连,大连大实企业集团房屋开发有限公司,甘井子,20190106,38.922699288974506,121.54713601744747,泊林映山,13,10929,大连弘实物业管理有限公司,1.2,辽宁,1,二手房,2011
开发区松苑街23号,大连,暂无信息,开发区,20190106,22.52087710763645,113.40156104777168,松峪里二期,4,11082,大连中信物业管理有限公司,0.5,辽宁,1,二手房,2000
大连市甘井子区融田西园52-11,大连,大连圣安房地产开发有限公司,甘井子,20190106,38.95546176066109,121.5285003794903,亿达春田晴湾,48,15105,亿达物业管理有限公司,2.2,辽宁,1,二手房,2013
西岗区鞍山路65-5号,大连,大连大重房屋开发有限公司,沙河口,20190106,38.92701992456326,121.60258216167713,江都春华园,2,23206,大连万兴物业管理有限公司,0.8,辽宁,1,二手房,2008
中山区南山路59号1层4号,大连,大连铁路房地产开发有限责任公司,中山,20190106,38.91992239075882,121.6479206962747,延安小区,16,19193,大连铁路物业管理有限公司,0.5,辽宁,1,二手房,1995
甘井子区泉水B2区19-1号,大连,北方沿海房地产开发（大连）有限公司,甘井子,20190106,39.0101309886317,121.60812584213187,沿海鉴筑二期,20,13946,美佳物业管理（深圳）有限公司大连分公司,1.5,辽宁,1,二手房,2012
西岗区香炉礁24号1-1,大连,大连大骏达房地产开发有限公司,西岗,20190106,38.91336952993919,121.6258229781024,骏达阅阳楼,9,9923,街道办事处（居委会）代管物业,1.2,辽宁,1,二手房,2010
中山区三八广场5号,大连,大连新型房地产开发总公司,中山,20190106,38.92540000551715,121.6642911149562,二七公寓,12,16399,大连新型物业管理有限公司,0.8,辽宁,1,二手房,1999
沙河口区鞍山路65号美都园7号1单元1层4号公建,大连,大连诚瑞项目管理有限公司,沙河口,20190106,38.92727525772336,121.60296423346817,万向城,32,10362,大连好管家物业管理有限公司,1.9,辽宁,1,二手房,2010
沙河口区兰田街33号,大连,大连大力房地产开发有限公司,沙河口,20190106,38.926138912221084,121.56486022834609,电业逸彩园,7,15815,大连亿安物业管理有限公司,0.5,辽宁,1,二手房,2002
沙河口区昌黎街22号,大连,大连城市建设集团有限公司,沙河口,20190106,38.91975785098891,121.59109628369768,天兴罗斯福,38,14101,大连天兴物业管理有限公司,1.6,辽宁,1,二手房,2004
西岗区鞍山路29号龙畔锦城东门,大连,大连大世界房地产开发有限公司,西岗,20190106,38.92763470697088,121.61498923399098,第九频道,30,23007,大世界商业联合机构,3.6,辽宁,1,二手房,2014
甘井子区泡崖六小区6号楼1单元1层2号,大连,大连新型房地产开发有限公司,甘井子,20190106,38.98033159306754,121.55920598894072,泡崖六区,25,9895,大连新兴物业管理有限公司,0.3,辽宁,1,二手房,2002
甘井子区虹港路16号楼1层公建,大连,大连鑫奇房地产开发有限公司,甘井子,20190106,38.96457808198196,121.55421052098279,鑫境界,56,11032,大连鑫境界物业管理有限公司,1.3,辽宁,1,二手房,2009
西岗区黄河路362号公建,大连,亿达集团大连房地产开发有限公司,西岗,20190106,38.91819905243802,121.61365779430986,亿达新世界,13,15538,亿达物业管理有限公司,0.5,辽宁,1,二手房,2001
甘井子区迎客路郭东街一品蓝天公建14号,大连,沈阳军区后勤部,甘井子,20190106,38.958456949708726,121.556756277476,金寓花园三期,4,15875,大连瑞祥物业管理有限公司,1,辽宁,1,二手房,2009
沙河口区长江路738号,大连,大连城市建设集团有限公司,沙河口,20190106,38.92379936592553,121.61207696256155,21中广电中心,17,16816,无物业管理服务,-,辽宁,1,二手房,1992
金州区小平岛B组团4号楼3号商铺,大连,大连安达房地产开发有限公司,高新园区,20190106,39.2986190718601,121.95658248043723,小平岛E东组团,28,18339,大连凯尔富物业管理有限公司,1.3,辽宁,1,二手房,2007
甘井子区辛寨子街道中冶蓝城辛虹园39-7号公建,大连,大连中冶京诚置业有限公司,甘井子,20190106,38.98155611421408,121.49259383356096,中冶蓝城C区,26,14880,大连添翼物业服务有限公司,2,辽宁,1,二手房,2011
中山区共建巷61号,大连,无开发商,中山,20190106,38.91828093658718,121.66259221532148,39中永青街,7,23132,街道办事处（居委会）代管物业,0.5,辽宁,1,二手房,1995
中山区秀月街37号1层2号,大连,无开发商,中山,20190106,38.88757907576307,121.66311065527876,秀月小区,20,14467,无物业管理服务,0.5,辽宁,1,二手房,1982
中山区金城街26号一楼,大连,无开发商,中山,20190106,38.922282529515634,121.65214466263014,九中武汉街,6,32597,无物业管理服务,-,辽宁,1,二手房,1991
中山区民建街10号1单元1号,大连,无开发商,中山,20190106,38.925444479476894,121.66915026954452,39中学士街,22,17676,无物业管理服务,-,辽宁,1,二手房,1995
西岗区黄河路90号公建部分,大连,无开发商,西岗,20190106,38.92234529815978,121.62829331825485,37中合谊街,7,13841,无物业管理服务,-,辽宁,1,二手房,1993
中山区民运巷 47号1层2号,大连,暂无信息,中山,20190106,38.905955122300846,121.64798148011702,新兴小区,5,8226,暂无信息,0.5,辽宁,1,二手房,2000
甘井子区华东路33-5号,大连,大连景和房屋开发有限公司,甘井子,20190106,38.97497080220593,121.59479866243332,怡景园,12,14597,大连景和物业管理有限公司,0.5,辽宁,1,二手房,2002
甘井子区山东路137号,大连,大连华南房地产开发有限公司,甘井子,20190106,38.99129404608926,121.59172125999353,名贵山庄青年公寓,8,12680,大连弘益达物业管理有限公司,0.5,辽宁,1,二手房,2004
甘井子区华北路花锦园28号23-3-1-2建筑物,大连,大连东特房地产开发有限公司,甘井子,20190106,38.951627958411166,121.5739439799003,星中环广场,15,16325,大连东特物业管理有限公司,1.2,辽宁,1,二手房,2009
无门店信息,大连,大连长鹭房屋开发有限公司,甘井子,20190106,34.52713835999158,118.76812980670795,晶品森岚,13,12749,大连旺宇物业有限公司,1.3,辽宁,1,二手房,2009
甘井子区惠泽南园3-4号,大连,大连全统房地产开发有限公司,甘井子,20190106,38.939326611323615,121.52337842113351,全统西山丽水,16,12711,大连新华物业管理有限公司,0.5,辽宁,1,二手房,2008
沙河口区黑石礁街5号1层1号,大连,大连鹏生房地产开发有限公司,沙河口,20190106,38.879813345473714,121.56313742300513,鹏莱花园,6,12877,大连新兴物业管理有限公司,0.3,辽宁,1,二手房,1998
西岗区新田巷27号1-2,大连,大连安大房屋开发有限公司,西岗,20190106,38.893215932589385,121.64103065169111,仲夏花园,4,13154,大连长风物业管理有限公司,0.4,辽宁,1,二手房,1997
无门店信息,大连,大连腾达房地产开发有限公司,中山,20190106,34.52713835999158,118.76812980670795,紫竹轩,10,15181,大连市晟阳物业管理有限公司,1,辽宁,1,二手房,2003
沙河口区数码路(北段)20-6号,大连,无开发商,高新园区,20190106,38.890045799133254,121.55191912957606,中辰国际公寓,4,15269,大连阿尔滨汇城物业服务有限公司,2.5,辽宁,1,二手房,2008
沙河口区长江路946号-9,大连,大连北洋房屋开发公司,沙河口,20190106,38.92295863621255,121.59735298157467,北洋小区,8,12508,大连天洋物业管理有限公司,0.5,辽宁,1,二手房,1999
开发区红星海B区212-1,大连,远洋地产有限公司,开发区,20190106,39.027851194371685,121.80327394132297,红星海时光的岸,65,12010,大连远洋基业物业管理有限公司,3.1,辽宁,1,二手房,2015
沙河口区黄浦路18号—5号公建,大连,大连良运房地产开发有限公司,高新园区,20190106,38.8771225143479,121.54427480390662,翰林观海公寓,16,15697,大连良运物业管理有限公司,0.8,辽宁,1,二手房,2003
无门店信息,大连,大连景和房屋开发有限公司,甘井子,20190106,34.52713835999158,118.76812980670795,怡华园,14,14506,大连景和物业管理有限公司,0.5,辽宁,1,二手房,2001
大连市甘井子区椒房街24号楼2-104链家地产,大连,大连港置地有限公司,甘井子,20190106,38.985363789837166,121.61034055597686,大连港天下粮仓,19,18046,大连万科物业服务有限公司,2.2,辽宁,1,二手房,2017
大连市沙河口区五四路199-4号,大连,大连建兴房屋开发有限公司,沙河口,20190106,38.907987066040505,121.60249214877012,建兴花园小区,5,11701,大连建兴物业管理有限公司,0.4,辽宁,1,二手房,1997
大连市沙河口区黄河路729号,大连,大连天河房地产开发集团有限公司,沙河口,20190106,38.91710565765228,121.58954758972729,天河100,5,17545,大连天河物业管理有限公司,0.8,辽宁,1,二手房,2004
西岗区华北路100号1层5号,大连,无开发商,西岗,20190106,38.91336952993919,121.6258229781024,远东小区,4,12066,无物业管理服务,-,辽宁,1,二手房,1999
甘井子区华北路花锦园28号23-3-1-2建筑物,大连,大连东特房地产开发有限公司,甘井子,20190106,38.951627958411166,121.5739439799003,东特星中环,11,14689,大连东特祥禾物业管理有限公司,0.8,辽宁,1,二手房,2006
沙河口区星海广场B3区14-9,大连,大连科宏房屋开发有限公司,沙河口,20190106,38.887408126588866,121.58732762887982,科宏花园,5,13540,无物业管理服务,-,辽宁,1,二手房,2000
中山区安居巷7号,大连,大连银洲房地产开发有限公司,中山,20190106,38.900436431991984,121.67796628922625,中央公馆,23,11363,大连银洲物业管理有限公司,3.5,辽宁,1,二手房,2004
西岗区平等街21号1层2号,大连,远洋地产有限公司,西岗,20190106,38.92251066253164,121.63236845125735,丽都花园,9,15158,无物业管理服务,1.5,辽宁,1,二手房,1997
沙河口区连山街44-2号半地下一层（地上一层部分）,大连,大连富华房地产有限公司,沙河口,20190106,38.892991456958086,121.57299542767161,富华山庄,6,14183,大连城建开发集团物业管理有限公司,0.5,辽宁,1,二手房,1998
中山区南山路59号1层4号,大连,深圳市东山开发有限公司,中山,20190106,38.91992239075882,121.6479206962747,昆明花园,3,17456,深圳市东山物业管理有限公司,0.5,辽宁,1,二手房,2000
大连市高新园区七贤中路63号,大连,大连乾丞房地产开发有限公司,高新园区,20190106,38.86053006357667,121.53273606963094,昊宇山海湾,11,20156,大连三和住邦物业管理有限公司,2.6,辽宁,1,二手房,2015
甘井子区甘井子路32号楼1单元1楼9号,大连,大连市建设控股有限公司,甘井子,20190106,38.982488275116516,121.63345389253514,胜景家园,11,10622,街道办事处（居委会）代管物业,0.9,辽宁,1,二手房,2009
大连市高新园区七贤中路63号,大连,大连鑫亿房屋开发有限公司,高新园区,20190106,38.86053006357667,121.53273606963094,瑞丰园,7,12841,无物业管理服务,-,辽宁,1,二手房,1999
沙河口区成仁街91号,大连,无开发商,沙河口,20190106,38.91539947107844,121.59585638842556,科技广场,23,10343,街道办事处（居委会）代管物业,0.8,辽宁,1,二手房,2001
中山区金城街26号一楼,大连,暂无信息,中山,20190106,38.922282529515634,121.65214466263014,枫林苑,2,19974,无物业管理服务,-,辽宁,1,二手房,1998
甘井子区泉水B5区27-9,大连,大连运达房地产集团有限公司,甘井子,20190106,39.014833760509994,121.60955220395961,锦泉源B6区,14,12769,政治物业管理有限公司,0.5,辽宁,1,二手房,2012
沙河口区联合路133号,大连,暂无信息,沙河口,20190106,38.91608561262676,121.60480987310456,21中天兴花园二期,5,17307,大连万泰物业管理有限公司,0.5,辽宁,1,二手房,1998
甘井子区山东路商业街D区12号公建,大连,无开发商,甘井子,20190106,39.001060021502965,121.58883960371418,兴华路,29,10050,街道办事处（居委会）代管物业,0.5,辽宁,1,二手房,1989
沙河口区兰田街33号,大连,无开发商,沙河口,20190106,38.926138912221084,121.56486022834609,858家园,4,11193,无物业管理服务,-,辽宁,1,二手房,2000
中山区中南路店212号门头房,大连,峰尚房屋开发有限公司,中山,20190106,38.91149759691359,121.67700561077149,峰尚中南,16,14156,大连银洲物业管理有限公司,2.2,辽宁,1,二手房,2011
金州区小平岛B组团4号楼3号商铺,大连,大连圣岛房地产开发有限公司,高新园区,20190106,39.2986190718601,121.95658248043723,小平岛邻海园H组团,11,17741,大连凯尔富物业管理有限公司,1.3,辽宁,1,二手房,2009
莲花山路89-3号,大连,大连兴达房地产有限公司,西岗,20190106,38.90273559371702,121.6046814926709,香都花园,2,12999,大连香都物业管理有限公司,0.8,辽宁,1,二手房,1993
高新园敬贤街23-11号,大连,暂无信息,高新园区,20190106,38.86956637166276,121.5301657390922,中海紫御观邸二期,20,19693,大连中海物业管理有限公司,2.6,辽宁,1,二手房,2013
中山区鲁迅路184号1层B—A,大连,大连泰达新城建设发展有限公司,中山,20190106,38.92590875965419,121.67594393403164,泰达花园,6,18580,大连国合物业管理有限公司,1,辽宁,1,二手房,2000
大连市沙河口区五四路199-4号,大连,暂无信息,西岗,20190106,38.907987066040505,121.60249214877012,商都花园,2,12098,大连天河物业管理有限公司,0.3,辽宁,1,二手房,1993
沙河口区西南路643号,大连,无开发商,沙河口,20190106,38.943483429804665,121.5833555851182,西关街,30,9741,无物业管理服务,-,辽宁,1,二手房,1995
无门店信息,大连,大连一方东港置地有限公司,中山,20190106,34.52713835999158,118.76812980670795,中庚当代艺术,14,22712,大连中庚物业管理有限公司,4.5,辽宁,1,二手房,2015
中山区民建街10号1单元1号,大连,无开发商,中山,20190106,38.925444479476894,121.66915026954452,39中太阳街,13,19191,无物业管理服务,-,辽宁,1,二手房,1996
西岗区黄河路90号公建部分,大连,无开发商,西岗,20190106,38.92234529815978,121.62829331825485,长江杰座,8,22696,大连长江物业管理有限公司,1.5,辽宁,1,二手房,2004
中山区杏林街66—5号,大连,大连泰元房地产开发有限公司,中山,20190106,38.9244189768098,121.6630029448549,保华旺苑,10,24853,保华物业管理（大连）有限公司,3.8,辽宁,1,二手房,2016
中山区中南路226号,大连,大连华钧房地产开发有限公司,中山,20190106,38.90029610333926,121.68178899957817,半山花园,5,10203,大连仁和物业管理有限公司,0.7,辽宁,1,二手房,2000
甘井子区红旗中路143号1层4号,大连,亿海房地产开发有限公司,甘井子,20190106,38.93169566676921,121.5426632438217,水苑居,3,14782,大连万泰物业管理有限公司,0.6,辽宁,1,二手房,2003
高新园区书香街1A#1-1-2,大连,大连和升房地产开发有限公司,高新园区,20190106,38.880372108393104,121.55218773010999,学苑广场九号,6,25372,大连戴德梁行物业管理有限公司,2.8,辽宁,1,二手房,2017
大连市沙河口区五四路199-4号,大连,无开发商,沙河口,20190106,38.907987066040505,121.60249214877012,动力花园,0,17317,无物业管理服务,-,辽宁,1,二手房,2004
甘井子区山东路137号,大连,大连华南房地产开发有限公司,甘井子,20190106,38.99129404608926,121.59172125999353,名贵山庄华美园,8,11601,大连弘益达物业管理有限公司,0.5,辽宁,1,二手房,2002
沙河口区杨树街4-4号公建,大连,无开发商,高新园区,20190106,38.88444587249751,121.55130620045541,育明高中,4,14568,无物业管理服务,-,辽宁,1,二手房,1998
甘井子区新兴路36号3-1-3,大连,大连新型房地产开发有限公司,甘井子,20190106,38.95546176066109,121.5285003794903,泡崖二区,46,8820,大连新兴物业管理有限公司,0.5,辽宁,1,二手房,1997
沙河口区昌黎街77号楼第1层公建,大连,大连高新园区建设开发总公司,沙河口,20190106,38.91974518366595,121.5902918379551,79中昌隆大厦,10,16163,无物业管理服务,-,辽宁,1,二手房,1998
无门店信息,大连,大连万林房地产开发有限公司,甘井子,20190106,34.52713835999158,118.76812980670795,我爱我家,10,12519,大连弘实物业管理有限公司,1.3,辽宁,1,二手房,2011
甘井子区泉水P3区35-2号,大连,大连鑫成置业有限公司,甘井子,20190106,39.01527710332192,121.63580499384456,欧尚广场,33,15890,大连宏华物业服务有限公司,1.5,辽宁,1,二手房,2014
甘井子区泉水H3区15号3单元1层2号,大连,大连新型房地产开发有限公司,甘井子,20190106,39.00158439075201,121.62616882572375,龙畔金泉一期,14,9902,大连新型物业管理有限公司,0.5,辽宁,1,二手房,2002
甘井子区锦城西园4#3-1-1,大连,沈阳军区后勤部,甘井子,20190106,38.95286223185571,121.55129044777,金寓花园一期,3,14520,大连瑞祥物业管理有限公司,0.5,辽宁,1,二手房,2003
甘井子区佳林北园2-7号,大连,大连加尔伦房地产开发有限公司,甘井子,20190106,38.96331610956877,121.52802328494242,万科金域华府,28,20306,大连万科物业服务有限公司,3,辽宁,1,二手房,2016
中山区解放路604号,大连,大连雅风房屋开发有限公司,中山,20190106,38.89026319122045,121.66407876092346,桃源旺座,1,14680,大连豪斯沃克物业有限公司,1,辽宁,1,二手房,2007
开发区兴城路29-81层,大连,无开发商,开发区,20190106,39.05020829677517,121.7578103751747,佳和园,11,12476,大连西海岸物业管理有限公司,1,辽宁,1,二手房,2005
沙河口区联合路133号,大连,大连五环房屋开发有限公司,沙河口,20190106,38.91608561262676,121.60480987310456,汇利嘉园,5,20318,大连银力物业管理有限公司,0.5,辽宁,1,二手房,2003
沙河口区西南路40号楼,大连,大连金通房屋开发有限公司,沙河口,20190106,38.94141605900714,121.58612100465703,海韵花园,8,12377,大连金通物业管理有限公司,0.4,辽宁,1,二手房,2000
中山区华乐街71号公建,大连,暂无信息,中山,20190106,38.923187679200566,121.6843197903016,东港印象A区,22,16606,大连众和物业管理有限公司,1.2,辽宁,1,二手房,2008
中山区杏林街66—5号,大连,大连嘉和房地产集团有限公司,中山,20190106,38.9244189768098,121.6630029448549,嘉和园,3,20098,大连嘉和物业管理有限公司,3,辽宁,1,二手房,2005
沙河口区兰田街33号,大连,无开发商,沙河口,20190106,38.926138912221084,121.56486022834609,马栏广场,6,9600,无物业管理服务,0.4,辽宁,1,二手房,2000
中山区鲁迅路184号1层B—A,大连,无开发商,中山,20190106,38.92590875965419,121.67594393403164,39中山岳街,6,17146,无物业管理服务,-,辽宁,1,二手房,1998
开发区小孤山西里3栋-11号,大连,大连光伸房地产开发有限公司,开发区,20190106,39.02715282297674,121.80682183666346,绿洲半岛一期,31,8526,大连经济技术开发区海青物业有限公司,0.5,辽宁,1,二手房,2004
中山区华乐街71号公建,大连,首开集团,中山,20190106,38.923187679200566,121.6843197903016,首开铂郡,10,21917,北京燕侨物业管理有限公司大连分公司,3.8,辽宁,1,二手房,2016
甘井子区哲林北园17-6号,大连,大连恒宇房地产开发有限公司,甘井子,20190106,38.9600267109581,121.53876726228256,恒宇祥苑,4,9083,亿达物业管理有限公司,0.5,辽宁,1,二手房,2003
西岗区平等街21号1层2号,大连,辽宁宁安房地产开发有限公司,西岗,20190106,38.92251066253164,121.63236845125735,良玖国际,20,13561,大连良玖物业管理有限责任公司,3.7,辽宁,1,二手房,2005
经济技术开发区城润万家4-5号公建,大连,诠盛置业（大连）有限公司,开发区,20190106,39.05716325096989,121.75946281983826,清都记忆,30,10709,金科物业服务集团有限公司,0.5,辽宁,1,二手房,2013
大连市高新园区七贤中路63号,大连,大连龙海房地产开发有限公司,高新园区,20190106,38.86053006357667,121.53273606963094,华录园,13,13027,无物业管理服务,-,辽宁,1,二手房,1995
沙河口区兰田街33号,大连,无开发商,沙河口,20190106,38.926138912221084,121.56486022834609,西苑新区,2,12579,街道办事处（居委会）代管物业,0.3,辽宁,1,二手房,2000
甘井子区凌秀路37号-1链家地产,大连,无开发商,高新园区,20190106,38.883794285403965,121.52361997548515,海事附小,9,12005,街道办事处（居委会）代管物业,0.5,辽宁,1,二手房,1990
沙河口区中山路417A-4号,大连,大连电业房地产开发有限公司,沙河口,20190106,38.90734671814175,121.59482182703752,电力公寓,8,13089,街道办事处（居委会）代管物业,0.7,辽宁,1,二手房,2000
中山区职工街96号1-3层公建,大连,大连嘉和房地产开发有限公司,中山,20190106,38.92565613737007,121.66193575790903,嘉和花样年华四期,6,22549,大连嘉和物业管理有限公司,3.8,辽宁,1,二手房,2005
甘井子区惠泽南园3-4号,大连,大连泓良房地产开发有限公司,甘井子,20190106,38.939326611323615,121.52337842113351,山水秀景,5,12922,大连三和住邦物业管理有限公司,1,辽宁,1,二手房,2007
甘井子区华北路花锦园28号23-3-1-2建筑物,大连,大连万科蓝山房地产开发有限公司,甘井子,20190106,38.951627958411166,121.5739439799003,万科公园里,5,24730,大连万科物业服务有限公司,1.5,辽宁,1,二手房,2015
甘井子区芳林街17号1单元1层1号,大连,无开发商,甘井子,20190106,38.96091976856697,121.58863625429588,顺发路,11,10451,街道办事处（居委会）代管物业,0.2,辽宁,1,二手房,1993
甘井子区榆林街37号-12公建,大连,无开发商,甘井子,20190106,38.980133141940186,121.52779506952932,嘉安边防家园,15,10999,无物业管理服务,-,辽宁,1,二手房,2009
甘井子区泉水D1区10-2#1-1-7,大连,大连春达房屋开发有限公司,甘井子,20190106,39.014763910942854,121.61661407462454,景富铭苑,14,10727,庄河金城物业管理有限公司,0.5,辽宁,1,二手房,2004
沙河口区长江路946号-9,大连,大连华晟房屋开发有限公司,沙河口,20190106,38.92295863621255,121.59735298157467,华晟花园,5,14915,大连晟附物业管理有限公司,0.6,辽宁,1,二手房,2001
中山区职工街96号1-3层公建,大连,无开发商,中山,20190106,38.92565613737007,121.66193575790903,警后大院（三八广场）,11,11749,无物业管理服务,-,辽宁,1,二手房,1993
开发区松苑街23号,大连,大连西太平洋家属楼,开发区,20190106,22.52087710763645,113.40156104777168,松平里,12,11288,街道办事处（居委会）代管物业,0.5,辽宁,1,二手房,1995
甘井子区泉水B2区19-1号,大连,北方沿海房地产开发（大连）有限公司,甘井子,20190106,39.0101309886317,121.60812584213187,沿海鉴筑反正LOFT,17,10950,美佳物业管理（深圳）有限公司大连分公司,1.8,辽宁,1,二手房,2013
西岗区胜利路33号,大连,无开发商,西岗,20190106,38.91309771954841,121.62500886627636,34中林荫巷,12,24493,无物业管理服务,-,辽宁,1,二手房,1997
沙河口区新生路万科园7—1号,大连,大连公屋发展有限公司,沙河口,20190106,38.94440370819716,121.57117928210005,春柳人家,0,14067,大连德衡物业管理有限公司,0.5,辽宁,1,二手房,2003
无门店信息,大连,大连鹏辉房地产开发有限公司,甘井子,20190106,34.52713835999158,118.76812980670795,鹏辉新天居三期,47,12448,大连鹏辉物业管理有限公司,0.8,辽宁,1,二手房,2009
无门店信息,大连,暂无信息,中山,20190106,34.52713835999158,118.76812980670795,明秀庄园一期,16,33139,大连澳邦致和物业服务有限公司,3.2,辽宁,1,二手房,2012
无门店信息,大连,远洋地产有限公司,开发区,20190106,34.52713835999158,118.76812980670795,远洋时代城二期,10,8218,大连远洋基业物业管理有限公司,1.5,辽宁,1,二手房,2012
金州区凤祥路236-2,大连,大连鸿玮置业有限公司,金州,20190106,39.08547607514868,121.7749730382401,鸿玮澜山二期,37,12794,大连鸿玮物业服务有限公司,1.8,辽宁,1,二手房,2015
甘井子区西南路979-7号公建,大连,大连万亿房地产开发有限公司,甘井子,20190106,38.96275592929325,121.5958698791777,万亿香橙,5,19886,街道办事处（居委会）代管物业,0.5,辽宁,1,二手房,2011
高新园区聚贤路36号5幢1单元1层1号,大连,九成方元房地产（大连）有限公司,高新园区,20190106,32.31472011562832,119.46141263909165,福荣园,7,16966,九成物业（大连）有限公司,2.6,辽宁,1,二手房,2015
无门店信息,大连,大连新跃房地产开发有限公司,金州,20190106,34.52713835999158,118.76812980670795,金海国际花园,106,6945,盘锦瀚新物业管理有限公司,1,辽宁,1,二手房,2015
甘井子区汇仁街19号12号楼1单元102室,大连,大连华南房地产开发有限公司,甘井子,20190106,38.99746297497168,121.58917714380617,名贵山庄华春园,2,11800,大连弘益达物业管理有限公司,0.5,辽宁,1,二手房,2004
沙河口区中山路417A-4号,大连,无开发商,沙河口,20190106,38.90734671814175,121.59482182703752,星海造船楼,14,10962,无物业管理服务,-,辽宁,1,二手房,1996
经济技术开发区红星海-A区81-2号1层,大连,远洋地产有限公司,开发区,20190106,39.027851194371685,121.80327394132297,红星海二期领墅,23,20582,大连远洋基业物业管理有限公司,0.5,辽宁,1,二手房,2009
经济技术开发区红星海-A区81-2号1层,大连,远洋地产有限公司,开发区,20190106,39.027851194371685,121.80327394132297,红星海郡墅二号,9,17637,大连远洋基业物业管理有限公司,3.5,辽宁,1,二手房,2012
西岗区长春路334号,大连,无开发商,西岗,20190106,38.89807766522607,121.63221082858387,鹏程家园,4,13612,街道办事处（居委会）代管物业,0.5,辽宁,1,二手房,2002
甘井子区虹港路16号楼1层公建,大连,亿达房地产开发有限公司,甘井子,20190106,38.96457808198196,121.55421052098279,虹港路（机场商圈）,33,10697,亿达物业管理有限公司,0.2,辽宁,1,二手房,1996
甘井子区玉丽街2号楼1单元4号公建,大连,大连新型房地产开发有限公司,甘井子,20190106,38.98705071699301,121.55513043130172,泡崖康馨园,34,8991,大连新兴物业管理有限公司,0.2,辽宁,1,二手房,2004
中山区中南路226号,大连,大连永薪房屋开发有限公司,中山,20190106,38.90029610333926,121.68178899957817,海神花园,3,11917,大连永佳物业管理有限公司,1,辽宁,1,二手房,1999
中山区安居巷7号,大连,大连建通房地产开发有限公司,中山,20190106,38.900436431991984,121.67796628922625,民生松竹苑,3,12740,大连奎祥物业管理有限公司,1.1,辽宁,1,二手房,2003
沙河口区西南路643号,大连,大连澳南房屋开发公司,沙河口,20190106,38.943483429804665,121.5833555851182,金福小区,10,10238,无物业管理服务,-,辽宁,1,二手房,2000
经济技术开发区红星海-A区81-2号1层,大连,远洋地产有限公司,开发区,20190106,39.027851194371685,121.80327394132297,红星海一期原墅,30,25664,大连远洋基业物业管理有限公司,2.2,辽宁,1,二手房,2010
中山区北斗街53号1层1号,大连,大连大森房地产开发有限公司,中山,20190106,38.92727355733075,121.67002970974048,东港林苑,8,15332,大连美心物业管理有限公司,2.8,辽宁,1,二手房,2013
中山区清溪南街11号,大连,大连锦绣房地产开发有限公司,中山,20190106,38.88919604283904,121.66466481004835,秀月广场,19,10363,无物业管理服务,0.5,辽宁,1,二手房,1994
中山区高尚路28-1号,大连,大连丰源房地产有限公司,中山,20190106,38.892673425111305,121.67148833870213,丰源海景,10,13810,大连丰源海景物业管理有限公司,0.5,辽宁,1,二手房,2000
开发区金源南里14栋-11号一层部分，14号-12号一层部分,大连,大连经济技术开发区金源实业有限公司,开发区,20190106,39.06148997014026,121.82510513314875,金源名府,24,9381,街道办事处（居委会）代管物业,1,辽宁,1,二手房,2009
甘井子区柳树南街45-11号,大连,大连顺达房屋开发有限公司,甘井子,20190106,38.93107538811559,121.48785133651938,顺达温泉花园二期,18,9984,大连顺达物业服务有限公司,0.6,辽宁,1,二手房,2004
甘井子区山东路127-2号,大连,无开发商,甘井子,20190106,38.99065559549029,121.59126483545545,七迎路,21,10444,街道办事处（居委会）代管物业,0.2,辽宁,1,二手房,1995
中山区金城街26号一楼,大连,无开发商,中山,20190106,38.922282529515634,121.65214466263014,39中柳林街,4,23704,街道办事处（居委会）代管物业,-,辽宁,1,二手房,1992
中山区民建街10号1单元1号,大连,无开发商,中山,20190106,38.925444479476894,121.66915026954452,39中和阳街,15,16730,无物业管理服务,-,辽宁,1,二手房,1990
无门店信息,大连,大连乾豪集团有限公司,开发区,20190106,34.52713835999158,118.76812980670795,乾豪海岸花园,8,14514,大连乾豪物业管理有限公司,2,辽宁,1,二手房,2003
无门店信息,大连,大连铁龙房地产开发有限公司,甘井子,20190106,34.52713835999158,118.76812980670795,连海金源,17,12264,大连铁龙安居物业管理有限公司,1.3,辽宁,1,二手房,2012
中山区安居巷7号,大连,大连鸿霖房地产开发有限公司,中山,20190106,38.900436431991984,121.67796628922625,鸿霖大厦,16,8305,大连凯立宏物业管理有限公司,3.2,辽宁,1,二手房,2004
开发区红星海-B区89-1号,大连,远洋地产有限公司,开发区,20190106,39.027851194371685,121.80327394132297,红星海三期视界,37,13209,大连远洋基业物业管理有限公司,2.2,辽宁,1,二手房,2012
西岗区八一路102号,大连,大连润泰房地产开发有限公司,中山,20190106,38.891094924332045,121.65327483516513,明秀庄园二期,10,37606,大连澳邦致和物业服务有限公司,3.2,辽宁,1,二手房,2015
开发区高新里6栋-8,大连,大连港地产集团有限公司,开发区,20190106,39.0710895068195,121.82860134358343,尚都家园,9,6936,街道办事处（居委会）代管物业,0.5,辽宁,1,二手房,2007
开发区红星海-B区89-1号,大连,远洋地产有限公司,开发区,20190106,39.027851194371685,121.80327394132297,红星海五期鼎墅,18,22670,大连远洋基业物业管理有限公司,4.8,辽宁,1,二手房,2012
开发区红星海B区212-1,大连,远洋地产有限公司,开发区,20190106,39.027851194371685,121.80327394132297,红星海五期海麓,10,14956,大连远洋基业物业管理有限公司,2.2,辽宁,1,二手房,2012
西岗区平等街21号1层2号,大连,无开发商,西岗,20190106,38.92251066253164,121.63236845125735,香榭里,16,8923,大连金地物业管理有限公司,3.6,辽宁,1,二手房,2010
大连市开发区抚顺街30号,大连,无开发商,开发区,20190106,38.92272284555705,121.5977239817503,翠南管委会院,13,7695,街道办事处（居委会）代管物业,0.5,辽宁,1,二手房,1998
沙河口区黄埔路427号,大连,暂无信息,高新园区,20190106,38.921778341674376,121.58261780680284,海洋环保所,9,14809,单位自管物业,0.2,辽宁,1,二手房,1981
金州区凤祥路236-2,大连,大连德泰控股有限公司,金州,20190106,39.08547607514868,121.7749730382401,德泰岭秀逸城,63,9861,大连德泰物业管理有限公司,1.9,辽宁,1,二手房,2013
甘井子区玉湖街25号2单元1层3号,大连,大连新型房地产开发有限公司,甘井子,20190106,38.97626265183615,121.54617349027997,书香府第一期,8,10083,大连新型物业管理有限公司,0.5,辽宁,1,二手房,2002
高新园区海苑街30号1单元1号公建,大连,大连大有文园房屋开发有限公司,高新园区,20190106,20.06392317589085,110.32302599457326,大有文园公寓,13,9407,大连大有恬园物业管理有限公司,2,辽宁,1,二手房,2010
甘井子区柳树南街45-11号,大连,大连顺达房屋开发有限公司,甘井子,20190106,38.93107538811559,121.48785133651938,顺达温泉花园一期,10,9509,大连顺达物业服务有限公司,0.6,辽宁,1,二手房,2003
开发区安盛里5栋-4,大连,大连万晟房地产开发有限公司,开发区,20190106,23.112106678834838,113.27801046214822,宜家大院,19,7832,大连万晟置业有限公司,0.8,辽宁,1,二手房,2002
开发区松苑街23号,大连,无开发商,开发区,20190106,22.52087710763645,113.40156104777168,松林里小区,5,12581,街道办事处（居委会）代管物业,0.5,辽宁,1,二手房,1996
中山区职工街96号1-3层公建,大连,无开发商,中山,20190106,38.92565613737007,121.66193575790903,39中民功街,1,11870,无物业管理服务,-,辽宁,1,二手房,1997
开发区兴城路29-81层,大连,大连瑞宇置业有限公司,开发区,20190106,39.05020829677517,121.7578103751747,心海阳光,12,12027,大连经济技术开发区盛辉物业服务有限公司,2,辽宁,1,二手房,2015
西岗区鞍山路65-5号,大连,大连晟大房地产开发有限公司,沙河口,20190106,38.92701992456326,121.60258216167713,亿鑫大厦,3,11590,大连德一物业管理有限公司,1,辽宁,1,二手房,2003
金州区凤翔路220号,大连,大连鸿玮置业有限公司,金州,20190106,39.08410553937731,121.77700083356399,鸿玮澜山一期,24,13134,大连鸿玮物业服务有限公司,1.8,辽宁,1,二手房,2009
甘井子区玉湖街18号1单元1-1,大连,大连新型房地产开发有限公司,甘井子,20190106,38.97554522550266,121.54552721066896,书香府第二期,12,9261,大连新型物业管理有限公司,0.5,辽宁,1,二手房,2002
开发区金源南里14栋-11号一层部分，14号-12号一层部分,大连,商金源地产,开发区,20190106,39.06148997014026,121.82510513314875,金苑新居,10,7168,嘉兴物业管理有限公司,0.3,辽宁,1,二手房,2004
金州区光明街道育才街42-6号1-2层,大连,暂无信息,金州,20190106,39.109080894078986,121.7182584929096,芙蓉花园（金州）,29,8426,大连金州新区建房物业管理中心,0.6,辽宁,1,二手房,2007
无门店信息,大连,大连祥和房屋开发有限公司,甘井子,20190106,34.52713835999158,118.76812980670795,祥和花园,46,10588,大连市大北物业管理有限公司,0.4,辽宁,1,二手房,2007
中山区秀月街37号1层2号,大连,无开发商,西岗,20190106,38.88757907576307,121.66311065527876,桃源小学,18,12764,无物业管理服务,-,辽宁,1,二手房,1990
开发区松苑街23号,大连,无开发商,开发区,20190106,22.52087710763645,113.40156104777168,山水花园小区,3,9574,大连经济技术开发区白石物业管理有限公司,0.5,辽宁,1,二手房,2000
甘井子区惠泽南园3-7号,大连,大连盛达基业房地产开发有限公司,甘井子,20190106,38.939326611323615,121.52337842113351,西山湖语,7,13960,大连旺宇物业有限公司,1.8,辽宁,1,二手房,2014
开发区杏花里13#楼-7号,大连,大连经济技术开发区城市建设开发有限公司,开发区,20190106,31.31075067906954,120.63127837058457,颐华园,17,8122,大连经济技术开发区杏林物业管理有限公司,0.3,辽宁,1,二手房,2005
甘井子区惠泽南园3-7号,大连,大连开成房地产开发有限公司,甘井子,20190106,38.939326611323615,121.52337842113351,开成领地,5,16205,大连旺宇物业有限公司,2,辽宁,1,二手房,2011
中山区共建巷61号,大连,暂无信息,中山,20190106,38.91828093658718,121.66259221532148,39中南山福润人家,5,22859,暂无信息,-,辽宁,1,二手房,2000
大连市开发区抚顺街30号,大连,无开发商,开发区,20190106,38.92272284555705,121.5977239817503,东方花园,1,13407,大连合昌物业服务有限公司,0.5,辽宁,1,二手房,2006
无门店信息,大连,大连运达房地产集团有限公司,甘井子,20190106,34.52713835999158,118.76812980670795,运达诺维溪谷,1,8898,大连运达物业有限公司,2,辽宁,1,二手房,2015
中山区北斗街53号1层1号,大连,无开发商,中山,20190106,38.92727355733075,121.67002970974048,四海一家,9,13904,大连中杰物业管理有限公司,1.3,辽宁,1,二手房,2002
中山区同心街72号1楼公建,大连,大连万达房地产开发有限公司,西岗,20190106,38.91979245940674,121.64769198230202,雍景台,7,16194,大连万达物业管理有限公司,3.5,辽宁,1,二手房,2000
甘井子区甘井子街3号公建,大连,无开发商,甘井子,20190106,38.982086281836246,121.63426694995971,甘泉小区,9,9439,街道办事处（居委会）代管物业,0.5,辽宁,1,二手房,1990
