address,city,developer,district,index_date,lat,lng,name,osv,price,property,property_fee,province,tv,type,year
沙河口区沙能街101号1单元1层1号,大连,大连新型房地产开发有限公司,沙河口,20190712,38.9366316275348,121.59031205759763,侯二小区,180,11248,街道办事处（居委会）代管物业,0.1,辽宁,38,二手房,1980
甘井子区榆林街37号-12公建,大连,新型房地产开发有限公司,甘井子,20190712,38.980133141940186,121.52779506952932,泡崖美林园,241,11678,新兴物业,0.6,辽宁,65,二手房,2000
开发区湾里南12栋-16-17-18号,大连,大连金湾实业有限公司,开发区,20190712,39.070782084451,121.8506739675913,湾里南小区,370,8788,大连金湾物业管理有限公司,0.3,辽宁,32,二手房,2002
开发区湾里南12栋-16-17-18号,大连,大连金湾实业有限公司,开发区,20190712,39.070782084451,121.8506739675913,湾里东,217,8214,大连金湾物业管理有限公司,0.5,辽宁,25,二手房,2001
开发区正恒园1-16,大连,大连华宇房地产开发有限公司,开发区,20190712,39.04823944344617,121.76165468797754,左岸经典,260,9049,大连豪之英物业管理有限公司,1.8,辽宁,35,二手房,2000
甘井子区泉水D1区37-7号,大连,大连运腾房地产开发有限公司,甘井子,20190712,39.013992871679214,121.61921940045104,锦泉源D2区,217,13300,大连嘉毅物业管理有限公司,0.5,辽宁,29,二手房,2001
大连经济技术开发区东城天下98-14,大连,大连乾豪集团有限公司,开发区,20190712,39.069195091289004,121.8502099927954,东城天下,365,8745,大连远洋基业物业管理有限公司,0.9,辽宁,43,二手房,2002
甘井子区宜居园10-1号房屋,大连,大连万科房地产开发有限公司,甘井子,20190712,38.99913094587405,121.52084969112292,万科魅力之城,181,14626,大连万科物业服务有限公司,1.5,辽宁,40,二手房,2006
金州区金润花园B区47号1单元1层1号2号,大连,大连辽大房地产开发有限公司,金州,20190712,39.10434716151341,121.74517862677146,金润小区B区,185,8372,大连新兴物业管理有限公司,0.4,辽宁,25,二手房,2000
沙河口区西南路643号,大连,无开发商,沙河口,20190712,38.943483429804665,121.5833555851182,交通大学,78,12975,无物业管理服务,-,辽宁,25,二手房,1955
甘井子区宜居园10-1号房屋,大连,大连万科房地产开发有限公司,甘井子,20190712,38.99913094587405,121.52084969112292,万科朗润园,104,15021,大连万科物业服务有限公司,1.5,辽宁,25,二手房,2009
沙河口区华新苑10号楼4号公建,大连,大连新型房地产开发有限公司,沙河口,20190712,38.94033750532864,121.58990295130229,侯一小区,157,11382,大连新兴物业管理有限公司,0.3,辽宁,29,二手房,1989
沙河口区五一路177-1-1-1,大连,无开发商,沙河口,20190712,38.913544290955585,121.59450670056631,台山,94,11886,街道办事处（居委会）代管物业,0.5,辽宁,23,二手房,1980
无门店信息,大连,大连一方生态城房地产开发有限公司,开发区,20190712,34.52713835999158,118.76812980670795,一方天鹅湖,200,8093,大连一方物业管理有限公司,1.9,辽宁,23,二手房,2010
大连经济技术开发区时代城4-3号1-2号,大连,远洋地产有限公司,开发区,20190712,39.0992481321252,121.83007860699459,远洋时代城一期,169,9320,大连远洋基业物业管理有限公司,1.5,辽宁,28,二手房,1998
沙河口区昌黎街22号,大连,大连城市建设集团有限公司,沙河口,20190712,38.91975785098891,121.59109628369768,北昌平小区,137,13088,无物业管理服务,-,辽宁,22,二手房,1983
甘井子区甘井子街3号公建,大连,无开发商,甘井子,20190712,38.982086281836246,121.63426694995971,文体街,128,10353,街道办事处（居委会）代管物业,0.1,辽宁,19,二手房,1974
甘井子区祥龙街2号楼1单元1楼1号,大连,大连恒新房地产开发有限公司,甘井子,20190712,38.988045874482445,121.60439401971377,华东人家,38,14722,大连福佳物业管理有限公司,1,辽宁,19,二手房,2006
甘井子区玉丽街2号楼1单元4号公建,大连,大连新型房地产开发总公司,甘井子,20190712,38.98705071699301,121.55513043130172,泡崖康顺园,147,11387,大连新兴物业管理有限公司,0.5,辽宁,19,二手房,2002
大连市金州区站前街道生辉第一城14-3号1-2层,大连,大连新希望家园房地产有限公司,金州,20190712,39.0569681786798,121.74773530665969,新希望家园,194,8759,大连新希望物业服务有限公司,1.2,辽宁,19,二手房,2003
沙河口区西南路643号,大连,无开发商,沙河口,20190712,38.943483429804665,121.5833555851182,北甸街,42,11642,无物业管理服务,-,辽宁,19,二手房,1983
无门店信息,大连,无开发商,甘井子,20190712,34.52713835999158,118.76812980670795,石油六闾,69,9327,街道办事处（居委会）代管物业,0.5,辽宁,19,二手房,1900
甘井子区静林街34号4单元1层2,大连,大连祥盛房屋开发有限公司,甘井子,20190712,38.98321485010885,121.58185179833856,千山心城,122,14509,大连百特物业管理有限公司,0.5,辽宁,22,二手房,2002
金州新区先进街道渤海街7-4号1-2层、7-3号1-2层,大连,原金州纺织厂房地产公司,金州,20190712,39.09342713035472,121.74590886291374,金纺小区,185,6985,街道办事处（居委会）代管物业,0.5,辽宁,21,二手房,1985
甘井子区泡崖六小区6号楼1单元1层2号,大连,大连新型房地产开发有限公司,甘井子,20190712,38.98033159306754,121.55920598894072,泡崖五区,81,11477,大连新兴物业管理有限公司,0.5,辽宁,20,二手房,1990
无门店信息,大连,大连益宁房地产开发有限公司,开发区,20190712,34.52713835999158,118.76812980670795,岭湾峰尚一期,138,8672,大连鸿达物业管理有限公司,1.3,辽宁,22,二手房,2003
大连市甘井子区柳林园8-7号,大连,大连万科置业有限公司,甘井子,20190712,38.91290525308349,121.47673750074993,万科溪之谷,208,14605,大连万科物业服务有限公司,0.6,辽宁,24,二手房,2007
甘井子区玉湖街25号2单元1层3号,大连,大连新型房地产开发有限公司,甘井子,20190712,38.97626265183615,121.54617349027997,泡崖四区,183,10784,大连新型物业管理有限公司,0.5,辽宁,22,二手房,2000
大连开发区金马路169-2-8号,大连,大连亿锋房地产实业有限公司,开发区,20190712,39.057398235688176,121.78261137849105,亿锋现代城,156,10209,亿锋豪景物业管理有限公司,1.1,辽宁,24,二手房,2004
甘井子区红旗花园23号楼19-24轴公建,大连,大连红旗兴达房地产开发有限公司,甘井子,20190712,38.93108029984587,121.54902145022133,兴达花园,85,12915,大连万泰物业管理有限公司,0.3,辽宁,18,二手房,1996
沙河口区富民路120号4-1-1,大连,大连渤海红旗集团有限公司,沙河口,20190712,38.930937859528605,121.5647274237578,马栏小学北,83,10819,街道办事处（居委会）代管物业,0.2,辽宁,24,二手房,1992
甘井子区汇仁街22号,大连,远洋地产有限公司,甘井子,20190712,38.99712640764999,121.58834420439493,远洋广场,180,17348,大连远洋基业物业管理有限公司,1.4,辽宁,16,二手房,2003
甘井子区锦城西园4#3-1-1,大连,大连锦绣房地产开发有限公司,沙河口,20190712,38.95286223185571,121.55129044777,锦华北园,88,14045,大连锦绣物业管理有限公司,0.6,辽宁,16,二手房,2000
开发区东北三街94号1层,大连,大连欣达房地产开发有限公司,开发区,20190712,39.05723508011585,121.80570768630555,倚山里小区,224,7560,大连经济技术开发区聚盛达物业管理有限公司,0.2,辽宁,14,二手房,1995
沙河口区黑石礁街3号1层1-1号,大连,无开发商,沙河口,20190712,38.880058010307856,121.56313403908827,浪花街,48,11642,无物业管理服务,-,辽宁,14,二手房,1990
开发区红星海-B区89-1号,大连,远洋地产有限公司,开发区,20190712,39.027851194371685,121.80327394132297,红星海五期青屿蓝,226,14893,大连远洋基业物业管理有限公司,2.2,辽宁,14,二手房,2008
开发区安盛里5栋-4,大连,大连开建集团有限公司,开发区,20190712,23.112106678834838,113.27801046214822,开建阳光馨苑,96,9491,大连开利物业管理有限公司,1.2,辽宁,14,二手房,2007
沙河口区新生路万客园3-7,大连,大连绿波房屋开发集团有限公司,沙河口,20190712,38.94412875710208,121.57006756704837,绿波小区,150,11129,大连绿波建设发展有限公司,0.2,辽宁,14,二手房,1993
金州新区站前街道生辉第一城5号楼1-2层4号,大连,大连公路工程集团生辉房地产开发有限公司,金州,20190712,39.05819721414208,121.74650438736514,生辉第一城,136,10961,大连生辉物业管理有限公司,1.2,辽宁,14,二手房,2005
甘井子区玉丽街2号楼1单元4号公建,大连,大连新型房地产开发有限公司,甘井子,20190712,38.98705071699301,121.55513043130172,泡崖七区,121,11002,大连新兴物业管理有限公司,0.3,辽宁,15,二手房,1995
开发区安盛里5栋-4,大连,大连盛铭资产管理有限公司,开发区,20190712,23.112106678834838,113.27801046214822,安盛花园,86,9482,大连经济技术开发区海青物业有限公司,1.1,辽宁,14,二手房,2002
沙河口区红凌路137号,大连,大连大实企业集团房屋开发有限公司,甘井子,20190712,38.922699288974506,121.54713601744747,叠翠山庄,31,10976,大连弘实物业管理有限公司,0.4,辽宁,15,二手房,2000
无门店信息,大连,大连金湾实业有限公司,开发区,20190712,34.52713835999158,118.76812980670795,金湾山城,173,9393,大连金湾物业管理有限公司,0.5,辽宁,15,二手房,2003
中山区益民街16号1层1号,大连,大连恒力德实业开发有限公司,中山,20190712,38.93092761298906,121.66470740073377,港湾壹号,76,14164,大连日航酒店物业管理有限公司,3.8,辽宁,15,二手房,2006
沙河口区前程街46号4—1—2号,大连,大连银地置业发展有限公司,沙河口,20190712,38.913544290955585,121.59450670056631,观山满庭芳,89,18019,大连新展物业管理有限公司,1,辽宁,15,二手房,2004
无门店信息,大连,大连万科房地产开发有限公司,旅顺口,20190712,34.52713835999158,118.76812980670795,万科樱花园三期,34,12955,大连万科物业服务有限公司,2.4,辽宁,15,二手房,2010
甘井子区华北路花锦园28号23-3-1-2建筑物,大连,大连东特房地产开发有限公司,甘井子,20190712,38.951627958411166,121.5739439799003,东特新天地,49,16725,大连瑞祥物业管理有限公司,0.5,辽宁,15,二手房,2001
开发区润海园中区62-9,大连,华润（大连）房地产有限公司,开发区,20190712,39.04047273176333,121.76392358042445,华润海中国四期,119,14144,华润物业（大连）有限公司,3.1,辽宁,15,二手房,2000
开发区润海园中区30-1,大连,华润（大连）房地产有限公司,开发区,20190712,39.04047273176333,121.76392358042445,华润海中国三期,166,14435,华润物业（大连）有限公司,3.1,辽宁,15,二手房,2010
沙河口区华北路448号楼1-4公建,大连,无开发商,沙河口,20190712,38.903224944733765,121.56809734950556,刘家桥,101,10927,街道办事处（居委会）代管物业,0.1,辽宁,15,二手房,1980
沙河口区西南路851号3单元1层3号,大连,无开发商,沙河口,20190712,38.94344210837944,121.58246796944378,李家街,25,11730,无物业管理服务,0.1,辽宁,11,二手房,1985
大连市开发区左岸经典正恒园1-17,大连,大连神洲众益集团有限公司,开发区,20190712,39.049057070649155,121.76187404250511,万国宫馆一期,124,13050,加拿大高力国际物业服务有限公司,2.4,辽宁,16,二手房,1998
开发区景和园1-7,大连,大连市政府工程建设指挥部,开发区,20190712,30.41892168817929,120.30896459202738,小孤山中里,118,7714,大连广谊物业管理有限公司,0.4,辽宁,16,二手房,1998
沙河口区马栏北街186号,大连,大连渤海红旗集团有限公司,甘井子,20190712,38.913544290955585,121.59450670056631,马栏北街,39,11488,大连辽南物业管理有限公司,0.2,辽宁,15,二手房,1988
甘井子金地艺境博艺西园2-1号,大连,大连恒昇房地产开发有限公司,甘井子,20190712,39.04402110608829,121.665484498555,福佳新城一期,89,9290,暂无信息,0.9,辽宁,11,二手房,2000
甘井子区哲林北园17-6号,大连,大连亿达美加房地产开发有限公司,甘井子,20190712,38.9600267109581,121.53876726228256,第五郡三号地,68,29479,亿达物业管理有限公司,2.2,辽宁,11,二手房,2012
沙河口区长江路946号-9,大连,大连机车商业城有限公司,沙河口,20190712,38.913544290955585,121.59450670056631,兴工街,63,13402,街道办事处（居委会）代管物业,0.2,辽宁,11,二手房,1985
甘井子区红凌路109号,大连,大连锦联地产集团有限公司,甘井子,20190712,38.923388478439314,121.54860212120927,锦绣暖山,78,15217,大连锦明物业服务有限公司,1.2,辽宁,12,二手房,2004
金州区金润小区B区861单元102,大连,大连新型房地产开发有限公司,金州,20190712,39.10615165380565,121.74639264534615,糖果小区,72,9033,大连新兴物业管理有限公司,0.5,辽宁,12,二手房,2000
甘井子区千山路26号,大连,大连嘉兴房地产开发有限公司,甘井子,20190712,38.985697948031984,121.58768860037272,千山路,74,12209,无物业管理服务,0.5,辽宁,12,二手房,1985
甘井子区千山路26号,大连,大连市大钢集团,甘井子,20190712,38.985697948031984,121.58768860037272,华中街,32,12221,街道办事处（居委会）代管物业,0.1,辽宁,12,二手房,1900
金州区金润小区B区861单元102,大连,大连辽大房地产开发有限公司,金州,20190712,39.10615165380565,121.74639264534615,金润小区A区,139,8686,大连新兴物业管理有限公司,0.4,辽宁,12,二手房,1999
大连市甘井子中华路街道汇畅街48号,大连,远洋地产有限公司,甘井子,20190712,39.0059299196697,121.59621871231741,远洋荣域,176,18917,远洋亿家物业服务股份有限公司大连分公司,2.8,辽宁,12,二手房,2012
金州新区站前街道生辉第一城5号楼1-2层4号,大连,大连新希望家园房地产有限公司,金州,20190712,39.05819721414208,121.74650438736514,新希望乐城,65,10224,大连新希望物业服务有限公司,1.6,辽宁,12,二手房,2009
甘井子区泉水D6区51号,大连,大连锦丰和源祥房地产开发有限公司,甘井子,20190712,39.00897610161069,121.61789300655198,泉水家年华,111,13745,街道办事处（居委会）代管物业,0.9,辽宁,12,二手房,2007
甘井子区泉水D6区51号,大连,大连金广集团,甘井子,20190712,39.00897610161069,121.61789300655198,枫丹丽城,98,15996,大连金广物业有限公司,1.5,辽宁,12,二手房,2009
甘井子区虹城路503号1-1号,大连,大连新星房地产开发有限公司,甘井子,20190712,38.981193588625004,121.49964051837122,艾维尼小城,95,15789,大连生生物业有限公司,1.8,辽宁,12,二手房,2009
大连市开发区湾里东5-6号,大连,大连宏港房地产开发有限公司,开发区,20190712,39.07275772231556,121.85888789351343,都悦里,218,6934,大连宏港物业管理有限公司,0.3,辽宁,12,二手房,1992
沙河口区联合路133号,大连,无开发商,沙河口,20190712,38.91608561262676,121.60480987310456,79中永平,100,26636,无物业管理服务,-,辽宁,12,二手房,1992
甘井子区绿洲园60号,大连,大连新华房屋开发有限公司,甘井子,20190712,38.95390300214936,121.59409785747448,新华绿洲,74,18558,大连新华物业管理有限公司,0.6,辽宁,12,二手房,2001
甘井子区红旗中路143号1层4号,大连,大连保利红旗房地产开发有限公司,甘井子,20190712,38.93169566676921,121.5426632438217,保利西山林语,72,20924,保利物业服务有限公司,1.5,辽宁,12,二手房,2006
甘井子金地艺境博艺西园2-1号,大连,暂无信息,甘井子,20190712,39.04402110608829,121.665484498555,欣家园一期,32,9271,街道办事处（居委会）代管物业,0.9,辽宁,12,二手房,2004
沙河口区新生路万客园3-7,大连,大连鹏生房地产开发有限公司,沙河口,20190712,38.94412875710208,121.57006756704837,枫林绿洲,41,14161,大连鹏辉物业管理有限公司,0.3,辽宁,12,二手房,2002
开发区润海园中区30-1,大连,暂无信息,开发区,20190712,39.04047273176333,121.76392358042445,华润海中国七期,74,16839,华润物业（大连）有限公司开发区分公司,3.1,辽宁,10,二手房,2009
开发区鹏程家园66#-6、66#-7公建,大连,大连海富花园开发有限公司,开发区,20190712,37.92440451755906,112.59861436589645,海富经典,131,9955,大连银帆物业管理有限公司,1.2,辽宁,10,二手房,2007
甘井子区泉水K2区1号-7,大连,大连新型房地产开发有限公司,甘井子,20190712,39.01148211821007,121.63131997900962,龙畔金泉五期K4区,132,12608,大连新兴物业管理有限公司,0.5,辽宁,10,二手房,2005
高新园区海苑街30号1单元1号公建,大连,大连大有文园房屋开发有限公司,高新园区,20190712,20.06392317589085,110.32302599457326,大有文园,47,17059,大连大有恬园物业管理有限公司,2,辽宁,10,二手房,2009
金州新区润海园中区18#2号,大连,华润置地（大连）有限公司,开发区,20190712,39.04047273176333,121.76392358042445,华润海中国二期,164,14246,华润物业（大连）有限公司,2.8,辽宁,10,二手房,2007
大连市甘井子区辛如街35号1单元1层1号,大连,大连新星房地产开发有限公司,甘井子,20190712,38.96862607066881,121.52294869064194,新星绿城五期,69,14054,大连生生物业有限公司,0.8,辽宁,10,二手房,2006
甘井子区泉水H3区15号3单元1层2号,大连,大连新型房地产开发有限公司,甘井子,20190712,39.00158439075201,121.62616882572375,龙畔金泉二期,93,12921,大连新型物业管理有限公司,0.5,辽宁,10,二手房,2002
高新园区聚贤路36号5幢1单元1层1号,大连,大连法马克房地产开发有限公司,高新园区,20190712,32.31472011562832,119.46141263909165,中铁诺德滨海花园,78,19868,大连中铁诺德物业服务有限公司,2.3,辽宁,10,二手房,2010
沙河口区敦煌路357号10-11轴公建,大连,无开发商,沙河口,20190712,38.93891619583455,121.59150694046835,车家村,32,10694,街道办事处（居委会）代管物业,0.5,辽宁,10,二手房,1980
甘井子区促进路30号2-1-1,大连,福佳集团有限公司,甘井子,20190712,38.954133128707575,121.58355746311207,府佳名都,51,18061,大连富佳物业管理有限公司,0.5,辽宁,10,二手房,2001
开发区黄海西路54号,大连,中国铁路十三局,开发区,20190712,39.047714586087785,121.76688238228269,翠竹小区,115,8116,大连经济技术开发区中强物业管理有限公司,0.3,辽宁,10,二手房,1995
甘井子区红旗西路104-23,大连,大连万科房地产开发有限公司,甘井子,20190712,38.94013845868325,121.5282577714263,万科假日风景,81,17047,大连万科物业服务有限公司,1,辽宁,10,二手房,2007
金州新区先进街道五一路350-1号1-2层,大连,暂无信息,金州,20190712,39.078667146419825,121.77094423323935,聚鑫小区三期,58,7033,大连新生活物业管理有限公司,0.5,辽宁,10,二手房,2000
中山区东港龙湖水晶郦湾7-102,大连,大连龙湖东港房地产有限公司,中山,20190712,38.924700620463895,121.70344398518496,龙湖水晶郦湾,68,27987,大连龙湖物业服务有限公司,4.5,辽宁,10,二手房,2012
西岗区平等街21号1层2号,大连,无开发商,西岗,20190712,38.92251066253164,121.63236845125735,实验小学同庆街,84,22658,无物业管理服务,-,辽宁,10,二手房,1980
西岗区九三街64号,大连,润德集团有限公司,西岗,20190712,38.92047268927287,121.61862512554262,润德广场,57,15418,大连润德物业管理有限公司,3.8,辽宁,10,二手房,2000
甘井子区泡崖六小区6号楼1单元1层2号,大连,大连新型房地产开发有限公司,甘井子,20190712,38.98033159306754,121.55920598894072,泡崖六区,37,11839,大连新兴物业管理有限公司,0.3,辽宁,11,二手房,1999
金州新区先进街道渤海街7-4号1-2层、7-3号1-2层,大连,大连九鼎置地有限公司,金州,20190712,39.09342713035472,121.74590886291374,万科城,84,11163,大连万科物业服务有限公司,2.2,辽宁,11,二手房,2011
沙河口区富静街26号1单元1层5号,大连,大连正源房地产开发有限公司,沙河口,20190712,38.908727606250466,121.58667844684369,幸福e家五期,190,37669,大连正源物业服务有限公司,1.8,辽宁,11,二手房,2008
沙河口区富民路249号,大连,大连文路建设集团有限公司,沙河口,20190712,38.93341510428133,121.5770130002514,阳光月秀,49,16560,大连丰泽物业管理有限公司,0.6,辽宁,11,二手房,1999
沙河口区前程街46号4—1—2号,大连,大连渤海红旗集团有限公司,甘井子,20190712,38.913544290955585,121.59450670056631,前程街,45,12059,渤海吉祥物业管理有限公司,0.4,辽宁,9,二手房,1998
无门店信息,大连,大连天启房地产开发有限公司,高新园区,20190712,34.52713835999158,118.76812980670795,百合IT家园,38,12788,大连亮泰安邦物业有限公司,0.6,辽宁,8,二手房,2007
甘井子区泉水H3区15号3单元1层2号,大连,大连新型房地产开发有限公司,甘井子,20190712,39.00158439075201,121.62616882572375,龙畔金泉四期,70,13277,大连新型物业管理有限公司,0.4,辽宁,8,二手房,2004
甘井子区汇仁街22号,大连,中铁建（大连）置业有限公司,甘井子,20190712,38.99712640764999,121.58834420439493,动力院景三期汇善园,45,15443,大连铁龙安居物业管理有限公司,0.9,辽宁,8,二手房,2006
甘井子区祥龙街2号楼1单元1楼1号,大连,大连美辰房地产开发有限公司,甘井子,20190712,38.988045874482445,121.60439401971377,美辰香醒,48,15904,大连众和物业管理有限公司,1.4,辽宁,8,二手房,2009
中山区清溪南街11号,大连,无开发商,中山,20190712,38.88919604283904,121.66466481004835,桃仙小区,22,13277,街道办事处（居委会）代管物业,-,辽宁,8,二手房,1992
甘井子区虹城路503号1-1号,大连,大连易和房地产集团有限公司,甘井子,20190712,38.981193588625004,121.49964051837122,岭秀滨城悦和中园,37,16771,大连易兴物业服务有限公司,1.3,辽宁,8,二手房,2009
高新园区黄浦路600-602号,大连,大连鑫亿房屋开发有限公司,高新园区,20190712,38.86342472318123,121.53493189660259,新科花园,36,18395,大连鑫晟物业管理有限公司,0.6,辽宁,8,二手房,2003
金州区金润花园B区47号1单元1层1号2号,大连,暂无信息,金州,20190712,39.10434716151341,121.74517862677146,民馨小区,73,7200,无物业管理服务,0.3,辽宁,9,二手房,2000
大连市甘井子区泉水N2区3-13号,大连,暂无信息,甘井子,20190712,39.021116079001885,121.64659997607325,泉水N1区,103,9959,无物业管理服务,0.7,辽宁,9,二手房,1999
甘井子区柳树南街45-10号,大连,大连都源置业有限公司,甘井子,20190712,38.92567666296449,121.4841330254372,依云溪谷,65,15059,大连远洋物业管理有限公司,1.2,辽宁,9,二手房,2008
中山区华乐街107-115号,大连,大连海昌房地产开发有限公司,中山,20190712,38.92093821499401,121.68879267531725,海昌欣城,103,17334,大连海昌欣城物业管理有限公司,1.2,辽宁,9,二手房,2002
甘井子区虹韵路114号,大连,大连亿达美加房地产开发有限公司,甘井子,20190712,38.95653310483457,121.5329869995972,第五郡五号地,85,27549,亿达物业管理有限公司,2,辽宁,9,二手房,2008
甘井子金地艺境博艺西园2-1号,大连,暂无信息,甘井子,20190712,39.04402110608829,121.665484498555,欣家园二期,27,9356,街道办事处（居委会）代管物业,0.5,辽宁,9,二手房,2000
中山区清溪南街11号,大连,无开发商,中山,20190712,38.88919604283904,121.66466481004835,秀月小区,44,16938,无物业管理服务,-,辽宁,8,二手房,1982
沙河口区数码路北段18—20号,大连,大连软景房地产开发有限公司,高新园区,20190712,38.892000603999115,121.5494486394066,软景E居,97,27362,亿达物业管理有限公司,2.6,辽宁,9,二手房,2009
开发区红梅小区19栋-2-1-1号,大连,无开发商,开发区,20190712,29.906498897603264,121.5913630631805,古耕国际酒店公寓,67,10712,街道办事处（居委会）代管物业,3,辽宁,9,二手房,1998
金州区金湾路132-2号,大连,大连金新房地产开发有限公司,金州,20190712,39.10269111644727,121.72221060686516,金州福佳新天地广场,118,8434,大连福佳物业管理有限公司,1.8,辽宁,8,二手房,2005
甘井子区山东路商业街D区12号公建,大连,无开发商,甘井子,20190712,39.001060021502965,121.58883960371418,兴华路,60,12440,街道办事处（居委会）代管物业,0.5,辽宁,8,二手房,1986
金州区五一路先进街道 陶然居2-2,大连,大连金开房地产开发有限公司,金州,20190712,39.0830973395057,121.7630113583655,华邦俪城,111,10292,大连华邦物业有限公司,1.3,辽宁,9,二手房,2010
甘井子区促进路200号,大连,大连亿达房地产股份有限公司,甘井子,20190712,38.95810188892782,121.58530036264898,林语家话,35,26433,亿达物业管理有限公司,1.2,辽宁,7,二手房,2005
沙河口区西南路643号,大连,无开发商,沙河口,20190712,38.943483429804665,121.5833555851182,西关街,37,11295,无物业管理服务,-,辽宁,7,二手房,1995
无门店信息,大连,大连亿达房地产股份有限公司,旅顺口,20190712,34.52713835999158,118.76812980670795,亿达玉龙湾,46,9360,亿达物业管理有限公司,1.5,辽宁,7,二手房,2010
沙河口区锦石路8号,大连,大连锦绣房地产开发有限公司,沙河口,20190712,38.94771288948481,121.56110903658733,锦云中园,69,10685,大连锦绣物业管理有限公司,0.3,辽宁,8,二手房,1993
中山区民运巷 47号1层2号,大连,无开发商,中山,20190712,38.905955122300846,121.64798148011702,民运巷,19,11219,无物业管理服务,-,辽宁,7,二手房,1989
开发区红梅小区19栋-2-1-1号,大连,开发区城建局,开发区,20190712,29.906498897603264,121.5913630631805,红梅小区,47,12712,街道办事处（居委会）代管物业,0.3,辽宁,8,二手房,1992
甘井子区泉水D1区37-7号,大连,大连运腾房地产开发有限公司,甘井子,20190712,39.013992871679214,121.61921940045104,锦泉源D3区,70,12875,大连南虹物业管理有限公司,0.5,辽宁,8,二手房,2006
金州区南棉路310号,大连,无开发商,金州,20190712,39.09939229372624,121.72414976100345,南棉小区,158,7298,街道办事处（居委会）代管物业,0.5,辽宁,8,二手房,1987
甘井子区圣林南园3-3号,大连,大连广泰房屋开发有限公司,甘井子,20190712,38.95191781681833,121.54394961192217,美树日记,77,22593,大连华安物业管理有限公司,1.6,辽宁,8,二手房,2007
甘井子区泉水B2区19-1号,大连,大连金广集团,甘井子,20190712,39.0101309886317,121.60812584213187,金色阳光家园,58,13665,大连金广物业服务有限公司,0.5,辽宁,8,二手房,2002
大连市甘井子区宜居园10-1号房屋,大连,大连万科置业有限公司,甘井子,20190712,38.99913094587405,121.52084969112292,万科现在城,19,15140,大连万科物业服务有限公司,2.2,辽宁,8,二手房,2015
大连市甘井子区钻石湾和信园13-5,大连,远洋地产有限公司,甘井子,20190712,38.958699272665584,121.61903564217761,远洋钻石湾三期,70,21579,远洋亿家物业服务股份有限公司大连分公司,1.5,辽宁,8,二手房,2014
金州新区先进街道五一路350-1号1-2层,大连,大连市金州区育才房地产开发有限公司,金州,20190712,39.078667146419825,121.77094423323935,康居小区,55,7655,街道办事处（居委会）代管物业,-,辽宁,8,二手房,1995
金州区同济路44号,大连,大连阿尔滨中辰置业有限公司,金州,20190712,39.10476859984152,121.71234684495865,瀛海金洲,93,8431,大连阿尔滨汇城物业服务有限公司,0.5,辽宁,8,二手房,2006
甘井子区小平岛路66-4号,大连,大连软件园瑞安发展有限公司,高新园区,20190712,38.84623138470555,121.51516818634872,悦丽海湾,57,20259,上海丰城物业管理有限公司,2.8,辽宁,8,二手房,2010
开发区杏树里10栋-14,大连,无开发商,开发区,20190712,39.08113818354046,121.78505742127606,松苑山庄,82,5926,大连市金州区先进物业管理中心,0.5,辽宁,8,二手房,1990
甘井子区促进路30号2-1-1,大连,大连谷和房屋开发有限公司,甘井子,20190712,38.954133128707575,121.58355746311207,谷和温馨苑,23,17754,大连谷和物业管理有限公司,0.6,辽宁,8,二手房,2002
甘井子区辛寨子街道中冶蓝城辛虹园39-7号公建,大连,大连中冶京诚置业有限公司,甘井子,20190712,38.98155611421408,121.49259383356096,中冶蓝城C区,41,17245,大连添翼物业服务有限公司,2,辽宁,8,二手房,2011
沙河口区红凌路137号,大连,大连大实企业集团房屋开发有限公司,甘井子,20190712,38.922699288974506,121.54713601744747,泊林阳光A区,15,14012,大连弘实物业管理有限公司,0.6,辽宁,8,二手房,2006
高新园区硅谷假日小区25号楼地下室,大连,大连志恒房地产开发有限公司,高新园区,20190712,38.86467854992112,121.53720784613759,菁英汇,63,15022,大连海创物业管理有限公司,1.2,辽宁,7,二手房,2007
金州区凤翔路220号,大连,大连润景房地产开发有限公司,金州,20190712,39.08410553937731,121.77700083356399,恒盛阳光美麓,143,9571,沈阳阳光鑫地物业管理有限公司大连分公司,1.6,辽宁,7,二手房,2006
大连市金州新区中长街道碧海尚城5-4号1-2层,大连,大连集品置业有限公司,金州,20190712,39.100290954587514,121.7304796052032,东林世家,48,14923,大连百安物业管理有限公司,1,辽宁,7,二手房,2000
高新园区海苑街36号1单元2号公建,大连,大连大有房屋开发有限公司,高新园区,20190712,20.06392317589085,110.32302599457326,大有恬园,46,17720,大连家园物业有限公司,0.5,辽宁,7,二手房,2003
甘井子区金北路17号,大连,无开发商,甘井子,20190712,38.97553393692831,121.59969720502335,76中学桥北,83,18467,无物业管理服务,-,辽宁,7,二手房,1965
开发区润海园中区65-7号1-2号,大连,华润（大连）房地产有限公司,开发区,20190712,39.04047273176333,121.76392358042445,华润海中国五期,110,14666,华润物业（大连）有限公司,3.1,辽宁,7,二手房,2006
金州区先进街道渤海街1-4号1-2层,大连,无开发商,金州,20190712,39.09512910553563,121.74578812616167,金元小区,60,7180,街道办事处（居委会）代管物业,0.1,辽宁,7,二手房,1993
开发区润海园中区62-9,大连,大连金广嘉亿置地有限公司,开发区,20190712,39.04047273176333,121.76392358042445,大连海湾城一期,111,12466,大连金广物业服务有限公司,2.6,辽宁,7,二手房,2008
甘井子区海口路77—5号,大连,暂无信息,甘井子,20190712,38.960286398428124,121.60305183172997,鹏辉新世纪四期,48,17771,大连鹏辉物业管理有限公司,0.6,辽宁,7,二手房,2003
甘井子区金家街17-7号,大连,暂无信息,甘井子,20190712,38.97493697764367,121.60110987128529,金四街,40,20390,无物业管理服务,-,辽宁,7,二手房,1952
高新园区海苑街30号1单元1号公建,大连,大连大有房屋开发有限公司,高新园区,20190712,20.06392317589085,110.32302599457326,大有恬园二期,44,17335,大连家园物业有限公司,1.2,辽宁,7,二手房,2009
甘井子辛吉街150号-7号,大连,大连新星房地产开发有限公司,甘井子,20190712,38.96368508446978,121.52671221254214,新星帕尔美娜,53,15868,大连生生物业有限公司,1,辽宁,7,二手房,2008
无门店信息,大连,大连亚联房地产开发有限公司,甘井子,20190712,34.52713835999158,118.76812980670795,翡翠春城,80,14590,大连亚联物业管理有限公司,1.6,辽宁,7,二手房,2010
开发区黄海西路54号,大连,大连凯伦房地产开发股份有限公司,开发区,20190712,39.047714586087785,121.76688238228269,凯伦凯悦,99,8817,大连凯悦物业管理有限公司,3.1,辽宁,7,二手房,2003
甘井子区甘井子街3号公建,大连,无开发商,甘井子,20190712,38.982086281836246,121.63426694995971,北山小区,24,9164,无物业管理服务,0.2,辽宁,7,二手房,1988
西岗区鞍山路65-5号,大连,大连万达房地产开发有限公司,沙河口,20190712,38.926971569913064,121.60260230348328,79中广电中心,48,28454,无物业管理服务,-,辽宁,7,二手房,1988
无门店信息,大连,大连鹏玥房地产开发有限公司,开发区,20190712,34.52713835999158,118.76812980670795,中环城市广场,29,9327,大连鹏玥物业公司,1.5,辽宁,7,二手房,2012
开发区安盛里5栋-4,大连,大连华宇房地产开发有限公司,开发区,20190712,23.112106678834838,113.27801046214822,叠翠花香,25,9468,大连经济技术开发区永嘉物业管理有限公司,0.5,辽宁,6,二手房,1999
大连市甘井子区椒房街24号楼2-104链家地产,大连,无开发商,甘井子,20190712,38.985363789837166,121.61034055597686,椒房,79,14233,无物业管理服务,0.5,辽宁,7,二手房,1980
高新园区聚贤路36号5幢1单元1层1号,大连,大连海创房地产开发有限公司,高新园区,20190712,32.31472011562832,119.46141263909165,海创半山壹号,63,17306,大连海创物业管理有限公司,1.8,辽宁,6,二手房,2010
沙河口区富国街34-3,大连,大连万达房地产开发有限公司,沙河口,20190712,38.90159716600704,121.58930603357904,星海人家,65,27587,大连万景物业管理有限公司,1.2,辽宁,6,二手房,2001
甘井子区海口路77—5号,大连,大连圣韬房地产开发有限公司,甘井子,20190712,38.960286398428124,121.60305183172997,万福居,52,18701,大连圣韬物业管理有限公司,0.5,辽宁,6,二手房,2004
西岗区香炉礁24号1-1,大连,大连新型房地产开发有限公司,西岗,20190712,38.92047268927287,121.61862512554262,金海花园西园,47,11970,无物业管理服务,0.5,辽宁,6,二手房,1990
开发区杏树里10栋-14,大连,大连华宇房地产开发有限公司,开发区,20190712,39.08113818354046,121.78505742127606,华宇凤凰城,78,8355,大连华宇物业管理有限公司,1,辽宁,6,二手房,2006
大连市沙河口区黄河路729号,大连,无开发商,沙河口,20190712,38.91710565765228,121.58954758972729,南昌平小区,56,12917,街道办事处（居委会）代管物业,0.8,辽宁,6,二手房,1986
甘井子区泉水D1区10-2#1-1-7,大连,大连运达房地产集团有限公司,甘井子,20190712,39.01504676175047,121.61751269364314,锦泉源B4区,67,11447,大连佳泰物业管理有限公司,0.5,辽宁,6,二手房,2002
甘井子区红旗西路104-7,大连,大连盛达基业房地产开发有限公司,甘井子,20190712,38.940335495502666,121.52722586363274,依山云水,22,14622,大连盛新物业管理有限公司,0.4,辽宁,6,二手房,2004
无门店信息,大连,无开发商,甘井子,20190712,34.52713835999158,118.76812980670795,七星广场,17,9052,街道办事处（居委会）代管物业,0.2,辽宁,6,二手房,1990
甘井子区华北路花锦园28号23-3-1-2建筑物,大连,大连东特房地产开发有限公司,甘井子,20190712,38.951627958411166,121.5739439799003,东特爱俪舍,41,15976,大连东特祥禾物业管理有限公司,0.6,辽宁,6,二手房,2004
甘井子区红南东街7-7号,大连,大连大实企业集团房屋开发有限公司,甘井子,20190712,38.92880462247992,121.54144910207062,泊林和山,26,11496,大连弘实物业管理有限公司,0.6,辽宁,6,二手房,2007
开发区安盛里5栋-4,大连,大连汽贸房屋开发有限公司,开发区,20190712,23.112106678834838,113.27801046214822,东北明珠,60,12285,大连汽贸物业管理有限公司,1.5,辽宁,6,二手房,2006
甘井子区玉丽街2号楼1单元4号公建,大连,大连新型房地产开发有限公司,甘井子,20190712,38.98705071699301,121.55513043130172,泡崖康馨园,30,10703,大连新兴物业管理有限公司,0.2,辽宁,6,二手房,2000
中山区解放路604号,大连,无开发商,西岗,20190712,38.89026319122045,121.66407876092346,桃源小学,18,15591,无物业管理服务,-,辽宁,6,二手房,1990
中山区爱华街13号,大连,大连一方地产有限公司,中山,20190712,38.92541607518685,121.6535728031028,大连国际酒店,21,23147,大连一方物业管理有限公司,3.0,辽宁,6,二手房,1992
无门店信息,大连,大连亿达房地产股份有限公司,高新园区,20190712,34.52713835999158,118.76812980670795,亿达悦龙居,23,14647,亿达物业管理有限公司,2.8,辽宁,6,二手房,2015
开发区红梅小区19栋-2-1-1号,大连,香港北海集团,开发区,20190712,29.906498897603264,121.5913630631805,君悦豪庭,58,11889,街道办事处（居委会）代管物业,1.2,辽宁,7,二手房,2001
西岗区黄河路362号公建,大连,大连万峰房地产开发有限公司,西岗,20190712,38.91819905243802,121.61365779430986,万达华府一期,62,26953,大连万景物业管理有限公司,1.3,辽宁,6,二手房,2004
中山区同心街72号1楼公建,大连,大连泰宸房地产开发有限责任公司,中山,20190712,38.91979245940674,121.64769198230202,伊景华园,64,26123,街道办事处（居委会）代管物业,2.2,辽宁,6,二手房,1990
甘井子区虹港路16号楼1层公建,大连,大连鑫奇房地产开发有限公司,甘井子,20190712,38.9645939333502,121.553851837474,鑫境界,86,12266,大连鑫境界物业管理有限公司,1.3,辽宁,6,二手房,2007
无门店信息,大连,大连软件园瑞安发展有限公司,高新园区,20190712,34.52713835999158,118.76812980670795,大连天地悦翠台,100,15045,大连万科物业服务有限公司,1,辽宁,6,二手房,2010
金州区先进街道陶然居公建2-2号1层,大连,大连金信集团房地产有限公司,金州,20190712,39.08283372756215,121.76170982507143,桃园小区,208,6916,街道办事处（居委会）代管物业,3,辽宁,6,二手房,1992
沙河口区锦石园24-7号第A2-13幢1单元1层1号,大连,大连锦绣房地产开发有限公司,沙河口,20190712,38.913544290955585,121.59450670056631,锦城园C区,25,15234,大连锦绣物业管理有限公司,0.6,辽宁,6,二手房,2005
大连市金州新区友谊街道和平路59-10号1-2层公建,大连,无开发商,金州,20190712,39.112168401852266,121.72006917947859,和平小区,24,8189,街道办事处（居委会）代管物业,0.1,辽宁,6,二手房,1989
高新园区硅谷假日小区25号楼地下室,大连,大连鑫亿房屋开发有限公司,高新园区,20190712,38.86467854992112,121.53720784613759,硅谷假日,53,19862,大连斌弘物业管理有限公司,0.8,辽宁,6,二手房,2003
金州新区八一路金都嘉园1号楼1号公建,大连,大连元新房地产开发有限公司,金州,20190712,39.05525210261778,121.74865634199398,华夏金城,57,9935,大连元新物业管理有限公司,1.2,辽宁,6,二手房,2002
中山区中南路店212号门头房,大连,无开发商,中山,20190712,38.91149759691359,121.67700561077149,中南路,63,12872,街道办事处（居委会）代管物业,-,辽宁,6,二手房,1987
大连经济技术开发区时代城4-3号1-2号,大连,远洋地产有限公司,开发区,20190712,39.0992481321252,121.83007860699459,远洋时代城四期,57,8726,大连远洋基业物业管理有限公司,1.5,辽宁,6,二手房,2010
无门店信息,大连,大华集团大连置业有限公司,高新园区,20190712,34.52713835999158,118.76812980670795,大华锦绣华城四期,38,22697,大连大华物业管理有限公司,2.5,辽宁,6,二手房,2010
开发区兴城路29-81层,大连,大连亿锋房地产实业有限公司,开发区,20190712,39.050214252167194,121.75835946441768,亿锋广场二期,48,15014,大连广恒物业管理有限公司,2.5,辽宁,6,二手房,2005
经济技术开发区城润万家62-8公建,大连,大连海汇房地产开发有限公司,开发区,20190712,39.06883436780937,117.72669530355309,正源吉祥e家祥福园,53,11676,大连正源物业服务有限公司,1.5,辽宁,6,二手房,2012
甘井子区惠泽南园3-4号,大连,大连鹏德房屋开发有限公司,甘井子,20190712,38.939326611323615,121.52337842113351,西山逸林,35,15302,大连三和住邦物业管理有限公司,1.3,辽宁,6,二手房,2008
中山区共建巷61号,大连,无开发商,中山,20190712,38.91828093658718,121.66259221532148,39中共建巷,21,26554,街道办事处（居委会）代管物业,0.5,辽宁,6,二手房,1982
无门店信息,大连,昕德（大连）房地产开发有限公司,金州,20190712,34.52713835999158,118.76812980670795,伟桥金北嘉园,68,7465,街道办事处（居委会）代管物业,0.5,辽宁,6,二手房,2012
经济技术开发区城润万家4-5号公建,大连,大连山河永好置业有限公司,开发区,20190712,39.05716325096989,121.75946281983826,山河秀景,56,10099,大连山河物业管理有限公司,1.5,辽宁,6,二手房,2000
甘井子区山东路315号14栋1单元1跃2层13号,大连,华润置地（大连）有限公司,甘井子,20190712,39.00206212579579,121.59357231641214,华润置地广场二期,51,20474,华润物业（大连）有限公司,2.9,辽宁,6,二手房,2011
开发区大开高吉里33栋6号,大连,大连开建集团有限公司,开发区,20190712,39.07355836059941,121.8280439450145,高安里,58,6758,广宜物业有限公司,0.2,辽宁,5,二手房,1998
开发区红梅小区19栋-2-1-1号,大连,大连开发区世元房地产开发有限公司,开发区,20190712,29.906498897603264,121.5913630631805,世元国际公寓,37,11510,大连世元物业管理有限公司,2,辽宁,5,二手房,2006
无门店信息,大连,大连晨阳房地产开发有限公司,金州,20190712,34.52713835999158,118.76812980670795,金科理想城,29,9548,金科物业服务集团有限公司,1.6,辽宁,5,二手房,2014
开发区黄海西路54号,大连,无开发商,开发区,20190712,39.047714586087785,121.76688238228269,翠南隆达院,23,8177,嘉兴物业管理有限公司,0.5,辽宁,5,二手房,1996
中山区山屏街116号1-1,大连,无开发商,中山,20190712,38.90729438486833,121.68598159980013,怡和街,27,12205,街道办事处（居委会）代管物业,0.5,辽宁,5,二手房,1990
开发区翠竹小区33栋4-1-1号,大连,暂无信息,开发区,20190712,30.635492106460237,119.69169575745704,翠竹中区,23,10503,嘉兴物业管理有限公司,0.3,辽宁,5,二手房,1996
中山区鲁迅路204号百盛新药特药商店一楼西侧部分,大连,大连港连房地产开发有限公司,中山,20190712,38.9258993614899,121.6768880001226,海港公寓（寺儿沟商圈）,10,12690,大连仁安物业管理有限公司,0.2,辽宁,5,二手房,1990
"西岗区泰公街20号2层7号 西岗区久寿街22号1层14号""",大连,大连锦绣大厦有限公司,西岗,20190712,38.92600196862723,121.62141976476381,锦绣大厦,8,7627,大连锦绣物业管理有限公司,1,辽宁,5,二手房,2000
无门店信息,大连,大连中政房地产开发有限公司,中山,20190712,34.52713835999158,118.76812980670795,中政小区,13,12242,大连中政物业管理有限公司,0.3,辽宁,5,二手房,1992
沙河口区绿清街12号,大连,大连绿波房屋开发集团有限公司,沙河口,20190712,38.93851335419565,121.57334844377094,绿香花园,18,13418,大连大伟物业管理有限公司,0.4,辽宁,5,二手房,2000
甘井子区山东路137号,大连,大连华南房地产开发有限公司,甘井子,20190712,38.99129404608926,121.59172125999353,名贵山庄青年公寓,3,15108,大连弘益达物业管理有限公司,0.5,辽宁,5,二手房,2001
甘井子区金家街17-7号,大连,大连嘉兴房地产开发有限公司,甘井子,20190712,38.97493697764367,121.60110987128529,青林美地,40,21101,大连嘉盛物业管理有限公司,0.5,辽宁,6,二手房,2003
大连市甘井子区泉水R2区33-4号第8幢1单元1跃2层9号,大连,大连天意房地产开发有限公司,甘井子,20190712,39.00961080610692,121.63892035059047,金地檀溪,89,18154,大连金地物业管理有限公司,2.6,辽宁,6,二手房,2014
甘井子区哲林北园17-6号,大连,大连恒德房屋开发有限公司,甘井子,20190712,38.9600267109581,121.53876726228256,恒德橄榄季,56,22107,大连恒德物业服务有限公司,1.4,辽宁,6,二手房,2008
无门店信息,大连,大连软件园世通开发有限公司,高新园区,20190712,34.52713835999158,118.76812980670795,亿达普罗旺斯二期,87,20790,亿达物业管理有限公司,2.6,辽宁,6,二手房,2010
金州区金湾路132-2号,大连,无开发商,金州,20190712,39.10269111644727,121.72221060686516,胜利西小区,110,7647,街道办事处（居委会）代管物业,0.5,辽宁,6,二手房,1990
无门店信息,大连,大连龙湖西城置业有限公司,甘井子,20190712,34.52713835999158,118.76812980670795,龙湖滟澜山,61,19966,大连龙湖物业服务有限公司,6.6,辽宁,6,二手房,2013
大连市甘井子区泉水N2区3-13号,大连,大连金广地产集团有限公司,甘井子,20190712,39.021116079001885,121.64659997607325,泉水N3区,87,10954,大连鹏辉物业管理有限公司,0.7,辽宁,6,二手房,2000
金州新区先进街道五一路350-1号1-2层,大连,大连中连房地产开发有限公司,金州,20190712,39.078667146419825,121.77094423323935,聚鑫小区二期,33,7914,大连新生活物业管理有限公司,0.5,辽宁,6,二手房,1995
沙河口区西南路643号,大连,大连泰安房地产开发有限公司,沙河口,20190712,38.943483429804665,121.5833555851182,幸福小区(沙河口),32,12186,大连三宝物业发展有限公司,0.3,辽宁,5,二手房,1995
大连市沙河口区文萃街1号1-2-2；大连市沙河口区由家五小区五号楼1单元2层1,大连,大连理工科技城建设开发有限公司,高新园区,20190712,38.88596852074166,121.54389553303217,文萃轩小区,46,17397,大连理工物业管理中心,0.2,辽宁,5,二手房,1980
甘井子区华东路22号公建,大连,无开发商,甘井子,20190712,38.97736184953593,121.5935814234334,秀山路,30,11742,街道办事处（居委会）代管物业,0.5,辽宁,5,二手房,1986
无门店信息,大连,大连君悦房地产开发有限公司,甘井子,20190712,34.52713835999158,118.76812980670795,君悦晟景,21,12678,大连弘实物业有限公司,1.2,辽宁,5,二手房,2010
开发区湾里南12栋-16-17-18号,大连,无开发商,开发区,20190712,39.070782084451,121.8506739675913,东城国际,42,8673,大连乾豪物业管理有限公司,1,辽宁,5,二手房,2005
无门店信息,大连,大连中连房地产开发有限公司,金州,20190712,34.52713835999158,118.76812980670795,憬园河畔,67,7941,大连新生活物业管理有限公司,0.4,辽宁,5,二手房,2000
甘井子金地艺境博艺西园2-1号,大连,大连丰达房地产开发有限公司,甘井子,20190712,39.04402110608829,121.665484498555,益丰乾城,23,13121,大连逸佳物业管理有限公司,1.6,辽宁,5,二手房,2012
开发区黄海西路201号107公建,大连,开发区城建局,开发区,20190712,39.04942604506828,121.80126318235419,东阁里,41,6956,大连经济技术开发区海青物业有限公司,0.4,辽宁,5,二手房,1994
无门店信息,大连,大连宏鼎房地产开发有限公司,旅顺口,20190712,34.52713835999158,118.76812980670795,国宝星月湾,64,11876,大连星海国宝物业管理有限公司,2.5,辽宁,5,二手房,2012
中山区北斗街53号1层1号,大连,大连运达房地产集团有限公司,中山,20190712,38.92727355733075,121.67002970974048,运达嘉洲阳光,34,19180,大连运达物业有限公司,1.8,辽宁,5,二手房,2006
甘井子区红旗中路143号1层4号,大连,大连长鹭房屋开发有限公司,甘井子,20190712,38.93169566676921,121.5426632438217,西街晶品,25,19047,大连万泰物业管理有限公司,0.8,辽宁,5,二手房,2006
开发区金源南里14栋-11号一层部分，14号-12号一层部分,大连,无开发商,开发区,20190712,39.06148862675436,121.82503941311765,金源南里,97,8956,嘉兴物业管理有限公司,0.3,辽宁,5,二手房,1995
大连市甘井子区融田西园52-11,大连,亿达集团大连科技城发展有限公司,甘井子,20190712,38.95800216293212,121.53151895549547,亿达春田馥园,58,19653,亿达物业管理有限公司,2.2,辽宁,5,二手房,2011
沙河口区黄河路535号,大连,大连首星房地产开发有限公司,沙河口,20190712,38.91773777159567,121.60217159922856,金色年华公馆,39,26725,大连首星物业管理有限公司,2.8,辽宁,5,二手房,2010
无门店信息,大连,大连乾豪集团有限公司,开发区,20190712,34.52713835999158,118.76812980670795,乾豪新界,78,11284,大连乾豪物业管理有限公司,1.7,辽宁,5,二手房,2010
中山区高尚路28-1号,大连,无开发商,中山,20190712,38.892673425111305,121.67148833870213,高洁巷,39,11387,街道办事处（居委会）代管物业,0.5,辽宁,5,二手房,1990
高新园区书香街1A#1-1-2,大连,大连金弘基房地产开发有限公司,高新园区,20190712,38.880372108393104,121.55218773010999,弘基三期,57,20443,大连金弘基物业管理有限公司,0.5,辽宁,5,二手房,2004
无门店信息,大连,大连运达房地产集团有限公司,甘井子,20190712,34.52713835999158,118.76812980670795,运达诺维溪谷一期,48,16938,大连运达物业有限公司,1.8,辽宁,5,二手房,2010
中山区中南路226号,大连,大连亿泰房屋开发有限公司,中山,20190712,38.90029610333926,121.68178899957817,亿泰庄园,13,15095,大连远洋基业物业管理有限公司,0.7,辽宁,5,二手房,1999
沙河口区恒利园42号-8,大连,无开发商,沙河口,20190712,38.93357562498634,121.57914091532649,新建小区,4,11658,无物业管理服务,-,辽宁,5,二手房,1977
沙河口区锦石路8号,大连,大连锦绣房地产开发有限公司,沙河口,20190712,38.94771288948481,121.56110903658733,锦泉中园,36,12199,大连锦绣物业管理有限公司,0.3,辽宁,5,二手房,1990
无门店信息,大连,大连中海新城置业有限公司,甘井子,20190712,34.52713835999158,118.76812980670795,中海凤凰熙岸,66,13816,大连中海物业管理有限公司,2.3,辽宁,5,二手房,2010
金州区南棉路310号,大连,无开发商,金州,20190712,39.09939229372624,121.72414976100345,胜利小区,102,8177,无物业管理服务,0.5,辽宁,5,二手房,1986
甘井子区玉丽街39号楼3号公建,大连,大连新型房地产开发有限公司,甘井子,20190712,38.98706755029984,121.55605471197089,玉浓街,51,10682,大连新兴物业管理有限公司,0.2,辽宁,5,二手房,2000
西岗区八一路102号,大连,大连澳南房屋开发有限公司,中山,20190712,38.92047268927287,121.61862512554262,明秀山庄A区,55,34558,绿城物业服务集团有限公司大连分公司,1.9,辽宁,5,二手房,2008
大连市金州区友谊街道南金华城25号1-2层1号,大连,大连友谊合升房地产开发有限公司,金州,20190712,39.128677228885614,121.71356109978767,恒达花园,75,8325,街道办事处（居委会）代管物业,0.5,辽宁,5,二手房,2003
金州区先进街道渤海街1-4号1-2层,大连,无开发商,金州,20190712,39.09512910553563,121.74578812616167,金星小区,28,7909,街道办事处（居委会）代管物业,0.1,辽宁,5,二手房,1993
开发区金源南里14栋-11号一层部分，14号-12号一层部分,大连,大连开建房地产开发有限公司,开发区,20190712,39.06148862675436,121.82503941311765,金源北里安居小区,80,8425,嘉兴物业管理有限公司,0.3,辽宁,5,二手房,1998
沙河口区西南路161号,大连,无开发商,沙河口,20190712,38.89269676588945,121.56639953951542,西沟小区,37,12674,无物业管理服务,-,辽宁,5,二手房,1980
沙河口区富国街14号1-1-2,大连,大连永辉房地产开发有限公司,沙河口,20190712,38.901027106600836,121.59047734850638,百年汇,124,18814,大连百年城物业管理有限公司,2.8,辽宁,5,二手房,2006
甘井子区绿洲园60号,大连,大连友谊合升房地产开发有限公司,甘井子,20190712,38.95390300214936,121.59409785747448,壹品天城,126,28849,大连富丽华物业管理有限公司,0.5,辽宁,5,二手房,2010
甘井子区山东路398号,大连,华润置地（大连）开发有限公司,甘井子,20190712,38.99821826443242,121.59274974973462,华润置地广场三期,52,22598,华润物业（大连）有限公司,2.9,辽宁,5,二手房,2014
西岗区八一路196号1-3,大连,大连三环置业有限公司,西岗,20190712,38.92047268927287,121.61862512554262,桃花源小区,51,10326,大连三寰物业管理有限公司,0.5,辽宁,5,二手房,1993
大连市甘井子区椒房街24号楼2-104链家地产,大连,大连港置地有限公司,甘井子,20190712,38.985363789837166,121.61034055597686,大连港天下粮仓,18,20402,大连万科物业服务有限公司,2.2,辽宁,5,二手房,2013
沙河口区星海广场B3区14-2号1层,大连,大连友谊合升房地产开发有限公司,沙河口,20190712,38.88693148294673,121.58735631267305,壹品星海公寓,34,18740,大连富丽华物业管理有限公司,2,辽宁,5,二手房,2003
沙河口区成仁街91号,大连,无开发商,沙河口,20190712,38.91539947107844,121.59585638842556,西安路公寓,16,13619,大连协和物业管理有限公司,0.5,辽宁,5,二手房,1997
甘井子区山东路127-2号,大连,无开发商,甘井子,20190712,38.99065559549029,121.59126483545545,七迎路,40,12551,街道办事处（居委会）代管物业,0.2,辽宁,5,二手房,1990
西岗区鞍山路29号龙畔锦城东门,大连,大连凯润房屋开发有限公司,西岗,20190712,38.92763470697088,121.61498923399098,景润一期,48,11735,无物业管理服务,-,辽宁,5,二手房,1998
甘井子区迎客路郭东街一品蓝天公建14号,大连,大连福田房屋开发有限公司,甘井子,20190712,38.958456949708726,121.556756277476,隽佳欣苑,42,14829,大连安洁物业管理服务有限公司,0.5,辽宁,5,二手房,2004
金州区同济路44号,大连,大连峰景房地产开发有限公司,金州,20190712,39.10476859984152,121.71234684495865,峰景西海岸,51,9118,大连峰景物业有限公司,0.8,辽宁,5,二手房,2004
沙河口区五一路177-1-1-1,大连,大华集团大连房地产开发有限公司,沙河口,20190712,38.913544290955585,121.59450670056631,大华御庭,56,22284,大连乐尔居物业服务有限公司,1.4,辽宁,5,二手房,2009
大连市甘井子区丰收路3-5号,大连,大连智和房地产开发有限公司,甘井子,20190712,38.965377255081755,121.58288415324094,华锦铭苑,43,18602,大连东昌物业管理有限公司,1.3,辽宁,5,二手房,2009
大连市甘井子区椒房街24号楼2-104链家地产,大连,中铁建（大连）置业有限公司,甘井子,20190712,38.985363789837166,121.61034055597686,青秀蓝湾一期,26,20462,中国铁建地产集团物业公司,1.5,辽宁,5,二手房,2015
金州区先进街道陶然居公建2-2号1层,大连,大连金信集团房地产有限公司,金州,20190712,39.08283372756215,121.76170982507143,金信陶然居,81,9623,北京瑞思特物业管理有限公司,0.5,辽宁,5,二手房,1995
甘井子区金家街17-7号,大连,暂无信息,甘井子,20190712,38.97493697764367,121.60110987128529,金二街,39,19583,无物业管理服务,-,辽宁,5,二手房,1970
沙河口区黑石礁街5号1层1号,大连,无开发商,沙河口,20190712,38.879813345473714,121.56313742300513,黑石礁,14,12010,无物业管理服务,-,辽宁,4,二手房,1990
开发区大开高吉里33栋6号,大连,大连开建集团有限公司,开发区,20190712,39.07355836059941,121.8280439450145,高城北花园,38,8911,大连经济技术开发区聚盛达物业管理有限公司,0.2,辽宁,4,二手房,1998
开发区松苑街23号,大连,大连泰乐房地产开发有限公司,开发区,20190712,22.52087435807652,113.40156105086167,碧海华庭,51,6787,大连海滨物业管理有限公司,0.5,辽宁,4,二手房,2000
无门店信息,大连,大连众仕房地产开发有限公司,开发区,20190712,34.52713835999158,118.76812980670795,山河御景,22,8292,大连山河物业管理有限公司,1.5,辽宁,4,二手房,2010
大连市高新园区软件园路1A-3号,大连,大连软景房地产开发有限公司,高新园区,20190712,38.89360013642285,121.54653763548625,亿达软景中心,17,21350,亿达物业管理有限公司,3.5,辽宁,4,二手房,2005
沙河口区西南路161号,大连,无开发商,沙河口,20190712,38.89269676588945,121.56639953951542,大医物业,8,13569,街道办事处（居委会）代管物业,0.5,辽宁,4,二手房,1990
中山区鲁迅路184号1层B—A,大连,大连环海房地产开发有限公司,中山,20190712,38.92590875965419,121.67594393403164,环海公寓,16,10916,大连富民物业管理有限公司,0.5,辽宁,4,二手房,1999
甘井子区甘井子路32号楼1单元1楼9号,大连,大连和华房地产开发有限公司,甘井子,20190712,38.982488275116516,121.63345389253514,万成御园,13,14432,大连银力物业管理有限公司,1.3,辽宁,4,二手房,2015
甘井子区华北路花锦园28号23-3-1-2建筑物,大连,大连东特房地产开发有限公司,甘井子,20190712,38.951627958411166,121.5739439799003,东特星中环,24,16414,大连东特祥禾物业管理有限公司,0.8,辽宁,4,二手房,2003
沙河口区富国街14号1-1-2,大连,无开发商,沙河口,20190712,38.901027106600836,121.59047734850638,星月街,7,11720,街道办事处（居委会）代管物业,0.5,辽宁,4,二手房,1986
无门店信息,大连,新兴际华集团有限公司,甘井子,20190712,34.52713835999158,118.76812980670795,中华城,19,15909,大连仲邦维行物业管理有限公司,2.5,辽宁,4,二手房,2017
甘井子区红旗中路143号1层4号,大连,亿海房地产开发有限公司,甘井子,20190712,38.93169566676921,121.5426632438217,红旗西路,5,12454,大连万泰物业管理有限公司,0.2,辽宁,4,二手房,1996
无门店信息,大连,暂无信息,金州,20190712,34.52713835999158,118.76812980670795,天鸿展视界,32,7280,无物业管理服务,-,辽宁,5,二手房,2008
无门店信息,大连,大连新跃房地产开发有限公司,金州,20190712,34.52713835999158,118.76812980670795,金海国际花园,224,8003,盘锦瀚新物业管理有限公司,1,辽宁,5,二手房,2005
甘井子区泉水B5区27-9,大连,大连运达房地产集团有限公司,甘井子,20190712,39.01477152073682,121.60970286326823,锦泉源B5区,79,12956,政治物业管理有限公司,0.1,辽宁,5,二手房,1999
经济技术开发区城润万家4-5号公建,大连,无开发商,开发区,20190712,39.05716325096989,121.75946281983826,西山小区,3,7771,街道办事处（居委会）代管物业,0.5,辽宁,4,二手房,1992
西岗区华北路100号1层5号,大连,大连双振房屋开发有限公司,沙河口,20190712,38.92047268927287,121.61862512554262,香茗苑,6,16143,大连双振物业有限公司,0.5,辽宁,4,二手房,2002
西岗区八一路196号1-3,大连,无开发商,西岗,20190712,38.92047268927287,121.61862512554262,新泉巷,14,9199,无物业管理服务,-,辽宁,4,二手房,1990
甘井子区辛寨子街道中冶蓝城辛虹园39-7号公建,大连,大连中冶京诚置业有限公司,甘井子,20190712,38.98155611421408,121.49259383356096,中冶蓝城D区,35,15629,大连添翼物业服务有限公司,2,辽宁,4,二手房,2010
中山区益民街16号1层1号,大连,无开发商,中山,20190712,38.93092761298906,121.66470740073377,益民街（三八广场）,7,13999,无物业管理服务,-,辽宁,4,二手房,1992
甘井子区虹港路16号楼1层公建,大连,无开发商,甘井子,20190712,38.9645939333502,121.553851837474,迎客路（机场商圈）,34,12503,街道办事处（居委会）代管物业,0.2,辽宁,4,二手房,1990
沙河口区知心园10号公建,大连,暂无信息,高新园区,20190712,38.893977135945136,121.55667141994431,亿达康派公寓,19,17162,亿达物业管理有限公司,2.2,辽宁,4,二手房,2005
西岗区鞍山路29号龙畔锦城东门,大连,大连铁路房地产开发有限责任公司,西岗,20190712,38.92763470697088,121.61498923399098,龙畔锦城,49,20038,大连亚航物业管理有限公司,1.2,辽宁,4,二手房,2008
甘井子区泉水K4区1号2单元1层1号,大连,暂无信息,甘井子,20190712,39.01482019232349,121.63242049308988,龙畔金泉五期K3区,63,13791,大连新兴物业管理有限公司,0.5,辽宁,4,二手房,2008
甘井子区华龙南园12-4-3-1-3,大连,大连长鹭房屋开发有限公司,甘井子,20190712,38.98528794231248,121.61028969481718,晶品枫林,46,13647,北京房修一物业管理有限公司,0.5,辽宁,4,二手房,2008
西岗区康平街2号（5号楼3-1-3号）,大连,暂无信息,西岗,20190712,38.91044414697888,121.61980769264477,34中民众街,17,29522,无物业管理服务,-,辽宁,4,二手房,1985
中山区武昌街武昌公寓6号公建,大连,暂无信息,中山,20190712,38.912280913445784,121.64921130527547,学府林居,24,10728,暂无信息,1,辽宁,4,二手房,2000
无门店信息,大连,大连市中联房地产开发有限公司,金州,20190712,34.52713835999158,118.76812980670795,卧龙园,28,6770,大连健龙物业管理有限公司,0.5,辽宁,4,二手房,2000
无门店信息,大连,大连新兴海韵房地产开发有限公司,金州,20190712,34.52713835999158,118.76812980670795,通用阳光丽景,70,7142,街道办事处（居委会）代管物业,1.4,辽宁,4,二手房,2006
沙河口区黄浦路18号—5号公建,大连,大连高新技术产业园区建设开发总公司,高新园区,20190712,38.8771225143479,121.54427480390662,学府1+1公寓,8,16537,街道办事处（居委会）代管物业,0.6,辽宁,4,二手房,2005
无门店信息,大连,暂无信息,甘井子,20190712,34.52713835999158,118.76812980670795,海禄苑小区,35,10024,无物业管理服务,0.9,辽宁,4,二手房,2000
沙河口区前程街46号4—1—2号,大连,大连欧兰房地产开发有限公司,甘井子,20190712,38.913544290955585,121.59450670056631,耕海山尚,27,17038,大连耕海物业管理有限公司,1.5,辽宁,4,二手房,2010
大连开发区金马路169-2-8号,大连,大连德泰控股有限公司,开发区,20190712,39.057398235688176,121.78261137849105,德泰时代广场,39,13499,大连德泰物业管理有限公司,0.5,辽宁,4,二手房,2010
无门店信息,大连,大连明和房地产开发有限公司,开发区,20190712,34.52713835999158,118.76812980670795,知语山园,34,10755,大连大众物业管理有限公司,1.3,辽宁,4,二手房,2003
西岗区平等街21号1层2号,大连,辽宁宁安房地产开发有限公司,西岗,20190712,38.92251066253164,121.63236845125735,赛维利大厦,22,20712,大连良玖物业管理有限责任公司,1.5,辽宁,4,二手房,2004
甘井子区华北路花锦园28号23-3-1-2建筑物,大连,大连东特房地产开发有限公司,甘井子,20190712,38.951627958411166,121.5739439799003,东特金星公馆,34,16240,大连东特祥禾物业管理有限公司,1.2,辽宁,4,二手房,2009
大连市甘井子区辛如街35号1单元1层1号,大连,大连新星房地产开发有限公司,甘井子,20190712,38.96862607066881,121.52294869064194,新星绿城六期,38,15201,大连生生物业管理有限公司,1,辽宁,4,二手房,2006
开发区小孤山西里3栋-11号,大连,大连广隆房地产开发有限公司,开发区,20190712,39.02715282297674,121.80682183666346,文华园,41,9935,大连广隆物业管理有限公司,1.1,辽宁,4,二手房,2007
甘井子区泉水D1区37-7号,大连,大连运腾房地产开发有限公司,甘井子,20190712,39.013992871679214,121.61921940045104,锦泉源D4区,33,13997,大连嘉和物业管理有限公司,0.5,辽宁,4,二手房,2006
高新园区硅谷假日小区25号楼地下室,大连,浦项（大连）软件园开发有限公司,高新园区,20190712,38.86467854992112,121.53720784613759,浦项道,38,23282,浦项(大连)物业管理有限公司,3.4,辽宁,4,二手房,2015
中山区杏林街66—5号,大连,嘉和房地产集团有限公司,中山,20190712,38.92572771377599,121.66490555592502,嘉和花样年华三期,56,24179,大连嘉和物业管理有限公司,3.5,辽宁,4,二手房,2002
金州区光明街道育才街42-6号1-2层,大连,大连市金州区育才房地产开发有限公司,金州,20190712,39.109080894078986,121.7182584929096,职高小区,37,8345,大连金州育才物业管理有限公司,0.5,辽宁,4,二手房,1900
无门店信息,大连,大连宏港房地产开发有限公司,开发区,20190712,34.52713835999158,118.76812980670795,港湾观海,70,8682,大连宏港物业管理有限公司,0.5,辽宁,4,二手房,2010
开发区东北三街94号1层,大连,大连同济房地产开发有限公司,开发区,20190712,39.05723508011585,121.80570768630555,新东方公寓三期,87,6692,大连同济物业管理有限公司,1.5,辽宁,4,二手房,2005
甘井子区华东路22号公建,大连,大连凯祥房地产开发有限公司,甘井子,20190712,38.97736184953593,121.5935814234334,环馨山庄,21,13171,大连凯祥物业管理有限公司,0.5,辽宁,4,二手房,2000
中山区武昌街武昌公寓6号公建,大连,无开发商,中山,20190712,38.912280913445784,121.64921130527547,铁山巷,17,11991,无物业管理服务,0.5,辽宁,4,二手房,1990
开发区鹏程家园66#-6、66#-7公建,大连,大连神洲众益集团有限公司,开发区,20190712,37.92440451755906,112.59861436589645,众益阳光海岸,97,10556,大连万佳物业管理有限公司,1.2,辽宁,4,二手房,2004
金州新区先进街道渤海街7-4号1-2层、7-3号1-2层,大连,无开发商,金州,20190712,39.09342713035472,121.74590886291374,金色阳光,17,8267,大连金广物业有限公司,0.5,辽宁,4,二手房,2003
开发区正恒园1-16,大连,暂无信息,开发区,20190712,39.04823944344617,121.76165468797754,正泰园B区,33,11905,无物业管理服务,-,辽宁,4,二手房,2000
沙河口区绿清街12号,大连,大连中海新城置业有限公司,沙河口,20190712,38.93851335419565,121.57334844377094,中海英伦观邸,51,23133,大连中海物业管理有限公司,1.8,辽宁,4,二手房,2009
西岗区平等街21号1层2号,大连,辽宁宁安房地产开发有限公司,西岗,20190712,38.92251066253164,121.63236845125735,良玖国际,40,16291,大连良玖物业管理有限责任公司,3.7,辽宁,4,二手房,2004
西岗区平等街21号1层2号,大连,暂无信息,西岗,20190712,38.92251066253164,121.63236845125735,实验小学英华街,91,21426,无物业管理服务,0.6,辽宁,4,二手房,1985
金州新区先进街道渤海街7-4号1-2层、7-3号1-2层,大连,大连海洋房地产开发有限公司,金州,20190712,39.09342713035472,121.74590886291374,金海嘉园,17,8358,大连辽渔物业管理有限公司,0.8,辽宁,4,二手房,2003
沙河口区民权街324号,大连,大连天河房地产开发集团有限公司,沙河口,20190712,38.92064616208148,121.59777611850379,民权小区,40,12924,大连福港物业管理有限公司,0.2,辽宁,4,二手房,1990
甘井子区华龙南园34-5号34-库4号34-5号,大连,大连运达房地产集团有限公司,甘井子,20190712,38.98270467597865,121.6117222765123,泊岭紫郡,38,13392,大连怡和物业服务有限公司,0.9,辽宁,4,二手房,2008
无门店信息,大连,大连安邦房地产开发有限公司,甘井子,20190712,34.52713835999158,118.76812980670795,安邦阳光润城,39,12987,无物业管理服务,-,辽宁,4,二手房,2008
金州区站前街道盛滨花园B区13号楼2号公建,大连,大连阿尔滨集团房地产开发有限公司,金州,20190712,39.09609011892329,121.7335816409767,现代雅筑,49,6771,大连阿尔滨集团物业管理有限公司,0.5,辽宁,4,二手房,2003
大连市金州新区中长街道碧海尚城5-4号1-2层,大连,无开发商,金州,20190712,39.100290954587514,121.7304796052032,碧海尚城,130,8100,街道办事处（居委会）代管物业,0.8,辽宁,4,二手房,2005
沙河口区兰田街33号,大连,无开发商,沙河口,20190712,38.926138912221084,121.56486022834609,马栏广场东,22,11475,大连辽南物业管理有限公司,0.2,辽宁,4,二手房,1995
金州区同济路44号,大连,大连金宸集团,金州,20190712,39.10476859984152,121.71234684495865,连大文润金宸三期,58,11756,大连四通物业管理有限公司,1,辽宁,4,二手房,2009
大连市甘井子区七贤路8-3号,大连,大连瑞恒置业有限公司,高新园区,20190712,38.86602612116956,121.53842265737707,未名山,55,26102,大连龙湖物业服务有限公司,3,辽宁,4,二手房,2010
沙河口区恒利园42号-8,大连,大连三寰房屋开发有限公司,沙河口,20190712,38.93357562498634,121.57914091532649,三寰芳草园,24,16360,大连空港物业管理有限公司,0.4,辽宁,4,二手房,2002
甘井子区玉丽街39号楼3号公建,大连,大连乾元房地产开发有限公司,甘井子,20190712,38.98706755029984,121.55605471197089,和合美家,13,13674,大连广兴物业管理有限公司,0.8,辽宁,4,二手房,1998
高新园区火炬路18号,大连,大连联合柏立置业有限公司,高新园区,20190712,38.937738080520404,117.39340752036043,柏悦国际公寓,46,18210,大连柏悦国际公寓管理有限公司,3.5,辽宁,4,二手房,2005
沙河口区锦霞南园1号1层公建,大连,大连锦绣房地产开发有限公司,沙河口,20190712,38.947367114450536,121.55342584213675,锦虹北园,21,11936,大连锦绣物业管理有限公司,0.3,辽宁,4,二手房,1996
甘井子区泉水H1区54号3单元1层1号,大连,暂无信息,甘井子,20190712,39.0074937564393,121.62382856020916,龙畔金泉五期K1区,37,13726,大连新兴物业管理有限公司,0.5,辽宁,4,二手房,2008
大连经济技术开发区时代城4-3号1-2号,大连,暂无信息,开发区,20190712,39.0992481321252,121.83007860699459,摩宿公寓,79,7431,大连远洋基业物业管理有限公司,1.5,辽宁,4,二手房,2009
甘井子区锦城东园1号3单元1层2号,大连,大连鹏生房地产开发有限公司,甘井子,20190712,38.952805477462775,121.55656194973994,鹏辉新纪元,20,16605,大连鹏辉物业管理有限公司,0.5,辽宁,4,二手房,2006
无门店信息,大连,大连招源房地产有限公司,甘井子,20190712,34.52713835999158,118.76812980670795,招商海德公园,24,17886,招商局物业管理有限公司大连分公司,2.6,辽宁,4,二手房,2017
无门店信息,大连,无开发商,金州,20190712,34.52713835999158,118.76812980670795,滨海丰园,113,8384,街道办事处（居委会）代管物业,0.5,辽宁,4,二手房,2001
甘井子区山东路127-2号,大连,大连市大钢集团,甘井子,20190712,38.99065559549029,121.59126483545545,苍山路,49,12696,街道办事处（居委会）代管物业,0.4,辽宁,4,二手房,1988
开发区润海园中区62-9,大连,暂无信息,开发区,20190712,39.04047273176333,121.76392358042445,大连海湾城二期,43,12890,大连金广物业服务有限公司,2.6,辽宁,4,二手房,2012
中山区爱华街13号,大连,无开发商,中山,20190712,38.92541607518685,121.6535728031028,39中安阳街,37,25905,无物业管理服务,-,辽宁,4,二手房,1983
甘井子辛吉街150号-7号,大连,"大连新界置业有限公司,大连新星房地产开发有限公司",甘井子,20190712,38.96368508446978,121.52671221254214,新星绿城三期,76,13010,大连生生物业管理有限公司,0.5,辽宁,4,二手房,2004
中山区山屏街116号1-1,大连,大连中信海港投资有限公司,中山,20190712,38.90729438486833,121.68598159980013,山峦街,8,11830,无物业管理服务,-,辽宁,4,二手房,1990
西岗区三元街73号3单元1层2,大连,暂无信息,西岗,20190712,38.91459734722941,121.63112153703432,34中三元街,52,27968,无物业管理服务,-,辽宁,4,二手房,1983
甘井子区柳树南街45-10号,大连,中体产业集团大连乐百年置业有限公司,甘井子,20190712,38.92567666296449,121.4841330254372,中体奥林匹克花园,81,15040,广东中奥物业有限公司大连分公司,1.9,辽宁,4,二手房,2010
沙河口区黄河路562号,大连,大连新型房地产开发有限公司,沙河口,20190712,38.9167961764482,121.60352063132478,79中科学家公寓,39,20951,大连新兴物业管理有限公司,0.8,辽宁,4,二手房,1995
沙河口区富国街34-3,大连,无开发商,沙河口,20190712,38.90159716600704,121.58930603357904,星海街,32,12123,无物业管理服务,-,辽宁,4,二手房,1990
金州区小平岛B组团4号楼3号商铺,大连,大连圣岛房地产开发有限公司,高新园区,20190712,39.05643299166072,121.78943558267059,小平岛海角七号,55,21229,大连凯尔富物业管理有限公司,1.7,辽宁,4,二手房,2009
沙河口区华新苑10号楼4号公建,大连,大连祥盛房屋开发有限公司,沙河口,20190712,38.94033750532864,121.58990295130229,香洲心城,24,18770,大连百特物业管理有限公司,1,辽宁,4,二手房,2003
开发区杏花里13#楼-7号,大连,无开发商,开发区,20190712,31.31075067906954,120.63127837058457,杏花里,66,6778,大连经济技术开发区杏林物业管理有限公司,0.3,辽宁,4,二手房,1993
沙河口区黑石礁街5号1层1号,大连,无开发商,沙河口,20190712,38.879813345473714,121.56313742300513,黑石礁广场,28,13659,无物业管理服务,-,辽宁,4,二手房,1980
西岗区胜利路33号,大连,暂无信息,西岗,20190712,38.91309771954841,121.62500886627636,34中纪念街,65,25668,无物业管理服务,-,辽宁,4,二手房,1983
中山区职工街96号1-3层公建,大连,无开发商,中山,20190712,38.92565613737007,121.66193575790903,39中三八广场,2,19919,无物业管理服务,-,辽宁,3,二手房,1990
沙河口区华北路448号楼1-4公建,大连,无开发商,甘井子,20190712,38.903224944733765,121.56809734950556,周山街,27,16209,街道办事处（居委会）代管物业,0.5,辽宁,3,二手房,1985
中山区杏林街66—5号,大连,无开发商,中山,20190712,38.92572771377599,121.66490555592502,39中民生里,9,27215,街道办事处（居委会）代管物业,0.5,辽宁,3,二手房,1990
西岗区华北路100号1层5号,大连,大连万达房地产开发有限公司,西岗,20190712,38.92047268927287,121.61862512554262,香海花园,22,16521,大连万达物业管理有限公司,0.8,辽宁,3,二手房,1998
开发区黄海西路201号107公建,大连,无开发商,开发区,20190712,39.04942604506828,121.80126318235419,新辰里,37,7910,街道办事处（居委会）代管物业,0.5,辽宁,3,二手房,1996
中山区高尚路28-1号,大连,无开发商,中山,20190712,38.892673425111305,121.67148833870213,高原街,25,10987,街道办事处（居委会）代管物业,0.5,辽宁,3,二手房,1989
天河路173-2号 华润考拉22号公建,大连,无开发商,甘井子,20190712,23.14720645345518,113.3277414923158,七江路,23,12511,街道办事处（居委会）代管物业,0.2,辽宁,3,二手房,1995
西岗区新田巷27号1-2,大连,无开发商,西岗,20190712,38.893215932589385,121.64103065169111,新河街,17,11192,无物业管理服务,-,辽宁,3,二手房,1990
甘井子区华北路花锦园28号23-3-1-2建筑物,大连,大连东特房地产开发有限公司,沙河口,20190712,38.951627958411166,121.5739439799003,东特新居,15,12265,大连东特祥禾物业管理有限公司,0.5,辽宁,3,二手房,1998
沙河口区联合路133号,大连,大连新型房地产开发有限公司,沙河口,20190712,38.91608561262676,121.60480987310456,21中联德小区,6,21149,大连新型物业管理有限公司,0.5,辽宁,3,二手房,1998
西岗区长红街4号1号公建,大连,无开发商,西岗,20190712,38.91377414665191,121.6302525225721,34中林荫巷,12,26160,无物业管理服务,-,辽宁,3,二手房,1995
中山区碧浪园4号-3号,大连,无开发商,中山,20190712,38.89147289460474,121.69329560326236,碧海园,19,17789,大连远洋基业物业管理有限公司,0.5,辽宁,3,二手房,2000
无门店信息,大连,大连腾达房地产开发有限公司,中山,20190712,34.52713835999158,118.76812980670795,紫竹轩,6,16576,大连市晟阳物业管理有限公司,1,辽宁,3,二手房,2002
甘井子区祥龙街2号楼1单元1楼1号,大连,无开发商,甘井子,20190712,38.988045874482445,121.60439401971377,金荣路,6,12505,无物业管理服务,-,辽宁,3,二手房,1990
沙河口区恒利园42号-8,大连,大连新型房地产开发有限公司,沙河口,20190712,38.93357562498634,121.57914091532649,中铁十三局,15,13313,大连新兴物业管理有限公司,0.3,辽宁,3,二手房,1990
沙河口区西南路851号3单元1层3号,大连,暂无信息,沙河口,20190712,38.94344210837944,121.58246796944378,凌山三街,2,10938,无物业管理服务,-,辽宁,3,二手房,1970
高新园区敬贤街25-9,大连,中海东丰地产（大连）有限公司,高新园区,20190712,38.86879447142154,121.53007349209936,中海紫御观邸一期,10,25335,大连中海物业管理有限公司,2.6,辽宁,3,二手房,2010
西岗区长春路334号,大连,无开发商,西岗,20190712,38.89807766522607,121.63221082858387,石峰街,15,11220,大连大众物业管理有限公司,0.3,辽宁,3,二手房,1986
甘井子区泉水D1区10-2#1-1-7,大连,大连春达房屋开发有限公司,甘井子,20190712,39.01504676175047,121.61751269364314,景富铭苑,14,12464,庄河金城物业管理有限公司,0.5,辽宁,3,二手房,2004
中山区高尚路28-1号,大连,无开发商,中山,20190712,38.892673425111305,121.67148833870213,高家沟,24,10717,大连景山物业管理有限公司,0.5,辽宁,3,二手房,1992
经济技术开发区城润万家4-5号公建,大连,大连海汇房地产开发有限公司,开发区,20190712,39.05716325096989,121.75946281983826,正源吉祥e家,60,12193,大连正源物业服务有限公司,1,辽宁,3,二手房,2010
高新园区硅谷假日小区25号楼地下室,大连,暂无信息,高新园区,20190712,38.86467854992112,121.53720784613759,硅谷假日公寓,20,14880,大连斌弘物业管理有限公司,1.5,辽宁,3,二手房,2004
开发区东北三街94号1层,大连,大连港连房地产开发有限公司,开发区,20190712,39.05723508011585,121.80570768630555,海航YOHO湾,46,10503,海航物业管理有限公司大连分公司,1.8,辽宁,3,二手房,2010
甘井子区亿家缘虹韵路205,大连,大连亿达美加房地产开发有限公司,甘井子,20190712,38.95647848453699,121.53130152244339,第五郡一号地,56,22404,亿达物业管理有限公司,1.9,辽宁,3,二手房,2010
开发区东北三街94号1层,大连,大连同济房地产开发有限公司,开发区,20190712,39.05723508011585,121.80570768630555,新东方公寓二期,53,5728,大连同济物业管理有限公司,1.5,辽宁,3,二手房,2003
无门店信息,大连,无开发商,金州,20190712,34.52713835999158,118.76812980670795,永安四季,45,7250,无物业管理服务,0.5,辽宁,3,二手房,2005
开发区正恒园1-16,大连,大连富华房地产有限公司,开发区,20190712,39.04823944344617,121.76165468797754,正泰园A区,15,12159,嘉泰物业管理有限公司,1.9,辽宁,3,二手房,2012
中山区金城街26号一楼,大连,大连万达房地产开发有限公司,中山,20190712,38.922282529515634,121.65214466263014,九中金城街,24,37442,无物业管理服务,-,辽宁,3,二手房,1990
沙河口区兰田街33号,大连,渤海恒达房屋开发有限公司,沙河口,20190712,38.926138912221084,121.56486022834609,西苑小区,35,12993,大连西苑物业管理有限公司,0.3,辽宁,3,二手房,1994
沙河口区西南路358号1—2号,大连,大连泰安房地产开发有限公司,沙河口,20190712,38.90839654326566,121.56908246905662,泰安花园,29,14621,大连三宝物业发展有限公司,0.5,辽宁,3,二手房,1998
甘井子区泉水B5区27-9,大连,大连华智房地产开发有限公司,甘井子,20190712,39.01477152073682,121.60970286326823,华远新都汇广场,32,12220,街道办事处（居委会）代管物业,1,辽宁,3,二手房,2010
大连市开发区湾里东5-6号,大连,大连明和房地产开发有限公司,开发区,20190712,39.07275772231556,121.85888789351343,青国青城,64,11465,大连豪斯沃克物业有限公司,1.5,辽宁,3,二手房,2012
甘井子区凌秀路37号-1链家地产,大连,大连恒瑞房地产开发有限公司,高新园区,20190712,38.883794285403965,121.52361997548515,大湖山语,24,20292,大连龙湖物业服务有限公司,2.8,辽宁,3,二手房,2010
金州区小平岛B组团4号楼3号商铺,大连,大连圣岛房地产开发有限公司,高新园区,20190712,39.05643299166072,121.78943558267059,小平岛海悦山,68,20276,大连凯尔富物业管理有限公司,1.3,辽宁,3,二手房,2008
中山区东港龙湖水晶郦湾7-102,大连,大连创富房地产开发有限公司,中山,20190712,38.924700620463895,121.70344398518496,中国铁建国滨苑,33,23976,北京国贸物业,4.3,辽宁,3,二手房,2015
甘井子区甘井子街3号公建,大连,无开发商,甘井子,20190712,38.982086281836246,121.63426694995971,新街,17,9872,无物业管理服务,-,辽宁,3,二手房,1980
中山区益民街16号1层1号,大连,中海地产,中山,20190712,38.93092761298906,121.66470740073377,中海海港城,80,19287,中海物业,4.2,辽宁,3,二手房,2013
大连市沙河口区西南路875号1层21号,大连,大连新型房地产开发有限公司,沙河口,20190712,38.94485969061231,121.58418648447764,春晖巷,9,10816,无物业管理服务,-,辽宁,3,二手房,1985
沙河口区红凌路137号,大连,大连大实企业集团房屋开发有限公司,甘井子,20190712,38.922699288974506,121.54713601744747,叠翠骏景,13,12343,大连弘实物业管理有限公司,0.4,辽宁,3,二手房,2004
中山区金城街26号一楼,大连,暂无信息,中山,20190712,38.922282529515634,121.65214466263014,解放街,20,24660,无物业管理服务,-,辽宁,3,二手房,1982
甘井子区泉水P3区35-2号,大连,暂无信息,甘井子,20190712,39.01530162252779,121.63546089163083,泉水P2区,5,11188,暂无信息,1.2,辽宁,3,二手房,2014
沙河口区五四路207-1-9号,大连,中航国际中航地产,沙河口,20190712,38.913544290955585,121.59450670056631,中航国际广场,27,21717,中航物业管理有限公司大连分公司,3.6,辽宁,3,二手房,2000
开发区红星海-B区89-1号,大连,远洋地产有限公司,开发区,20190712,39.027851194371685,121.80327394132297,红星海三期视界,48,14953,大连远洋基业物业管理有限公司,2.2,辽宁,3,二手房,2009
西岗区香炉礁24号1-1,大连,中瑞置业（大连）有限公司,西岗,20190712,38.92047268927287,121.61862512554262,香周首府,85,19441,中融物业管理有限公司,3,辽宁,3,二手房,2008
无门店信息,大连,大连金宸集团,金州,20190712,34.52713835999158,118.76812980670795,金宸联郡,36,8717,大连四通物业管理有限公司,1.4,辽宁,3,二手房,2012
中山区金城街26号一楼,大连,无开发商,中山,20190712,38.922282529515634,121.65214466263014,九中洛川街,22,35935,无物业管理服务,-,辽宁,3,二手房,1990
甘井子区汇仁街22号,大连,大连永高房屋开发有限公司,甘井子,20190712,38.99712640764999,121.58834420439493,加州洋房,81,15492,大连怡和物业服务有限公司,0.9,辽宁,3,二手房,2005
大连市经济技术开发区东城园98-14,大连,大连金湾实业有限公司,开发区,20190712,39.06925526014871,121.8505146710752,裕民新苑,58,8484,大连金湾物业管理有限公司,0.3,辽宁,3,二手房,2002
红星海A区126-4,大连,远洋地产有限公司,开发区,20190712,39.027851194371685,121.80327394132297,红星海一期城市别馆,114,13891,大连远洋基业物业管理有限公司,2.2,辽宁,3,二手房,2008
甘井子区红旗西路104-7,大连,大连盛达实业总公司,甘井子,20190712,38.940335495502666,121.52722586363274,盛新园,33,12246,大连盛新物业管理有限公司,0.3,辽宁,3,二手房,2000
沙河口区五一路270-274号,大连,大连亿达房地产股份有限公司,高新园区,20190712,38.913544290955585,121.59450670056631,city one,17,14383,亿达物业管理有限公司,0.5,辽宁,3,二手房,2001
甘井子区红旗花园23号楼19-24轴公建,大连,大连银泰房地产有限公司,甘井子,20190712,38.93108029984587,121.54902145022133,祥和园,22,14588,无物业管理服务,0.5,辽宁,3,二手房,2000
西岗区绕山路31号公建一层东侧,大连,无开发商,西岗,20190712,38.90257514466717,121.61412736644739,和云巷,19,10049,无物业管理服务,-,辽宁,3,二手房,1990
甘井子区金家街17-7号,大连,无开发商,甘井子,20190712,38.97493697764367,121.60110987128529,金二小学北,19,21972,无物业管理服务,-,辽宁,3,二手房,1970
中山区民运巷 47号1层2号,大连,大连新型房地产开发总公司,中山,20190712,38.905955122300846,121.64798148011702,葵英小区,10,13886,街道办事处（居委会）代管物业,0.3,辽宁,3,二手房,1996
金州区光明街道育才街42-6号1-2层,大连,无开发商,金州,20190712,39.109080894078986,121.7182584929096,光明小区(金州),12,8401,无物业管理服务,0.5,辽宁,3,二手房,1989
沙河口区黄河路883号,大连,大连正源房地产开发有限公司,沙河口,20190712,38.919826721475204,121.57749657966676,幸福e家四期,69,32664,大连正源物业服务有限公司,1.2,辽宁,3,二手房,2003
沙河口区五一路110-4号,大连,大连亿达房地产股份有限公司,沙河口,20190712,38.913544290955585,121.59450670056631,兰亭山水,41,21319,亿达物业管理有限公司,0.6,辽宁,3,二手房,2002
金州区光明街道育才街42-6号1-2层,大连,三门振兴房产开发公司,金州,20190712,39.109080894078986,121.7182584929096,育才小区,18,8155,无物业管理服务,-,辽宁,3,二手房,1989
甘井子区山东路商业街D区12号公建,大连,无开发商,甘井子,20190712,39.001060021502965,121.58883960371418,七绣路,21,12234,街道办事处（居委会）代管物业,0.5,辽宁,3,二手房,1995
甘井子区华东路33-5号,大连,无开发商,甘井子,20190712,38.97497080220593,121.59479866243332,秀水小区,18,11330,大连广宇物业有限责任公司,0.5,辽宁,3,二手房,1993
甘井子区哲林北园17-6号,大连,大连科宏房屋开发有限公司,甘井子,20190712,38.9600267109581,121.53876726228256,虹港新居,34,13667,大连空港物业管理有限公司,0.4,辽宁,3,二手房,1996
大连市甘井子区丰收路3-5号,大连,无开发商,甘井子,20190712,38.965377255081755,121.58288415324094,顺发路,25,12733,街道办事处（居委会）代管物业,0.2,辽宁,3,二手房,1993
沙河口区锦云北园9号2单元1层2号,大连,大连锦绣房地产开发有限公司,沙河口,20190712,38.94836395772248,121.55744845421044,锦云北园,22,10941,大连锦绣物业管理有限公司,0.3,辽宁,3,二手房,1995
沙河口区星海广场B3区14-9,大连,大连友谊合升房地产开发有限公司,沙河口,20190712,38.88708614275256,121.58732027085938,壹品星海三期,47,23921,大连友谊物业服务有限公司,1.2,辽宁,3,二手房,2004
西岗区康平街2号（5号楼3-1-3号）,大连,无开发商,西岗,20190712,38.91044414697888,121.61980769264477,长太巷,8,11690,无物业管理服务,-,辽宁,3,二手房,1990
西岗区黄河路362号公建,大连,大连万达商业地产有限公司,西岗,20190712,38.91819905243802,121.61365779430986,万达华府二期,48,23404,大连万景物业管理有限公司,1.6,辽宁,3,二手房,2005
无门店信息,大连,暂无信息,开发区,20190712,34.52713835999158,118.76812980670795,十里岗小区,63,5887,大连经济技术开发区盛辉物业服务有限公司,0.5,辽宁,3,二手房,1994
开发区兴城路29-81层,大连,中合北大荒（大连）置业有限公司,开发区,20190712,39.050214252167194,121.75835946441768,银帆国际,45,12538,大连中合物业管理有限公司,2,辽宁,3,二手房,2012
中山区爱华街13号,大连,大连新世界广场国际有限公司,中山,20190712,38.92541607518685,121.6535728031028,曼哈顿大厦,45,14053,大连侨乐物业服务有限公司,3.5,辽宁,3,二手房,2004
中山区南山路59号1层4号,大连,无开发商,中山,20190712,38.91992239075882,121.6479206962747,同心街（昆明街）,11,16181,无物业管理服务,-,辽宁,3,二手房,1990
无门店信息,大连,大连鲁能置业有限公司,金州,20190712,34.52713835999158,118.76812980670795,鲁能优山美地,84,11153,长城物业集团股份有限大连分公司,1.9,辽宁,3,二手房,2008
甘井子区玉丽街39号楼3号公建,大连,大连新型房地产开发有限公司,甘井子,20190712,38.98706755029984,121.55605471197089,玉丽街,78,10080,大连新兴物业管理有限公司,0.5,辽宁,3,二手房,2000
大连经济技术开发区同和里7栋-9号,大连,无开发商,开发区,20190712,39.04901984220615,121.7885236929847,新月里,21,9372,街道办事处（居委会）代管物业,0.5,辽宁,3,二手房,2000
沙河口区五一路110-4号,大连,大连大重房屋开发有限公司,沙河口,20190712,38.913544290955585,121.59450670056631,星台花园一期,36,16283,大连大重房屋开发公司物业管理中心,-,辽宁,3,二手房,1995
中山区杏林街66—5号,大连,嘉和房地产集团有限公司,中山,20190712,38.92572771377599,121.66490555592502,嘉和花样年华二期,64,21953,大连嘉和物业管理有限公司,2,辽宁,3,二手房,2005
沙河口区黄河路535号,大连,大连城市建设集团有限公司,沙河口,20190712,38.91773777159567,121.60217159922856,79中至诚小区,37,27313,大连天河物业管理有限公司,0.1,辽宁,3,二手房,1958
沙河口区星海广场B3区14-2号1层,大连,大连万达房地产开发有限公司,沙河口,20190712,38.88693148294673,121.58735631267305,大连明珠,70,26570,大连万象美物业管理有限公司,3.5,辽宁,3,二手房,2008
沙河口区连山街44-2号半地下一层（地上一层部分）,大连,大连亿达房地产股份有限公司,沙河口,20190712,38.892991456958086,121.57299542767161,星海小区,21,11468,无物业管理服务,-,辽宁,3,二手房,1994
金州区拥政街道733号-8号1-2层,大连,大连市金州区房屋开发公司,金州,20190712,39.11690610445662,121.73030803603723,桂林小区,85,7062,街道办事处（居委会）代管物业,0.3,辽宁,3,二手房,1992
沙河口区昌黎街22号,大连,大连城市建设集团有限公司,沙河口,20190712,38.91975785098891,121.59109628369768,天兴罗斯福,49,16222,大连天兴物业管理有限公司,1.6,辽宁,3,二手房,2002
无门店信息,大连,大连万林房地产开发有限公司,甘井子,20190712,34.52713835999158,118.76812980670795,我爱我家,21,14632,大连溪谷阳光物业服务有限公司,1.3,辽宁,3,二手房,2010
开发区高新里6栋-8,大连,无开发商,开发区,20190712,39.0710895068195,121.82860134358343,高民里,69,6854,街道办事处（居委会）代管物业,0.2,辽宁,3,二手房,1992
沙河口区连山街44-2号半地下一层（地上一层部分）,大连,大连大和中盛房地产有限公司,沙河口,20190712,38.892991456958086,121.57299542767161,颐和星海,104,24196,大连颐和物业管理有限公司,2.5,辽宁,3,二手房,2012
沙河口区黄埔路427号,大连,大连名仕房地产开发有限公司,高新园区,20190712,38.913544290955585,121.59450670056631,名仕乐居,19,20029,大连万祥物业管理有限公司,1.3,辽宁,3,二手房,2007
中山区民运巷 47号1层2号,大连,无开发商,中山,20190712,38.905955122300846,121.64798148011702,西山巷,34,10373,无物业管理服务,0.3,辽宁,3,二手房,1980
甘井子区华东路33-5号,大连,大连凯祥房地产开发有限公司,甘井子,20190712,38.97497080220593,121.59479866243332,商城花园,19,12421,大连凯祥物业管理有限公司,0.5,辽宁,3,二手房,2000
无门店信息,大连,北方沿海房地产开发（大连）有限公司,沙河口,20190712,34.52713835999158,118.76812980670795,星海大观,211,17426,北京世邦魏理仕物业管理服务有限公司大连分公司,4.4,辽宁,3,二手房,2008
无门店信息,大连,暂无信息,旅顺口,20190712,34.52713835999158,118.76812980670795,熙龙山庄,87,8453,大连市辰馨物业服务有限公司,1,辽宁,3,二手房,2005
中山区职工街96号1-3层公建,大连,无开发商,中山,20190712,38.92565613737007,121.66193575790903,警后大院（三八广场）,19,15023,无物业管理服务,-,辽宁,3,二手房,1993
大连市沙河口区西南路875号1层21号,大连,大连泰安房地产开发有限公司,沙河口,20190712,38.94485969061231,121.58418648447764,春柳河小区,14,11692,大连三宝物业有限公司,0.5,辽宁,3,二手房,2000
沙河口区锦石园24-7号第A2-13幢1单元1层1号,大连,大连鼎新房地产开发有限公司,甘井子,20190712,38.913544290955585,121.59450670056631,鼎新鼎润府,32,20858,大连鼎新物业管理有限公司,0.6,辽宁,3,二手房,2005
中山区民建街10号1单元1号,大连,无开发商,中山,20190712,38.925444479476894,121.66915026954452,39中顺阳街,36,20001,无物业管理服务,-,辽宁,3,二手房,1985
中山区职工街96号1-3层公建,大连,大连嘉和房地产开发有限公司,中山,20190712,38.92565613737007,121.66193575790903,嘉和花样年华一期,75,20511,大连嘉和物业管理有限公司,3,辽宁,3,二手房,2002
甘井子区泉水P3区35-2号,大连,暂无信息,甘井子,20190712,39.01530162252779,121.63546089163083,泉水P1区,18,11272,暂无信息,1.2,辽宁,3,二手房,2011
沙河口区五四路207-1-9号,大连,无开发商,沙河口,20190712,38.913544290955585,121.59450670056631,新生巷,1,13733,街道办事处（居委会）代管物业,0.5,辽宁,2,二手房,1985
中山区北斗街53号1层1号,大连,无开发商,中山,20190712,38.92727355733075,121.67002970974048,勤俭街（二七商圈）,2,11603,无物业管理服务,-,辽宁,2,二手房,1980
中山区解放路471-22号,大连,无开发商,中山,20190712,38.901309943567504,121.65419095766659,解放路（青云街商圈）,8,12214,街道办事处（居委会）代管物业,0.6,辽宁,2,二手房,1995
莲花山路89-3号,大连,无开发商,沙河口,20190712,38.902848261803356,121.6041720815823,拥民巷,4,10932,无物业管理服务,-,辽宁,2,二手房,1998
沙河口区联合路133号,大连,无开发商,沙河口,20190712,38.91608561262676,121.60480987310456,21中同泰街,3,19842,无物业管理服务,-,辽宁,2,二手房,1984
中山区南山路59号1层4号,大连,无开发商,中山,20190712,38.91992239075882,121.6479206962747,祝胜街（昆明街）,6,17139,无物业管理服务,-,辽宁,2,二手房,1988
开发区翠竹小区33栋4-1-1号,大连,"大连宏济开发经济有限公司,大连宏发投资发展有限公司",开发区,20190712,30.635492106460237,119.69169575745704,宏城金棕榈,69,10052,大连宏景物业管理有限公司,1.3,辽宁,3,二手房,2006
甘井子区玉湖街25号2单元1层3号,大连,暂无信息,甘井子,20190712,38.97626265183615,121.54617349027997,玉水街,3,9840,无物业管理服务,-,辽宁,2,二手房,1988
"西岗区泰公街20号2层7号 西岗区久寿街22号1层14号""",大连,大连万达房地产开发有限公司,西岗,20190712,38.92600196862723,121.62141976476381,万达高层,19,11631,大连白云物业管理公司,0.3,辽宁,3,二手房,1995
甘井子区泉水B2区19-1号,大连,大连运达房地产集团有限公司,甘井子,20190712,39.0101309886317,121.60812584213187,锦泉源B1区,64,13449,大连佳泰物业管理有限公司,0.5,辽宁,3,二手房,2001
金州区南棉路310号,大连,无开发商,金州,20190712,39.09939229372624,121.72414976100345,劳动局小区,117,8073,无物业管理服务,0.1,辽宁,3,二手房,1989
中山区东港龙湖水晶郦湾7-102,大连,大连金广地产集团有限公司,中山,20190712,38.924700620463895,121.70344398518496,金广东海岸,68,23669,大连金广物业有限公司,2.2,辽宁,3,二手房,2007
甘井子区西南路950—1号1层1号,大连,暂无信息,甘井子,20190712,38.96304110156522,121.59665499819343,八十中东海街,30,15669,街道办事处（居委会）代管物业,0.2,辽宁,3,二手房,1980
中山区华乐街107-115号,大连,大连华顺房地产开发公司,中山,20190712,38.92093821499401,121.68879267531725,海景园,84,15615,大连华富物业管理有限公司,0.3,辽宁,3,二手房,1990
金州区南棉路310号,大连,无开发商,金州,20190712,39.09939229372624,121.72414976100345,南山路（金州）,61,7380,街道办事处（居委会）代管物业,0.5,辽宁,3,二手房,1988
沙河口区南沙街36号台二2号1-1-37,大连,大连鹏生房地产开发有限公司,沙河口,20190712,38.90741410359388,121.57685699961822,鹏顺园,46,24960,大连新型物业管理有限公司,0.5,辽宁,3,二手房,2000
甘井子区玉丽街2号楼1单元4号公建,大连,暂无信息,甘井子,20190712,38.98705071699301,121.55513043130172,玉意街,51,10464,大连新兴物业管理有限公司,0.3,辽宁,3,二手房,2000
沙河口区民权街324号,大连,大连城市建设集团有限公司,沙河口,20190712,38.92064616208148,121.59777611850379,天兴新家园,14,28255,大连天兴物业管理有限公司,0.5,辽宁,2,二手房,1999
中山区武昌街武昌公寓6号公建,大连,无开发商,中山,20190712,38.912280913445784,121.64921130527547,气象街,19,21127,街道办事处（居委会）代管物业,0.5,辽宁,2,二手房,1980
沙河口区星海广场B3区14-9,大连,大连一方地产有限公司,沙河口,20190712,38.88708614275256,121.58732027085938,星海阳光,24,23373,大连中海物业管理有限公司,1.6,辽宁,2,二手房,2000
甘井子区知音园20号3单元1层1号,大连,亿达集团大连房地产开发有限公司,高新园区,20190712,38.95800216293212,121.53151895549547,亿达知音园,5,22616,亿达物业管理有限公司,0.5,辽宁,2,二手房,2001
甘井子区促进路200号,大连,大连鼎新房地产开发有限公司,甘井子,20190712,38.95810188892782,121.58530036264898,鼎新鼎云都,5,16254,大连鼎新物业管理有限公司,0.6,辽宁,2,二手房,2008
西岗区长春路334号,大连,无开发商,西岗,20190712,38.89807766522607,121.63221082858387,南石巷,11,11484,无物业管理服务,0.5,辽宁,2,二手房,1992
沙河口区华北路404号,大连,无开发商,沙河口,20190712,38.8862815932937,121.59082948696123,园丁巷,8,10366,街道办事处（居委会）代管物业,0.3,辽宁,2,二手房,1990
西岗区鞍山路29号龙畔锦城东门,大连,无开发商,西岗,20190712,38.92763470697088,121.61498923399098,双兴北巷（大菜市商圈）,10,10759,街道办事处（居委会）代管物业,0.5,辽宁,2,二手房,1990
中山区共建巷61号,大连,无开发商,中山,20190712,38.91828093658718,121.66259221532148,39中望海街,12,25579,街道办事处（居委会）代管物业,0.5,辽宁,2,二手房,1970
无门店信息,大连,无开发商,西岗,20190712,34.52713835999158,118.76812980670795,北海街（胜利桥北商圈）,6,11214,街道办事处（居委会）代管物业,0.5,辽宁,2,二手房,1985
西岗区八一路196号2-1-12号,大连,大连欧美亚房地产开发有限公司,西岗,20190712,38.92047268927287,121.61862512554262,名城国际公馆,9,18594,无物业管理服务,-,辽宁,2,二手房,2004
西岗区八一路196号2-1-12号,大连,暂无信息,西岗,20190712,38.92047268927287,121.61862512554262,八一路（新起屯商圈）,2,16221,无物业管理服务,-,辽宁,2,二手房,1981
西岗区长春路334号,大连,大连源通房地产开发有限公司,西岗,20190712,38.89807766522607,121.63221082858387,南石源居,4,17649,大连源通物业管理有限公司,1.3,辽宁,2,二手房,2009
西岗区黄河路362号公建,大连,大连万佳房地产开发有限公司,西岗,20190712,38.91819905243802,121.61365779430986,优豪斯,14,25297,大连万佳物业管理有限公司,1.2,辽宁,2,二手房,2002
中山区鲁迅路184号1层B—A,大连,无开发商,中山,20190712,38.92590875965419,121.67594393403164,39中山岳街,13,18245,无物业管理服务,-,辽宁,2,二手房,1998
西岗区八一路102号,大连,无开发商,西岗,20190712,38.92047268927287,121.61862512554262,智勇巷,6,10750,无物业管理服务,-,辽宁,2,二手房,1989
西岗区新田巷27号1-2,大连,大连海苑房屋开发有限公司,西岗,20190712,38.893215932589385,121.64103065169111,半岛故乡,5,16825,大连半岛物业管理有限公司,0.8,辽宁,2,二手房,2002
中山区金城街26号一楼,大连,无开发商,中山,20190712,38.922282529515634,121.65214466263014,九中武汉街,6,35579,无物业管理服务,-,辽宁,2,二手房,1986
西岗区八一路196号1-3,大连,暂无信息,西岗,20190712,38.92047268927287,121.61862512554262,靠山中巷,1,10968,社区物业,-,辽宁,2,二手房,1990
甘井子区红旗中路143号1层4号,大连,暂无信息,甘井子,20190712,38.93169566676921,121.5426632438217,湾家花园,9,12724,街道办事处（居委会）代管物业,0.2,辽宁,2,二手房,2000
沙河口区西南路851号3单元1层3号,大连,无开发商,沙河口,20190712,38.94344210837944,121.58246796944378,凌山二街,8,10542,无物业管理服务,-,辽宁,2,二手房,1976
沙河口区西南路40号楼,大连,无开发商,沙河口,20190712,38.94143337232082,121.58616557598133,杭州街,17,12295,无物业管理服务,-,辽宁,2,二手房,1990
开发区兴城路29-81层,大连,大连瑞宇置业有限公司,开发区,20190712,39.050214252167194,121.75835946441768,心海阳光,5,12861,大连经济技术开发区盛辉物业服务有限公司,1.8,辽宁,2,二手房,2011
开发区松苑街23号,大连,无开发商,开发区,20190712,22.52087435807652,113.40156105086167,松峪里一期,16,12117,大连中信物业管理有限公司,0.5,辽宁,2,二手房,2000
甘井子区华北路花锦园28号23-3-1-2建筑物,大连,大连东特房地产开发有限公司,甘井子,20190712,38.951627958411166,121.5739439799003,星加坡花园,23,17897,大连东特祥禾物业管理有限公司,0.6,辽宁,2,二手房,2003
甘井子区迎客路郭东街一品蓝天公建14号,大连,沈阳军区后勤部,甘井子,20190712,38.958456949708726,121.556756277476,金寓花园三期,6,17494,大连瑞祥物业管理有限公司,1,辽宁,2,二手房,2008
沙河口区兰田街33号,大连,无开发商,沙河口,20190712,38.926138912221084,121.56486022834609,兰田街,12,12499,街道办事处（居委会）代管物业,0.4,辽宁,2,二手房,1990
无门店信息,大连,大连安邦房地产开发有限公司,甘井子,20190712,34.52713835999158,118.76812980670795,西郊闲庭,19,12419,大连龙城物业服务有限公司,1,辽宁,2,二手房,2010
大连市沙河口区西南路875号1层21号,大连,无开发商,沙河口,20190712,38.94485969061231,121.58418648447764,西南路（春柳商圈）,12,10718,大连三宝物业有限公司,0.5,辽宁,2,二手房,1980
西岗区八一路196号2-1-12号,大连,无开发商,西岗,20190712,38.92047268927287,121.61862512554262,八一路（八一路商圈）,20,11213,无物业管理服务,-,辽宁,2,二手房,1990
中山区华乐街71号公建,大连,无开发商,中山,20190712,38.923187679200566,121.6843197903016,春园里,27,12270,无物业管理服务,-,辽宁,2,二手房,1990
沙河口区西南路40号楼,大连,大连金通房屋开发有限公司,沙河口,20190712,38.94143337232082,121.58616557598133,海韵花园,12,13716,大连金通物业管理有限公司,0.4,辽宁,2,二手房,2000
中山区爱华街13号,大连,大连华鹏房地产有限公司,中山,20190712,38.92541607518685,121.6535728031028,海派优座,15,15590,第一东方（大连）物业服务有限公司,2.5,辽宁,2,二手房,2008
西岗区胜利路33号,大连,暂无信息,西岗,20190712,38.91309771954841,121.62500886627636,34中兴民街,11,27338,无物业管理服务,-,辽宁,2,二手房,1970
无门店信息,大连,大连乾豪集团有限公司,开发区,20190712,34.52713835999158,118.76812980670795,乾豪海岸花园,12,15951,大连乾豪物业管理有限公司,2,辽宁,2,二手房,2000
沙河口区长江路946号-9,大连,无开发商,沙河口,20190712,38.913544290955585,121.59450670056631,城品城,17,18969,大连万景物业管理有限公司,2,辽宁,2,二手房,2010
沙河口区长江路946号-9,大连,无开发商,沙河口,20190712,38.913544290955585,121.59450670056631,机车商厦,7,14042,街道办事处（居委会）代管物业,0.3,辽宁,2,二手房,1995
沙河口区沙能街101号1单元1层1号,大连,大连政府城区改造办公室,沙河口,20190712,38.9366316275348,121.59031205759763,新居佳园,15,13733,大连大力物业管理有限公司,1.5,辽宁,2,二手房,2010
金州区站前街道盛滨花园B区13号楼2号公建,大连,大连连铁房地产开发有限公司,金州,20190712,39.09609011892329,121.7335816409767,金舍嘉苑,22,8280,街道办事处（居委会）代管物业,0.5,辽宁,2,二手房,2005
甘井子区虹港路16号楼1层公建,大连,亿达房地产开发有限公司,甘井子,20190712,38.9645939333502,121.553851837474,虹港路（机场商圈）,35,13530,亿达物业管理有限公司,0.2,辽宁,2,二手房,1992
甘井子区华北路花锦园28号23-3-1-2建筑物,大连,无开发商,甘井子,20190712,38.951627958411166,121.5739439799003,久胜街,23,16731,街道办事处（居委会）代管物业,0.1,辽宁,2,二手房,1985
开发区安盛里5栋-4,大连,大连光伸房地产开发有限公司,开发区,20190712,23.112106678834838,113.27801046214822,光伸外企公寓,14,6686,无物业管理服务,0.5,辽宁,2,二手房,2001
中山区解放路604号,大连,无开发商,中山,20190712,38.89026319122045,121.66407876092346,鸣鹤街,9,15157,街道办事处（居委会）代管物业,0.5,辽宁,2,二手房,1996
无门店信息,大连,大连永高房屋开发有限公司,西岗,20190712,34.52713835999158,118.76812980670795,功勋街（胜利桥北商圈）,19,12057,无物业管理服务,-,辽宁,2,二手房,1990
金州区鹏程家园53#-8,大连,大连海富花园开发有限公司,开发区,20190712,39.03523987258615,121.80826248065051,鹏程家园（开发区）,9,8238,广宜物业有限公司,1.2,辽宁,2,二手房,2004
沙河口区前程街15号1层E-C轴36-44轴公建,大连,大连安邦房地产开发有限公司,甘井子,20190712,38.91588050824643,121.60099647548584,阳光百合,14,17390,渤海吉祥物业管理有限公司,0.8,辽宁,2,二手房,2004
沙河口区长江路738号,大连,大连国合置业有限公司,西岗,20190712,38.913544290955585,121.59450670056631,国合锦里,18,30424,大连国合物业管理有限公司,3.5,辽宁,2,二手房,-
甘井子区柳树南街45-11号,大连,大连顺达房屋开发有限公司,甘井子,20190712,38.92567666296449,121.4841330254372,顺达温泉花园一期,10,11139,大连顺达物业服务有限公司,0.6,辽宁,2,二手房,2003
无门店信息,大连,大连光洋龙驰置业有限公司,开发区,20190712,34.52713835999158,118.76812980670795,泽林苑,16,11826,大连光洋龙驰置业物业有限公司,1.6,辽宁,2,二手房,2013
大连市金州区友谊街道南金华城25号1-2层1号,大连,无开发商,金州,20190712,39.128677228885614,121.71356109978767,金园新村,35,7488,大连金州友谊物业公司,0.5,辽宁,2,二手房,2004
无门店信息,大连,大连百年港湾商业开发有限公司,西岗,20190712,34.52713835999158,118.76812980670795,百年港湾,58,17953,大连百年城物业管理有限公司,3.5,辽宁,2,二手房,2014
西岗区中山路158号唐山街市场外14号,大连,暂无信息,西岗,20190712,38.91688106727098,121.63201298398174,34中松花街,15,28031,无物业管理服务,-,辽宁,2,二手房,1980
无门店信息,大连,大连金石文化旅游投资有限公司,金州,20190712,34.52713835999158,118.76812980670795,大连金石天成,48,8679,大连万达物业管理有限公司,1.8,辽宁,2,二手房,2009
西岗区长红街4号1号公建,大连,暂无信息,西岗,20190712,38.91377414665191,121.6302525225721,34中长红街,28,24172,无物业管理服务,-,辽宁,2,二手房,1960
开发区黄海西路201号107公建,大连,中信开发商,开发区,20190712,39.04942604506828,121.80126318235419,金海里,58,7412,大连中信物业管理有限公司,0.1,辽宁,2,二手房,1992
甘井子区泉水B5区27-9,大连,大连运达房地产集团有限公司,甘井子,20190712,39.01477152073682,121.60970286326823,锦泉源B6区,21,14307,政治物业管理有限公司,0.5,辽宁,2,二手房,2010
无门店信息,大连,大连祥和房屋开发有限公司,甘井子,20190712,34.52713835999158,118.76812980670795,祥和花园,45,12401,大连市大北物业管理有限公司,0.4,辽宁,2,二手房,2005
大连市甘井子区软件园路122号,大连,大连理工科技城建设开发有限公司,高新园区,20190712,38.89286578891647,121.53266600180116,理工园,20,14454,街道办事处（居委会）代管物业,1,辽宁,2,二手房,2000
金州区站前街道盛滨花园B区13号楼2号公建,大连,无开发商,金州,20190712,39.09609011892329,121.7335816409767,金源花园小区,18,6924,街道办事处（居委会）代管物业,0.5,辽宁,2,二手房,1998
沙河口区五一路270-274号,大连,大连誉园房地产开发有限公司,高新园区,20190712,38.913544290955585,121.59450670056631,斯坦福院落,25,21543,第一太平戴维斯物业顾问（北京）有限公司大连分公司,1.2,辽宁,2,二手房,2008
西岗区康平街2号（5号楼3-1-3号）,大连,无开发商,西岗,20190712,38.91044414697888,121.61980769264477,教师大厦,23,13181,大连教师大厦物业管理有限公司,0.2,辽宁,2,二手房,1995
沙河口区中山路417A-4号,大连,大连电业房地产开发有限公司,沙河口,20190712,38.90740323140171,121.59484801084653,电力公寓,11,16063,街道办事处（居委会）代管物业,0.7,辽宁,2,二手房,2000
中山区民建街10号1单元1号,大连,无开发商,中山,20190712,38.925444479476894,121.66915026954452,建华巷（三八广场）,10,14560,无物业管理服务,-,辽宁,2,二手房,1990
甘井子区西南路979-7号公建,大连,暂无信息,甘井子,20190712,38.96275592929325,121.5958698791777,八十中周家街,77,16939,街道办事处（居委会）代管物业,0.2,辽宁,2,二手房,1980
大连市甘井子区丰收路3-5号,大连,大连亿海房地产开发有限公司,甘井子,20190712,38.965377255081755,121.58288415324094,亿海盛都,21,21164,街道办事处（居委会）代管物业,0.5,辽宁,2,二手房,2003
大连市金州区友谊街道南金华城25号1-2层1号,大连,大连金华房地产开发有限公司,金州,20190712,39.128677228885614,121.71356109978767,金华小区三期,10,9368,大连金华兴物业有限公司,1.2,辽宁,2,二手房,2009
中山区武昌街武昌公寓6号公建,大连,暂无信息,中山,20190712,38.912280913445784,121.64921130527547,南山西花厅,7,11767,暂无信息,1,辽宁,2,二手房,2002
沙河口区富国街14号1-1-2,大连,无开发商,沙河口,20190712,38.901027106600836,121.59047734850638,星云街,17,11228,无物业管理服务,-,辽宁,2,二手房,1990
大连市开发区湾里东5-6号,大连,大连德玉隆房地产开发有限公司,开发区,20190712,39.07275772231556,121.85888789351343,康馨壹品,45,11305,大连亚航物业管理有限公司,1,辽宁,2,二手房,2012
甘井子区金北街17号,大连,大连悦泰集团有限公司,甘井子,20190712,38.95800216293212,121.53151895549547,悦泰馨家,29,25469,大连优豪斯物业管理有限公司,0.5,辽宁,2,二手房,2003
甘井子区知音园20号3单元1层1号,大连,大连诚信万奕房地产开发有限公司,高新园区,20190712,38.95800216293212,121.53151895549547,万奕学院派,24,27027,大连空港物业管理有限公司,1.2,辽宁,2,二手房,2009
高新园区火炬路18号,大连,大连海脉房地产开发有限公司,高新园区,20190712,38.937738080520404,117.39340752036043,MINI印象,144,15119,大连豪斯威物业管理有限公司,2.2,辽宁,2,二手房,2000
红星海A区126-4,大连,远洋地产有限公司,开发区,20190712,39.027851194371685,121.80327394132297,红星海四期城市别馆二号,78,13438,大连远洋基业物业管理有限公司,2.2,辽宁,2,二手房,2010
甘井子区汇达园26号,大连,大连红星美凯龙投资发展有限公司,甘井子,20190712,38.99704654604941,121.59758808878767,红星国际广场,155,14564,红星物业管理有限公司,1.5,辽宁,2,二手房,2012
无门店信息,大连,暂无信息,金州,20190712,34.52713835999158,118.76812980670795,金石明珠,109,8965,街道办事处（居委会）代管物业,1,辽宁,2,二手房,2009
大连市甘井子区泉水N2区3-13号,大连,暂无信息,甘井子,20190712,39.021116079001885,121.64659997607325,泉水N2区,49,11068,无物业管理服务,0.7,辽宁,2,二手房,2008
沙河口区联合路133号,大连,大连新型房地产开发有限公司,沙河口,20190712,38.91608561262676,121.60480987310456,21中天兴花园一期,37,19568,大连万泰物业管理有限公司,0.5,辽宁,2,二手房,1998
中山区虎滩路176号4-1-2,大连,无开发商,中山,20190712,38.890884710033156,121.69257379232747,碧波园,39,10812,大连虎滩置业物业管理有限公司,0.2,辽宁,2,二手房,1997
西岗区鞍山路29号龙畔锦城东门,大连,大连铁龙房地产开发有限公司,西岗,20190712,38.92763470697088,121.61498923399098,北岗新居,19,14794,大连铁龙物业管理有限公司,0.5,辽宁,2,二手房,2002
甘井子区山东路137号,大连,大连新型房地产开发有限公司,甘井子,20190712,38.99129404608926,121.59172125999353,华南花园,27,13238,大连天洋物业管理有限公司,0.3,辽宁,2,二手房,1990
中山区中南路226号,大连,大连市建设控股有限公司,中山,20190712,38.90029610333926,121.68178899957817,欧洲小镇,11,17964,大连大众物业管理有限公司,0.8,辽宁,2,二手房,2004
无门店信息,大连,暂无信息,开发区,20190712,34.52713835999158,118.76812980670795,山河枫景,35,6252,大连山河物业管理有限公司,1.2,辽宁,2,二手房,2001
甘井子区玉丽街2号楼1单元4号公建,大连,暂无信息,甘井子,20190712,38.98705071699301,121.55513043130172,玉山路,24,10792,大连新兴物业管理有限公司,0.5,辽宁,2,二手房,2002
甘井子区华龙南园34-5号34-库4号34-5号,大连,中信集团大连中信房地产开发公司,甘井子,20190712,38.98270467597865,121.6117222765123,惠丰小区,25,10152,大连中信物业管理有限公司,0.2,辽宁,2,二手房,1989
甘井子区鹏辉新世纪1幢1单元1-3号房屋（海口路99号）,大连,暂无信息,甘井子,20190712,38.96077365187575,121.60514653016222,鹏辉新世纪三期北园,17,17034,大连鹏辉物业管理有限公司,0.6,辽宁,2,二手房,2003
沙河口区前程街46号4—1—2号,大连,大连渤海红旗集团有限公司,甘井子,20190712,38.913544290955585,121.59450670056631,里程巷,18,9678,大连台安物业管理中心,0.4,辽宁,2,二手房,1990
无门店信息,大连,暂无信息,甘井子,20190712,34.52713835999158,118.76812980670795,盐岛湖,92,11051,无物业管理服务,0.2,辽宁,2,二手房,2000
沙河口区黄河路535号,大连,大连建园房地产开发有限公司,沙河口,20190712,38.91773777159567,121.60217159922856,79中城市公元,48,28051,大连斌弘物业管理有限公司,2.6,辽宁,2,二手房,2008
沙河口区黄浦路18号—5号公建,大连,大连良运房地产开发有限公司,高新园区,20190712,38.8771225143479,121.54427480390662,翰林观海,32,22918,大连良运物业管理有限公司,0.8,辽宁,2,二手房,2003
西岗区长春路334号,大连,无开发商,西岗,20190712,38.89807766522607,121.63221082858387,石葵路（石道街商圈）,14,12978,街道办事处（居委会）代管物业,0.5,辽宁,2,二手房,1983
沙河口区连山街44-2号半地下一层（地上一层部分）,大连,大连远东房屋开发有限公司,沙河口,20190712,38.892991456958086,121.57299542767161,星海大第,15,23389,大连斌宏物业管理有限公司,1,辽宁,2,二手房,2005
中山区北斗街53号1层1号,大连,大连大森房地产开发有限公司,中山,20190712,38.92727355733075,121.67002970974048,东港林苑,20,17282,大连美心物业管理有限公司,2.8,辽宁,2,二手房,2010
高新园区火炬路18号,大连,大连奥泰房地产开发有限公司,高新园区,20190712,38.937738080520404,117.39340752036043,因特摩尔,66,17982,大连奥泰物业服务有限公司,2.6,辽宁,2,二手房,2010
开发区红星海-B区89-1号,大连,远洋地产有限公司,开发区,20190712,39.027851194371685,121.80327394132297,红星海一期原墅,39,33298,大连远洋基业物业管理有限公司,2.2,辽宁,2,二手房,2010
中山区清溪南街11号,大连,暂无信息,中山,20190712,38.88919604283904,121.66466481004835,秀峰东园,4,12580,社区物业,-,辽宁,2,二手房,1990
甘井子区迎客路郭东街一品蓝天公建14号,大连,沈阳军区后勤部,甘井子,20190712,38.958456949708726,121.556756277476,金寓花园五期,6,18423,大连瑞祥物业管理有限公司,1,辽宁,2,二手房,2009
中山区同心街72号1楼公建,大连,无开发商,中山,20190712,38.91979245940674,121.64769198230202,南山里,17,18673,无物业管理服务,-,辽宁,2,二手房,1986
中山区南山路59号1层4号,大连,无开发商,中山,20190712,38.91992239075882,121.6479206962747,昆明街（独立街）,12,25829,无物业管理服务,-,辽宁,2,二手房,1988
中山区爱华街13号,大连,大连银洲房地产开发有限公司,中山,20190712,38.92541607518685,121.6535728031028,中央公馆,32,13006,大连银洲物业管理有限公司,3.5,辽宁,2,二手房,2004
甘井子区金家街17-7号,大连,暂无信息,甘井子,20190712,38.97493697764367,121.60110987128529,金一街,17,20286,无物业管理服务,-,辽宁,2,二手房,1958
高新园区红凌路732-4号,大连,大华集团大连置业有限公司,高新园区,20190712,38.90204708664442,121.53244406374695,大华锦绣华城二期,48,25998,大连大华物业管理有限公司,2.5,辽宁,2,二手房,2010
大连市沙河口区知邻街50号,大连,无开发商,沙河口,20190712,38.913544290955585,121.59450670056631,玉门街,16,11719,无物业管理服务,-,辽宁,2,二手房,1990
开发区景和园1-7,大连,开发区城建局,开发区,20190712,30.41892168817929,120.30896459202738,小孤山东里,93,6420,大连广谊物业管理有限公司,0.4,辽宁,2,二手房,1998
中山区解放路471-22号,大连,大连圣北开发有限公司,中山,20190712,38.901309943567504,121.65419095766659,亿达云集,88,19794,亿达物业管理有限公司,1.9,辽宁,2,二手房,2014
金州区同济路44号,大连,大连永乐房地产开发有限公司,金州,20190712,39.10476859984152,121.71234684495865,永乐金庭,39,9977,大连天河物业管理有限公司,0.8,辽宁,2,二手房,2005
甘井子区锦城东园1号3单元1层2号,大连,大连易合房地产开发有限公司,甘井子,20190712,38.952805477462775,121.55656194973994,易和紫园,10,25341,大连易兴物业服务有限公司,0.9,辽宁,2,二手房,2008
金州区小平岛B组团4号楼3号商铺,大连,大连安达房地产开发有限公司,高新园区,20190712,39.05643299166072,121.78943558267059,小平岛E东组团,34,21730,大连凯尔富物业管理有限公司,1.3,辽宁,2,二手房,2007
高新园区火炬路18号,大连,大连海创房地产开发有限公司,高新园区,20190712,38.937738080520404,117.39340752036043,芝麻街,67,14030,大连海创物业管理有限公司,2.4,辽宁,2,二手房,2004
中山区同心街72号1楼公建,大连,大连振屹房屋开发有限公司,中山,20190712,38.91979245940674,121.64769198230202,城市广场,31,15612,大连振屹物业有限公司,3.5,辽宁,2,二手房,2004
甘井子区泉水P3区35-2号,大连,大连鑫成置业有限公司,甘井子,20190712,39.01530162252779,121.63546089163083,欧尚广场,39,17462,大连宏华物业服务有限公司,1.5,辽宁,2,二手房,2013
中山区高尚路28-1号,大连,大连家园建设集团有限公司,中山,20190712,38.892673425111305,121.67148833870213,卡纳意乡,49,21874,大连四季物业服务有限公司,1.8,辽宁,2,二手房,2007
开发区安盛里5栋-4,大连,大连万晟房地产开发有限公司,开发区,20190712,23.112106678834838,113.27801046214822,宜家大院,21,8804,大连万晟置业有限公司,0.8,辽宁,2,二手房,2001
沙河口区知心园10号公建,大连,大连软件园开发有限公司,高新园区,20190712,38.893977135945136,121.55667141994431,亿达国际新城,46,22530,亿达物业管理有限公司,1,辽宁,2,二手房,2003
沙河口区锦石路8号,大连,大连运腾房地产开发有限公司,沙河口,20190712,38.94771288948481,121.56110903658733,锦云南园,69,10443,大连锦绣物业管理有限公司,0.3,辽宁,2,二手房,1995
中山区中青街87号一单元107,大连,大连亿达房地产股份有限公司,中山,20190712,38.90213494248529,121.65806522267005,青云林海,49,22331,亿达物业管理有限公司,1,辽宁,2,二手房,2001
沙河口区西南路40号楼,大连,无开发商,沙河口,20190712,38.94143337232082,121.58616557598133,星海公园,52,12684,无物业管理服务,0.5,辽宁,2,二手房,1975
无门店信息,大连,暂无信息,开发区,20190712,34.52713835999158,118.76812980670795,民生园,25,7068,暂无信息,-,辽宁,2,二手房,2015
中山区北斗街53号1层1号,大连,大连万众房屋开发有限公司,中山,20190712,38.92727355733075,121.67002970974048,清华园(中山),23,18726,大连戴德梁行物业管理有限公司,1.7,辽宁,2,二手房,2003
高新园敬贤街23-11号,大连,中海东丰地产（大连）有限公司,高新园区,20190712,38.869456648212356,121.53023725049893,中海华庭,64,20074,大连中海物业管理有限公司,2,辽宁,2,二手房,2008
金州新区八一路金都嘉园1号楼1号公建,大连,无开发商,金州,20190712,39.05525210261778,121.74865634199398,永安小区,45,6981,无物业管理服务,0.5,辽宁,2,二手房,1996
中山区同心街72号1楼公建,大连,大连万达房地产开发有限公司,西岗,20190712,38.91979245940674,121.64769198230202,雍景台,8,18252,大连万达物业管理有限公司,3.5,辽宁,2,二手房,2000
金州区站前街道盛滨花园B区13号楼2号公建,大连,无开发商,金州,20190712,39.09609011892329,121.7335816409767,联胜小区,29,6491,街道办事处（居委会）代管物业,0.5,辽宁,2,二手房,1990
中山区岭前街53-5,大连,无开发商,中山,20190712,38.89487069426055,121.65795959631497,岭前街,16,15006,街道办事处（居委会）代管物业,0.4,辽宁,2,二手房,1995
甘井子区美域盛景A2区10-6,大连,大连时代房地产开发有限公司,甘井子,20190712,39.006221362805846,121.61022278003976,泉水友好园,39,13577,大连爱静物业服务有限公司,0.5,辽宁,2,二手房,1998
甘井子区锦城东园1号3单元1层2号,大连,大连锦绣房地产开发有限公司,沙河口,20190712,38.952805477462775,121.55656194973994,锦城东园,49,19079,大连锦绣物业管理有限公司,0.6,辽宁,2,二手房,2004
大连市沙河口区知邻街50号,大连,大连亿达房地产股份有限公司,沙河口,20190712,38.913544290955585,121.59450670056631,东方圣荷西,35,24966,亿达物业管理有限公司,2.6,辽宁,2,二手房,2007
金州新区八一路金都嘉园1号楼1号公建,大连,大连友谊合升房地产开发有限公司,金州,20190712,39.05525210261778,121.74865634199398,龙祥嘉园,74,8183,大连天河物业管理有限公司,0.5,辽宁,2,二手房,1999
金州区同济路44号,大连,大连市金州区光明房地产开发有限公司,金州,20190712,39.10476859984152,121.71234684495865,绿苑小区,41,7231,街道办事处（居委会）代管物业,0.5,辽宁,2,二手房,2000
金州区拥政街道733号-8号1-2层,大连,大连市金州区房屋开发公司,金州,20190712,39.11690610445662,121.73030803603723,春和小区,32,7335,街道办事处（居委会）代管物业,0.1,辽宁,2,二手房,1995
沙河口区西南路851号3单元1层3号,大连,无开发商,沙河口,20190712,38.94344210837944,121.58246796944378,春柳街,12,11947,街道办事处（居委会）代管物业,0.1,辽宁,2,二手房,1980
无门店信息,大连,大连融和房地产开发有限公司,开发区,20190712,34.52713835999158,118.76812980670795,岚山著作,40,9765,大连昌和物业管理有限公司,1.3,辽宁,2,二手房,2012
甘井子区泉水H3区15号3单元1层2号,大连,大连新型房地产开发有限公司,甘井子,20190712,39.00158439075201,121.62616882572375,龙畔金泉三期,52,13499,大连新型物业管理有限公司,0.5,辽宁,2,二手房,2003
开发区高新里6栋-8,大连,无开发商,开发区,20190712,39.0710895068195,121.82860134358343,高志里小区,43,6811,街道办事处（居委会）代管物业,0.3,辽宁,2,二手房,1993
甘井子辛吉街150号-7号,大连,大连新星房地产开发有限公司,甘井子,20190712,38.96368508446978,121.52671221254214,新星绿城二期,21,12991,大连生生物业管理有限公司,0.5,辽宁,2,二手房,2004
中山区益民街16号1层1号,大连,大连三鑫房地产开发有限公司,中山,20190712,38.93092761298906,121.66470740073377,金和苑,17,22523,大连报业物业管理有限公司三鑫分公司,3.5,辽宁,2,二手房,2004
甘井子区虹港路391号第五幢1单元1跃2层3号,大连,暂无信息,甘井子,20190712,38.96606635942528,121.53201387432493,商务学院,15,13004,亿达物业管理有限公司,0.5,辽宁,2,二手房,1995
中山区益民街16号1层1号,大连,无开发商,中山,20190712,38.93092761298906,121.66470740073377,永胜街（三八广场）,18,14571,无物业管理服务,-,辽宁,2,二手房,1990
沙河口区联合路133号,大连,大连万达房地产开发有限公司,沙河口,20190712,38.91608561262676,121.60480987310456,79中万泰花园,35,26578,大连万泰物业管理有限公司,0.8,辽宁,2,二手房,1996
沙河口区星海广场B3区20—3号,大连,大连华奇置业有限公司,沙河口,20190712,38.88782715536473,121.5869168319735,星海旺座,25,14597,大连佳和物业管理有限公司,2.5,辽宁,2,二手房,2004
中山区中南路226号,大连,大连大业房屋开发有限公司,中山,20190712,38.90029610333926,121.68178899957817,阳光花园二期,7,13610,大连全得利物业管理有限公司,0.5,辽宁,2,二手房,1997
中山区武昌街武昌公寓6号公建,大连,大连武昌房地产开发有限公司,中山,20190712,38.912280913445784,121.64921130527547,部居逸阁,23,13433,大连宜佳物业管理有限公司,1,辽宁,2,二手房,2005
大连市金州新区中长街道碧海尚城5-4号1-2层,大连,无开发商,金州,20190712,39.100290954587514,121.7304796052032,于洼小区,63,7147,街道办事处（居委会）代管物业,0.1,辽宁,2,二手房,1980
大连市开发区裕民新苑42-7,大连,无开发商,开发区,20190712,39.070771020021674,121.85093056856022,澳东世纪,31,11426,街道办事处（居委会）代管物业,0.5,辽宁,2,二手房,2012
金州区小平岛B组团4号楼3号商铺,大连,安达圣岛开发有限公司,高新园区,20190712,39.05643299166072,121.78943558267059,小平岛亲海园,67,17451,大连凯尔富物业管理有限公司,1.3,辽宁,2,二手房,2007
沙河口区五四路207-1-9号,大连,暂无信息,沙河口,20190712,38.913544290955585,121.59450670056631,海印长城,1,24987,暂无信息,-,辽宁,1,二手房,2010
沙河口区红旗东路18-22号2单元1楼3号,大连,大连渤海红旗集团有限公司,沙河口,20190712,38.913544290955585,121.59450670056631,马栏南街,0,11854,大连辽南物业管理有限公司,0.2,辽宁,1,二手房,1990
经济技术开发区城润万家4-5号公建,大连,诠盛置业（大连）有限公司,开发区,20190712,39.05716325096989,121.75946281983826,清都记忆,46,12252,金科物业服务集团有限公司,0.5,辽宁,2,二手房,2010
中山区南山路59号1层4号,大连,无开发商,中山,20190712,38.91992239075882,121.6479206962747,南山路（昆明街商圈）,1,18372,无物业管理服务,-,辽宁,1,二手房,1982
沙河口区昌黎街77号楼第1层公建,大连,清远君行房地产有限公司,沙河口,20190712,38.91974518366595,121.5902918379551,君安国际,1,8714,街道办事处（居委会）代管物业,11,辽宁,1,二手房,2010
甘井子区华北路花锦园28号23-3-1-2建筑物,大连,暂无信息,甘井子,20190712,38.951627958411166,121.5739439799003,周水子广场,0,14883,无物业管理服务,0.5,辽宁,1,二手房,1985
西岗区胜利路33号,大连,暂无信息,西岗,20190712,38.91309771954841,121.62500886627636,34中云山街,2,36903,暂无信息,-,辽宁,1,二手房,1990
无门店信息,大连,暂无信息,沙河口,20190712,34.52713835999158,118.76812980670795,第八干休所,0,14007,暂无信息,-,辽宁,1,二手房,-
西岗区八一路102号,大连,无开发商,西岗,20190712,38.92047268927287,121.61862512554262,华林巷,0,14151,无物业管理服务,-,辽宁,1,二手房,-
中山区金城街26号一楼,大连,暂无信息,中山,20190712,38.922282529515634,121.65214466263014,昆明街（一德街）,0,14375,暂无信息,-,辽宁,1,二手房,1992
中山区同心街72号1楼公建,大连,无开发商,中山,20190712,38.91979245940674,121.64769198230202,胜利东路,0,15125,无物业管理服务,-,辽宁,1,二手房,1988
大连市高新园区桃峪园4-2号第31幢-2层8号,大连,大连软件园安博开发有限公司,高新园区,20190712,38.9189536667856,121.62163148459285,亿达普罗旺斯,75,22213,亿达物业管理有限公司,2.6,辽宁,2,二手房,2013
金州区同济路44号,大连,大连金州金山房地产开发有限公司,金州,20190712,39.10476859984152,121.71234684495865,金山小区,101,7224,大连金山物业管理有限公司,-,辽宁,2,二手房,1997
开发区红梅小区19栋-2-1-1号,大连,大开中和祥房地产开发有限公司,开发区,20190712,29.906498897603264,121.5913630631805,金丰大厦,47,9888,新加坡物业管理有限公司,3,辽宁,2,二手房,2000
无门店信息,大连,大连运达房地产集团有限公司,甘井子,20190712,34.52713835999158,118.76812980670795,运达诺维溪谷三期,19,17359,大连运达物业有限公司,2,辽宁,2,二手房,2010
开发区红星海B区212-1,大连,远洋地产有限公司,开发区,20190712,39.027851194371685,121.80327394132297,红星海时光的岸,73,13551,大连远洋基业物业管理有限公司,2.2,辽宁,2,二手房,2013
大连市高新园区七贤中路63号,大连,大连宏都房地产开发有限公司,高新园区,20190712,38.86053006357667,121.53273606963094,宏都峰景,37,20753,大连东方百瑞物业管理有限公司,1.9,辽宁,2,二手房,2012
中山区华乐街107-115号,大连,大连复城置业有限公司,中山,20190712,38.92093821499401,121.68879267531725,星光耀广场,21,24836,上海复瑞物业管理有限公司大连分公司,4.8,辽宁,2,二手房,2015
金州新区八一路金都嘉园1号楼1号公建,大连,大连天程置业有限公司,金州,20190712,39.05525210261778,121.74865634199398,御河壹號,11,10077,大连天程置业有限公司,1.2,辽宁,2,二手房,2015
大连市甘井子区辛如街35号1单元1层1号,大连,暂无信息,甘井子,20190712,38.96862607066881,121.52294869064194,苹果公寓（住宅）,47,11411,大连生生物业有限公司,0.8,辽宁,2,二手房,2007
金州区同济路44号,大连,暂无信息,金州,20190712,39.10476859984152,121.71234684495865,阿尔滨家属楼,14,6351,无物业管理服务,-,辽宁,1,二手房,1998
中山区民建街10号1单元1号,大连,暂无信息,中山,20190712,38.925444479476894,121.66915026954452,39中港湾街,2,20124,无物业管理服务,-,辽宁,1,二手房,1994
中山区爱华街13号,大连,暂无信息,中山,20190712,38.92541607518685,121.6535728031028,九中万民街,3,38186,无物业管理服务,-,辽宁,1,二手房,1995
"西岗区泰公街20号2层7号 西岗区久寿街22号1层14号""",大连,大连安大房屋开发有限公司,西岗,20190712,38.92600196862723,121.62141976476381,万达公寓,6,9442,庄河金城物业管理有限公司,0.8,辽宁,1,二手房,1997
中山区鲁迅路184号1层B—A,大连,无开发商,中山,20190712,38.92590875965419,121.67594393403164,北斗街（寺儿沟商圈）,1,14109,无物业管理服务,-,辽宁,1,二手房,1988
甘井子区哲林北园17-6号,大连,大连虹升置业有限公司,甘井子,20190712,38.9600267109581,121.53876726228256,福佳机场前院,5,22042,大连福佳物业管理有限公司,2,辽宁,1,二手房,2015
甘井子区华东路22号公建,大连,大连盖特房地产开发有限公司,甘井子,20190712,38.97736184953593,121.5935814234334,盖特名园,7,11934,大连弘益达物业管理有限公司,0.5,辽宁,1,二手房,2003
中山区金城街26号一楼,大连,无开发商,中山,20190712,38.922282529515634,121.65214466263014,昆明街（阳光巷）,4,17217,无物业管理服务,-,辽宁,1,二手房,1988
西岗区绕山路31号公建一层东侧,大连,无开发商,西岗,20190712,38.90257514466717,121.61412736644739,康庄街,4,10219,无物业管理服务,-,辽宁,1,二手房,1988
大连市沙河口区黄河路729号,大连,无开发商,沙河口,20190712,38.91710565765228,121.58954758972729,黄河路（西安路商圈）,3,10479,无物业管理服务,-,辽宁,1,二手房,1995
西岗区绕山路31号公建一层东侧,大连,暂无信息,沙河口,20190712,38.90257514466717,121.61412736644739,山庄南二巷,4,11429,暂无信息,-,辽宁,1,二手房,1990
莲花山路89-3号,大连,大连建兴房屋开发有限公司,沙河口,20190712,38.902848261803356,121.6041720815823,府佳家园,4,16975,大连富佳物业管理有限公司,0.6,辽宁,1,二手房,2001
沙河口区长江路738号,大连,大连春达房屋开发有限公司,西岗,20190712,38.913544290955585,121.59450670056631,春江花园,2,17341,无物业管理服务,-,辽宁,1,二手房,2002
沙河口区西南路358号1—2号,大连,大连恒安房地产开发有限公司,沙河口,20190712,38.90839654326566,121.56908246905662,水芙山竹,10,21818,大连上达物业管理有限公司,0.6,辽宁,1,二手房,2005
沙河口区杨树街4—2号,大连,无开发商,高新园区,20190712,38.8832931099998,121.55440002481825,龙江路（学府商圈）,6,13995,无物业管理服务,-,辽宁,1,二手房,1992
沙河口区联合路133号,大连,大连建兴房屋开发有限公司,沙河口,20190712,38.91608561262676,121.60480987310456,21中学中山南苑,2,23501,大连自然物业管理有限公司,1.3,辽宁,1,二手房,2001
无门店信息,大连,暂无信息,金州,20190712,34.52713835999158,118.76812980670795,十九局家属楼,8,6233,无物业管理服务,0.1,辽宁,1,二手房,1995
沙河口区五四路207-1-9号,大连,无开发商,沙河口,20190712,38.913544290955585,121.59450670056631,连胜街,6,12819,无物业管理服务,-,辽宁,1,二手房,1992
中山区武昌街武昌公寓6号公建,大连,无开发商,中山,20190712,38.912280913445784,121.64921130527547,合力巷,5,11018,无物业管理服务,-,辽宁,1,二手房,1980
甘井子区华龙南园12-4-3-1-3,大连,大连融汇置业有限公司,甘井子,20190712,38.98528794231248,121.61028969481718,格林翠庭,7,14822,北京房修一物业管理有限公司,1.3,辽宁,1,二手房,2004
金州区凤翔路220号,大连,暂无信息,金州,20190712,39.08410553937731,121.77700083356399,新起点公寓,5,5550,暂无信息,-,辽宁,1,二手房,2000
沙河口区兰田街33号,大连,无开发商,沙河口,20190712,38.926138912221084,121.56486022834609,西苑新区,4,13858,街道办事处（居委会）代管物业,0.3,辽宁,1,二手房,2000
中山区山屏街116号1-1,大连,暂无信息,中山,20190712,38.90729438486833,121.68598159980013,干休所,2,14157,街道办事处（居委会）代管物业,0.1,辽宁,1,二手房,1988
莲花山路89-3号,大连,大连兴达房地产有限公司,西岗,20190712,38.902848261803356,121.6041720815823,香都花园,2,17048,大连香都物业管理有限公司,0.8,辽宁,1,二手房,1993
中山区华乐街71号公建,大连,大连新型房地产开发有限公司,中山,20190712,38.923187679200566,121.6843197903016,春海街,6,11225,无物业管理服务,-,辽宁,1,二手房,1992
大连经济技术开发区同和里7栋-9号,大连,无开发商,开发区,20190712,39.04901984220615,121.7885236929847,山水花园小区,8,12878,大连经济技术开发区白石物业管理有限公司,0.5,辽宁,1,二手房,2000
沙河口区联合路133号,大连,亿达集团大连房地产开发有限公司,沙河口,20190712,38.91608561262676,121.60480987310456,21中亿达广场,3,20091,亿达物业管理有限公司,1.2,辽宁,1,二手房,1999
沙河口区恒利园42号-8,大连,无开发商,沙河口,20190712,38.93357562498634,121.57914091532649,大庆街,3,12248,无物业管理服务,-,辽宁,1,二手房,1982
沙河口区黄河路883号,大连,无开发商,沙河口,20190712,38.919826721475204,121.57749657966676,黄河路（辽师商圈）,2,11596,大连辽南物业管理有限公司,0.5,辽宁,1,二手房,1970
大连市金州新区友谊街道和平路59-10号1-2层公建,大连,无开发商,金州,20190712,39.112168401852266,121.72006917947859,新金州大厦,1,7118,街道办事处（居委会）代管物业,0.5,辽宁,1,二手房,2006
无门店信息,大连,大连永高房屋开发有限公司,西岗,20190712,34.52713835999158,118.76812980670795,北海胜利公社(宁海街),13,12847,大连永高物业管理有限公司,0.8,辽宁,1,二手房,2005
无门店信息,大连,大连海华房地产开发有限公司,甘井子,20190712,34.52713835999158,118.76812980670795,丽湾海景,34,12052,大连海华房地产开发有限公司,0.5,辽宁,1,二手房,2010
中山区共建巷61号,大连,无开发商,中山,20190712,38.91828093658718,121.66259221532148,39中永青街,10,25543,街道办事处（居委会）代管物业,0.5,辽宁,1,二手房,1993
无门店信息,大连,暂无信息,西岗,20190712,34.52713835999158,118.76812980670795,华良海景花园,7,22899,香港侨乐物业管理（中国）有限公司,1.5,辽宁,1,二手房,2004
沙河口区富民路249号,大连,大连浩胜房地产开发有限公司,沙河口,20190712,38.93341510428133,121.5770130002514,万棵树,13,19769,大连华安物业管理有限公司,2.1,辽宁,1,二手房,2016
中山区民建街10号1单元1号,大连,无开发商,中山,20190712,38.925444479476894,121.66915026954452,39中鲁迅路（三八广场）,1,20267,无物业管理服务,-,辽宁,1,二手房,1990
甘井子区华东路22号公建,大连,暂无信息,甘井子,20190712,38.97736184953593,121.5935814234334,经一街,2,12072,无物业管理服务,-,辽宁,1,二手房,1990
沙河口区连山街10号2-1-2,大连,大连城市建设集团有限公司,沙河口,20190712,38.89637522563413,121.57143690983219,城建花园,10,17194,大连城建开发集团物业管理有限公司,0.5,辽宁,1,二手房,2002
甘井子区促进路30号2-1-1,大连,大连大骏达房地产开发有限公司,甘井子,20190712,38.954133128707575,121.58355746311207,骏达绅士花园,3,19016,大连骏达物业管理有限公司,1.7,辽宁,1,二手房,2012
西岗区八一路196号1-3,大连,无开发商,西岗,20190712,38.92047268927287,121.61862512554262,靠山巷,11,10280,无物业管理服务,-,辽宁,1,二手房,1990
沙河口区华北路404号,大连,大连元泰房屋开发有限公司,沙河口,20190712,38.8862815932937,121.59082948696123,福居家园,9,16118,渤海吉祥物业管理有限公司,0.5,辽宁,1,二手房,2003
中山区山屏街116号1-1,大连,无开发商,中山,20190712,38.90729438486833,121.68598159980013,怡梦园,6,14869,无物业管理服务,-,辽宁,1,二手房,1900
无门店信息,大连,暂无信息,金州,20190712,34.52713835999158,118.76812980670795,三里公安家属楼,13,7378,暂无信息,-,辽宁,1,二手房,1996
沙河口区中山路417A-4号,大连,无开发商,沙河口,20190712,38.90740323140171,121.59484801084653,太原街,6,12229,无物业管理服务,-,辽宁,1,二手房,1959
沙河口区连山街44-2号半地下一层（地上一层部分）,大连,大连宏都房地产开发有限公司,沙河口,20190712,38.892991456958086,121.57299542767161,宏都筑景Ⅱ期,6,26503,东方百瑞物业有限公司,1.8,辽宁,1,二手房,2010
甘井子区惠泽南园3-7号,大连,大连利丰房地产开发有限公司,甘井子,20190712,38.939326611323615,121.52337842113351,国安宜居,10,18910,大连易明物业服务有限公司,2,辽宁,1,二手房,2014
甘井子区金家街17-7号,大连,暂无信息,甘井子,20190712,38.97493697764367,121.60110987128529,金源花园,9,19743,无物业管理服务,-,辽宁,1,二手房,1999
西岗区八一路196号1-3,大连,无开发商,西岗,20190712,38.92047268927287,121.61862512554262,三环街（八一路商圈）,2,12031,无物业管理服务,-,辽宁,1,二手房,1990
高新园区书香街1A#1-1-2,大连,大连和升房地产开发有限公司,高新园区,20190712,38.880372108393104,121.55218773010999,学苑广场九号,7,27463,大连戴德梁行物业管理有限公司,2.8,辽宁,1,二手房,2016
沙河口区兰田街33号,大连,无开发商,沙河口,20190712,38.926138912221084,121.56486022834609,兰玉小区,4,11074,街道办事处（居委会）代管物业,0.4,辽宁,1,二手房,1990
中山区解放路471-22号,大连,无开发商,中山,20190712,38.901309943567504,121.65419095766659,广兴巷,6,12465,街道办事处（居委会）代管物业,-,辽宁,1,二手房,1980
沙河口区红旗东路18-22号2单元1楼3号,大连,无开发商,甘井子,20190712,38.913544290955585,121.59450670056631,兰兴巷,3,12723,大连辽南物业管理有限公司,0.2,辽宁,1,二手房,1992
西岗区新田巷27号1-2,大连,无开发商,西岗,20190712,38.893215932589385,121.64103065169111,新秀街（新起屯商圈）,11,10785,无物业管理服务,-,辽宁,1,二手房,1992
沙河口区星海广场B3区14-2号1层,大连,华润置地（大连）有限公司,沙河口,20190712,38.88693148294673,121.58735631267305,星海湾壹号,43,52521,华润物业（大连）有限公司,4.8,辽宁,1,二手房,2006
沙河口区五一路110-4号,大连,大连市中联房地产开发有限公司,沙河口,20190712,38.913544290955585,121.59450670056631,星海中龙园,19,20548,大连斌弘物业管理有限公司,0.6,辽宁,1,二手房,2003
甘井子区玉湖街25号2单元1层3号,大连,大连新型房地产开发有限公司,甘井子,20190712,38.97626265183615,121.54617349027997,书香府第一期,12,12011,大连新兴物业管理有限公司,0.5,辽宁,1,二手房,2002
沙河口区黑石礁街5号1层1号,大连,大连鹏生房地产开发有限公司,沙河口,20190712,38.879813345473714,121.56313742300513,鹏辉广场,13,18638,大连新兴物业管理有限公司,0.5,辽宁,1,二手房,2000
中山区虎滩路176号4-1-2,大连,大连万达房地产开发有限公司,中山,20190712,38.890884710033156,121.69257379232747,碧涛南园,10,16549,大连虎滩置业物业管理有限公司,0.2,辽宁,1,二手房,1998
无门店信息,大连,大连康阳房屋开发有限公司,甘井子,20190712,34.52713835999158,118.76812980670795,南岭新城三期,28,14318,大连鸿诚物业管理有限公司,0.4,辽宁,1,二手房,2004
无门店信息,大连,大连宸泰房地产开发有限公司,旅顺口,20190712,34.52713835999158,118.76812980670795,丽水佳园,8,8291,暂无信息,-,辽宁,1,二手房,-
甘井子区甘井子路32号楼1单元1楼9号,大连,无开发商,甘井子,20190712,38.982488275116516,121.63345389253514,石油三角地,17,10678,街道办事处（居委会）代管物业,0.2,辽宁,1,二手房,1990
中山区鲁迅路184号1层B—A,大连,无开发商,中山,20190712,38.92590875965419,121.67594393403164,荣民街（二七商圈）,6,12543,无物业管理服务,-,辽宁,1,二手房,1996
中山区中青街87号一单元107,大连,无开发商,中山,20190712,38.90213494248529,121.65806522267005,光华巷,4,11105,无物业管理服务,-,辽宁,1,二手房,1990
中山区共建巷61号,大连,暂无信息,中山,20190712,38.91828093658718,121.66259221532148,山林街（三八商圈）,2,25626,无物业管理服务,-,辽宁,1,二手房,1990
中山区北斗街53号1层1号,大连,无开发商,中山,20190712,38.92727355733075,121.67002970974048,丹东街（二七商圈）,8,14028,无物业管理服务,-,辽宁,1,二手房,1993
中山区民运巷 47号1层2号,大连,大连连城房地产开发有限公司,中山,20190712,38.905955122300846,121.64798148011702,葵英林苑,6,16741,无物业管理服务,-,辽宁,1,二手房,2003
沙河口区西南路643号,大连,无开发商,沙河口,20190712,38.943483429804665,121.5833555851182,西厢街,9,9606,无物业管理服务,-,辽宁,1,二手房,1990
无门店信息,大连,大连树源世嘉房地产开发有限公司,金州,20190712,34.52713835999158,118.76812980670795,龙山小区,31,6503,民盛集团物业管理有限公司,0.5,辽宁,1,二手房,1998
金州新区八一路金都嘉园1号楼1号公建,大连,大连兴悦房地产有限公司,金州,20190712,39.05525210261778,121.74865634199398,悦泰祥里,5,7559,大连百安物业管理有限公司,0.8,辽宁,1,二手房,2010
甘井子区祥龙街2号楼1单元1楼1号,大连,大连世隆房地产开发有限公司,甘井子,20190712,38.988045874482445,121.60439401971377,玉树临居,16,13914,北京房修一物业管理有限公司,1.3,辽宁,1,二手房,2008
无门店信息,大连,大连屹辰置业有限公司,甘井子,20190712,34.52713835999158,118.76812980670795,屹辰优生活,57,14285,大连三和住邦物业管理有限公司,1.6,辽宁,1,二手房,2016
大连市开发区抚顺街30号,大连,大连圣泰企业有限公司,开发区,20190712,38.92272284555705,121.5977239817503,太阳大厦,3,10690,大连圣泰物业管理有限公司,1,辽宁,1,二手房,2002
中山区山屏街116号1-1,大连,暂无信息,中山,20190712,38.90729438486833,121.68598159980013,山屏美境,5,17105,无物业管理服务,3.5,辽宁,1,二手房,2009
甘井子区虹港路16号楼1层公建,大连,大连祥盛房屋开发有限公司,甘井子,20190712,38.9645939333502,121.553851837474,祥和新家园,16,16420,大连东特祥禾物业管理有限公司,0.5,辽宁,1,二手房,2002
经济技术开发区城润万家4-5号公建,大连,志广房地产有限公司,开发区,20190712,39.05716325096989,121.75946281983826,恒安花园,20,9415,大连志广物业管理有限责任公司,0.9,辽宁,1,二手房,2002
西岗区康平街2号（5号楼3-1-3号）,大连,暂无信息,西岗,20190712,38.91044414697888,121.61980769264477,34中长春路,9,27553,无物业管理服务,-,辽宁,1,二手房,1990
开发区杏树里10栋-14,大连,大连经济技术开发区城市建设开发有限公司,开发区,20190712,39.08113818354046,121.78505742127606,颐馨园,13,9203,大连经济技术开发区杏林物业管理有限公司,0.8,辽宁,1,二手房,2005
金州新区先进街道五一路350-1号1-2层,大连,无开发商,金州,20190712,39.078667146419825,121.77094423323935,八里河小区,33,7142,街道办事处（居委会）代管物业,0.5,辽宁,1,二手房,2003
西岗区中山路158号唐山街市场外14号,大连,暂无信息,西岗,20190712,38.91688106727098,121.63201298398174,34中保健街,9,25307,无物业管理服务,-,辽宁,1,二手房,1988
中山区鲁迅路204号百盛新药特药商店一楼西侧部分,大连,无开发商,中山,20190712,38.9258993614899,121.6768880001226,春港街,4,12285,无物业管理服务,-,辽宁,1,二手房,1988
沙河口区民权街324号,大连,大连中源翔房屋开发有限公司,沙河口,20190712,38.92064616208148,121.59777611850379,79中五四华庭,14,28493,大连祥益物业管理有限公司,2.6,辽宁,1,二手房,2008
开发区小孤山西里3栋-11号,大连,大连光伸房地产开发有限公司,开发区,20190712,39.02715282297674,121.80682183666346,绿洲半岛一期,34,9818,大连经济技术开发区海青物业有限公司,0.5,辽宁,1,二手房,2004
经济技术开发区城润万家4-5号公建,大连,恒安房地产,开发区,20190712,39.05716325096989,121.75946281983826,中环嘉园,6,9719,大连大连开发区杰佳物业管理有限公司,0.5,辽宁,1,二手房,2000
沙河口区联合路133号,大连,大连新型房地产开发有限公司,沙河口,20190712,38.91608561262676,121.60480987310456,五四小区,10,14678,大连新晨物业管理有限公司,0.5,辽宁,1,二手房,1996
沙河口区民权街324号,大连,暂无信息,沙河口,20190712,38.92064616208148,121.59777611850379,79中民权小区,15,17059,大连福港物业管理有限公司,0.2,辽宁,1,二手房,1996
甘井子区红旗中路143号1层4号,大连,亿海房地产开发有限公司,甘井子,20190712,38.93169566676921,121.5426632438217,水苑居,11,15992,大连万泰物业管理有限公司,0.6,辽宁,1,二手房,2003
中山区岭前街53-5,大连,无开发商,西岗,20190712,38.89487069426055,121.65795959631497,卧龙双厦,9,14229,大连致远物业管理有限公司,0.5,辽宁,1,二手房,1997
中山区高尚路28-1号,大连,大连海华房地产开发有限公司,中山,20190712,38.892673425111305,121.67148833870213,海贝花园,10,11612,街道办事处（居委会）代管物业,1,辽宁,1,二手房,1995
莲花山路89-3号,大连,大连安邦房屋开发公司,沙河口,20190712,38.902848261803356,121.6041720815823,金地海景,17,13487,无物业管理服务,-,辽宁,1,二手房,2003
沙河口区西南路40号楼,大连,亿达房地产开发有限公司,沙河口,20190712,38.94143337232082,121.58616557598133,星浦庄园,22,12142,大连香都物业管理有限公司,0.5,辽宁,1,二手房,1996
沙河口区黄浦路18号—5号公建,大连,大连高新技术产业园区建设开发总公司,高新园区,20190712,38.8771225143479,121.54427480390662,学府1+1,7,18888,街道办事处（居委会）代管物业,0.5,辽宁,1,二手房,2006
甘井子区汇仁街19号12号楼1单元102室,大连,大连华南房地产开发有限公司,甘井子,20190712,38.99746297497168,121.58917714380617,名贵山庄华秋园,11,13551,大连弘益达物业管理有限公司,0.5,辽宁,1,二手房,2000
无门店信息,大连,大连奥泰房地产开发有限公司,金州,20190712,34.52713835999158,118.76812980670795,亿达蓝筹海,24,8101,大连奥泰物业服务有限公司,1.6,辽宁,1,二手房,2008
中山区解放路471-22号,大连,大连圣北开发有限公司,中山,20190712,38.901309943567504,121.65419095766659,亿达云集公寓,58,30329,亿达物业管理有限公司,2.9,辽宁,1,二手房,2015
大连市甘井子区逸林南园1-1号,大连,暂无信息,甘井子,20190712,38.95800216293212,121.53151895549547,三鼎春天A区,22,24654,瑞联德（大连）物业管理有限公司,3.2,辽宁,1,二手房,2015
金州区南棉路310号,大连,暂无信息,金州,20190712,39.09939229372624,121.72414976100345,连胜小区,7,6490,无物业管理服务,0.5,辽宁,1,二手房,1995
西岗区鞍山路29号龙畔锦城东门,大连,大连万达房地产开发有限公司,西岗,20190712,38.92763470697088,121.61498923399098,长春花园,22,18019,大连万达物业管理有限公司,0.5,辽宁,1,二手房,1996
高新园区凌水路海苑街30号链家地产,大连,大连大有房屋开发有限公司,高新园区,20190712,38.883724250512046,121.51945874588822,大有恬园公寓,17,9314,大连大有恬园物业管理有限公司,1.2,辽宁,1,二手房,2005
西岗区中山路158号唐山街市场外14号,大连,暂无信息,西岗,20190712,38.91688106727098,121.63201298398174,34中畅通街,4,28390,无物业管理服务,-,辽宁,1,二手房,1980
开发区黄海西路201号107公建,大连,大连开建房地产开发有限公司,开发区,20190712,39.04942604506828,121.80126318235419,芙蓉花园(开发区),45,7029,嘉兴物业管理有限公司,0.4,辽宁,1,二手房,2001
金州新区先进街道渤海街7-4号1-2层、7-3号1-2层,大连,大连金连房地产开发有限公司,金州,20190712,39.09342713035472,121.74590886291374,金纺馨公寓,17,7045,金州区物业管理有限公司,-,辽宁,1,二手房,2005
大连市甘井子区银田北园14号,大连,大连亿达房地产股份有限公司,甘井子,20190712,38.9742441034389,121.47189841879823,亿达春田留庄,24,25708,亿达物业管理有限公司,4.5,辽宁,1,二手房,2015
开发区黄海西路201号107公建,大连,无开发商,开发区,20190712,39.04942604506828,121.80126318235419,新云里,25,8404,街道办事处（居委会）代管物业,0.5,辽宁,1,二手房,1996
金州区同济路44号,大连,大连荣基置业有限公司,金州,20190712,39.10476859984152,121.71234684495865,瑞栢中心,33,12404,大连银帆物业管理有限公司,2,辽宁,1,二手房,2013
无门店信息,大连,无开发商,金州,20190712,34.52713835999158,118.76812980670795,香山翌景,22,7353,街道办事处（居委会）代管物业,0.5,辽宁,1,二手房,2000
西岗区胜利路33号,大连,无开发商,西岗,20190712,38.91309771954841,121.62500886627636,华城御园,14,28275,大连白云物业管理有限公司,1,辽宁,1,二手房,1996
金州新区先进街道五一路350-1号1-2层,大连,无开发商,金州,20190712,39.078667146419825,121.77094423323935,金星公寓,16,6797,街道办事处（居委会）代管物业,0.5,辽宁,1,二手房,1999
经济技术开发区红星海-A区81-2号1层,大连,远洋地产有限公司,开发区,20190712,39.027851194371685,121.80327394132297,红星海二期领墅,35,26505,大连远洋基业物业管理有限公司,0.5,辽宁,1,二手房,2009
中山区华乐街93—1号,大连,大连鸿雁房地产开发公司,中山,20190712,38.921950924512124,121.68673151242629,海之恋花园,29,17403,大连鸿雁物业有限公司,0.8,辽宁,1,二手房,2001
沙河口区西南路358号1—2号,大连,大连中城房地产开发有限公司,沙河口,20190712,38.90839654326566,121.56908246905662,中城公园里,13,21343,渤海吉祥物业管理有限公司,1.8,辽宁,1,二手房,2008
中山区中南路226号,大连,大连悦泰集团有限公司,中山,20190712,38.90029610333926,121.68178899957817,悦泰林里,15,27270,大连腾馨物业管理有限公司,1.2,辽宁,1,二手房,2006
中山区职工街96号1-3层公建,大连,大连泛华房屋开发有限公司,中山,20190712,38.92565613737007,121.66193575790903,泛华领城,32,13514,无物业管理服务,3.2,辽宁,1,二手房,1994
西岗区长春路334号,大连,无开发商,西岗,20190712,38.89807766522607,121.63221082858387,新城街（石道街商圈）,6,11382,无物业管理服务,-,辽宁,1,二手房,1989
沙河口区联合路133号,大连,无开发商,沙河口,20190712,38.91608561262676,121.60480987310456,联合路,3,11562,无物业管理服务,-,辽宁,1,二手房,1995
无门店信息,大连,暂无信息,中山,20190712,34.52713835999158,118.76812980670795,明秀庄园一期,14,43387,大连澳邦致和物业服务有限公司,3.2,辽宁,1,二手房,2012
大连市金州区友谊街道南金华城25号1-2层1号,大连,大连金华房地产开发有限公司,金州,20190712,39.128677228885614,121.71356109978767,金华小区二期,36,8374,大连金华兴物业有限公司,0.5,辽宁,1,二手房,2006
西岗区绕山路31号公建一层东侧,大连,无开发商,西岗,20190712,38.90257514466717,121.61412736644739,山庄北三街,10,10279,无物业管理服务,-,辽宁,1,二手房,1990
甘井子区金家街17-7号,大连,大连衡锐房屋开发有限公司,甘井子,20190712,38.97493697764367,121.60110987128529,衡逸园一期,31,19285,大连衡锐物业管理公司,1,辽宁,1,二手房,2008
开发区松苑街23号,大连,大连天安房地产开发有限公司,开发区,20190712,22.52087435807652,113.40156105086167,天安海景花园,20,14220,大连港力物业管理有限公司,1.2,辽宁,1,二手房,1987
无门店信息,大连,大连裕安房地产开发有限公司,甘井子,20190712,34.52713835999158,118.76812980670795,金塘裕墅,6,27916,大连旺宇物业有限公司,3.5,辽宁,1,二手房,2014
"西岗区泰公街20号2层7号 西岗区久寿街22号1层14号""",大连,无开发商,西岗,20190712,38.92600196862723,121.62141976476381,银华双厦,8,11191,无物业管理服务,-,辽宁,1,二手房,1994
大连市开发区抚顺街30号,大连,无开发商,开发区,20190712,38.92272284555705,121.5977239817503,红梅南里,22,10666,街道办事处（居委会）代管物业,0.3,辽宁,1,二手房,1995
中山区爱华街13号,大连,无开发商,中山,20190712,38.92541607518685,121.6535728031028,邮电公寓,6,10890,无物业管理服务,-,辽宁,1,二手房,1999
中山区解放路471-22号,大连,无开发商,中山,20190712,38.901309943567504,121.65419095766659,友爱街,8,12891,无物业管理服务,-,辽宁,1,二手房,1990
中山区中青街87号一单元107,大连,大连金生房地产开发有限公司,中山,20190712,38.90213494248529,121.65806522267005,金生佳苑,10,18978,大连金宇物业管理有限公司,1,辽宁,1,二手房,2003
甘井子区迎客路郭东街一品蓝天公建14号,大连,沈阳军区后勤部,甘井子,20190712,38.958456949708726,121.556756277476,虹桥干休所,7,13964,大连虹桥物业管理中心,0.1,辽宁,1,二手房,2000
中山区益民街16号1层1号,大连,大连上方房地产开发有限公司,中山,20190712,38.93092761298906,121.66470740073377,上方港景,34,17899,北京世邦魏理仕物业管理服务有限公司大连分公司,3.5,辽宁,1,二手房,2011
沙河口区黑石礁街5号1层1号,大连,大连鹏生房地产开发有限公司,沙河口,20190712,38.879813345473714,121.56313742300513,鹏莱花园,13,15027,大连新兴物业管理有限公司,0.3,辽宁,1,二手房,1998
开发区金源南里14栋-11号一层部分，14号-12号一层部分,大连,大连经济技术开发区金源实业有限公司,开发区,20190712,39.06148862675436,121.82503941311765,金源名府,25,10929,街道办事处（居委会）代管物业,1,辽宁,1,二手房,2009
金州新区先进街道五一路350-1号1-2层,大连,大连鸿德置业有限公司,金州,20190712,39.078667146419825,121.77094423323935,左岸阳光,23,8601,大连鸿德物业管理有限公司,1.2,辽宁,1,二手房,2014
大连市高新园区软件园路1A-3号,大连,无开发商,高新园区,20190712,38.89360013642285,121.54653763548625,中辰国际公寓,5,16465,大连阿尔滨汇城物业服务有限公司,2.5,辽宁,1,二手房,2005
沙河口区红旗东路18-22号2单元1楼3号,大连,大连益海房屋开发有限公司,沙河口,20190712,38.913544290955585,121.59450670056631,西苑花园,7,14605,大连宏溢达物业管理有限公司,0.5,辽宁,1,二手房,2000
甘井子区汇仁街19号12号楼1单元102室,大连,大连华南房地产开发有限公司,甘井子,20190712,38.99746297497168,121.58917714380617,名贵山庄华夏园,12,14077,大连弘益达物业管理有限公司,0.5,辽宁,1,二手房,2003
中山区爱华街13号,大连,无开发商,中山,20190712,38.92541607518685,121.6535728031028,九中爱华街,8,39141,无物业管理服务,-,辽宁,1,二手房,1988
西岗区中山路158号唐山街市场外14号,大连,暂无信息,西岗,20190712,38.91688106727098,121.63201298398174,34中唐山街,12,28604,无物业管理服务,0.1,辽宁,1,二手房,1990
甘井子区海口路77—5号,大连,暂无信息,甘井子,20190712,38.960286398428124,121.60305183172997,鹏辉新世纪五期,12,19394,大连鹏辉物业管理有限公司,0.6,辽宁,1,二手房,2009
甘井子区甘井子路32号楼1单元1楼9号,大连,暂无信息,甘井子,20190712,38.982488275116516,121.63345389253514,锦联樱花园,17,13494,街道办事处（居委会）代管物业,0.5,辽宁,1,二手房,2010
莲花山路89-3号,大连,无开发商,西岗,20190712,38.902848261803356,121.6041720815823,世纪家园(西岗),7,16963,大连铁龙物业管理有限公司,0.3,辽宁,1,二手房,2000
大连经济技术开发区同和里7栋-9号,大连,无开发商,开发区,20190712,39.04901984220615,121.7885236929847,新星里,47,8240,大连广谊物业管理有限公司,0.3,辽宁,1,二手房,1998
甘井子区金北街17号,大连,大连恒新房地产开发有限公司,甘井子,20190712,38.95800216293212,121.53151895549547,福佳绿都,30,27458,大连福佳物业管理有限公司,1.3,辽宁,1,二手房,2007
开发区润海园中区62-9,大连,暂无信息,开发区,20190712,39.04047273176333,121.76392358042445,大连海湾城三期,26,12337,大连金广物业服务有限公司,3,辽宁,1,二手房,2015
无门店信息,大连,大连鹏辉房地产开发有限公司,甘井子,20190712,34.52713835999158,118.76812980670795,鹏辉新天居三期,54,14471,大连鹏辉物业管理有限公司,0.8,辽宁,1,二手房,2008
中山区中青街87号一单元107,大连,无开发商,中山,20190712,38.90213494248529,121.65806522267005,中青街,4,16040,无物业管理服务,-,辽宁,1,二手房,1996
无门店信息,大连,平谷地产发展（大连）有限公司,金州,20190712,34.52713835999158,118.76812980670795,平谷蓝熙庭,19,8187,平谷物业服务(大连)有限公司,1.8,辽宁,1,二手房,2013
无门店信息,大连,暂无信息,金州,20190712,34.52713835999158,118.76812980670795,金馨园一区,3,6821,暂无信息,-,辽宁,1,二手房,-
无门店信息,大连,大连益海房屋开发有限公司,甘井子,20190712,34.52713835999158,118.76812980670795,益海美利山,12,13200,大连溪谷阳光物业服务有限公司,1.5,辽宁,1,二手房,2016
中山区杏林街66—5号,大连,无开发商,中山,20190712,38.92572771377599,121.66490555592502,39中丰阳巷,4,28584,街道办事处（居委会）代管物业,0.5,辽宁,1,二手房,1990
中山区鲁迅路184号1层B—A,大连,无开发商,中山,20190712,38.92590875965419,121.67594393403164,海滨住宅小区（寺儿沟商圈）,7,11506,无物业管理服务,-,辽宁,1,二手房,1989
沙河口区长江路738号,大连,无开发商,西岗,20190712,38.913544290955585,121.59450670056631,21中五一广场,28,20609,无物业管理服务,-,辽宁,1,二手房,1976
甘井子区锦城东园1号3单元1层2号,大连,大连福田房屋开发有限公司,甘井子,20190712,38.952805477462775,121.55656194973994,福典人家,31,19736,大连福田房屋物业管理有限公司,0.6,辽宁,1,二手房,2006
中山区民运巷 47号1层2号,大连,无开发商,中山,20190712,38.905955122300846,121.64798148011702,葵英街（武昌街商圈）,6,12852,无物业管理服务,-,辽宁,1,二手房,1990
大连经济技术开发区同和里7栋-9号,大连,大连城市建设集团有限公司,开发区,20190712,39.04901984220615,121.7885236929847,新日里小区,30,8746,街道办事处（居委会）代管物业,0.5,辽宁,1,二手房,1995
高新园敬贤街23-11号,大连,中海东丰地产（大连）有限公司,高新园区,20190712,38.869456648212356,121.53023725049893,中海紫御观邸三期,35,20646,大连中海物业管理有限公司,2.6,辽宁,1,二手房,2013
甘井子区凌秀路37号-1链家地产,大连,无开发商,高新园区,20190712,38.883794285403965,121.52361997548515,海事附小,11,13495,街道办事处（居委会）代管物业,0.5,辽宁,1,二手房,1990
甘井子区凌秀路37号-1链家地产,大连,大连汇基房地产开发有限公司,高新园区,20190712,38.883794285403965,121.52361997548515,学仕名府,18,20009,大连意美物业服务有限公司,2.4,辽宁,1,二手房,2014
大连市甘井子区逸林南园1-1号,大连,暂无信息,甘井子,20190712,38.95800216293212,121.53151895549547,三鼎春天B区,43,28280,瑞联德（大连）物业管理有限公司,3.2,辽宁,1,二手房,2015
中山区中南路226号,大连,大连华钧房地产开发有限公司,中山,20190712,38.90029610333926,121.68178899957817,半山花园,6,12577,大连仁和物业管理有限公司,0.7,辽宁,1,二手房,2000
无门店信息,大连,大连辽渔建设集团有限公司,甘井子,20190712,34.52713835999158,118.76812980670795,宇圣明珠,5,11245,大连辽渔物业管理有限公司,0.8,辽宁,1,二手房,2013
开发区金马路169-2-6号房屋,大连,大连亿锋集团有限公司,开发区,20190712,39.057398235688176,121.78261137849105,铜锣湾,39,10737,亿锋豪景物业管理有限公司,1.2,辽宁,1,二手房,2004
西岗区平等街21号1层2号,大连,大连吉嘉置业有限公司,西岗,20190712,38.92251066253164,121.63236845125735,锦华银座,12,20649,大连吉嘉物业管理有限公司,5,辽宁,1,二手房,2003
红星海A区126-4,大连,大连光伸房地产开发有限公司,开发区,20190712,39.027851194371685,121.80327394132297,绿洲半岛三期,42,10134,大连经济技术开发区光伸物业服务有限公司,0.6,辽宁,1,二手房,2001
甘井子区红凌路109号,大连,无开发商,甘井子,20190712,38.923388478439314,121.54860212120927,红凌小区,6,9527,无物业管理服务,-,辽宁,1,二手房,1995
大连市高新园区七贤中路63号,大连,大连全统房地产开发有限公司,高新园区,20190712,38.86053006357667,121.53273606963094,君海阁,20,18702,大连城建开发集团物业管理有限公司,2.2,辽宁,1,二手房,2012
沙河口区西南路358号1—2号,大连,大连弘晟房地产开发有限公司,沙河口,20190712,38.90839654326566,121.56908246905662,明月山庄,19,15094,大连衡德物业管理有限公司,0.6,辽宁,1,二手房,2003
甘井子区华北路花锦园28号23-3-1-2建筑物,大连,无开发商,甘井子,20190712,38.951627958411166,121.5739439799003,华北路（周水子商圈）,12,15810,无物业管理服务,-,辽宁,1,二手房,1990
西岗区绕山路31号公建一层东侧,大连,无开发商,西岗,20190712,38.90257514466717,121.61412736644739,彩云路,10,9732,无物业管理服务,-,辽宁,1,二手房,1990
中山区三八广场5号,大连,大连新型房地产开发总公司,中山,20190712,38.92540000551715,121.6642911149562,二七公寓,11,19667,大连新型物业管理有限公司,0.8,辽宁,1,二手房,1999
甘井子区海口路77—5号,大连,暂无信息,甘井子,20190712,38.960286398428124,121.60305183172997,八十中汉德花园,16,14941,街道办事处（居委会）代管物业,0.3,辽宁,1,二手房,2000
无门店信息,大连,大连宝泰华置业发展有限公司,金州,20190712,34.52713835999158,118.76812980670795,海天富地,38,12750,大连戴德梁行物业管理有限公司,1.6,辽宁,1,二手房,2012
甘井子区山东路商业街D区12号公建,大连,大连市大钢集团,甘井子,20190712,39.001060021502965,121.58883960371418,梅山路,10,12638,街道办事处（居委会）代管物业,0.1,辽宁,1,二手房,1981
大连市甘井子区钻石湾和信园13-5,大连,远洋地产有限公司,甘井子,20190712,38.958699272665584,121.61903564217761,远洋钻石湾一期,84,24456,大连远洋基业物业管理有限公司,2.7,辽宁,1,二手房,2010
中山区北斗街53号1层1号,大连,无开发商,中山,20190712,38.92727355733075,121.67002970974048,北斗街（二七商圈）,6,13883,无物业管理服务,-,辽宁,1,二手房,1990
西岗区绕山路31号公建一层东侧,大连,远洋地产有限公司,沙河口,20190712,38.90257514466717,121.61412736644739,莲花小区,32,11609,无物业管理服务,-,辽宁,1,二手房,1996
无门店信息,大连,大华集团大连置业有限公司,高新园区,20190712,34.52713835999158,118.76812980670795,大华锦绣华城三期,45,22984,大连大华物业管理有限公司,2.5,辽宁,1,二手房,2012
无门店信息,大连,无开发商,金州,20190712,34.52713835999158,118.76812980670795,伟桥嘉园,6,7776,无物业管理服务,0.5,辽宁,1,二手房,2008
西岗区八一路102号,大连,无开发商,西岗,20190712,38.92047268927287,121.61862512554262,河沿巷,13,11662,无物业管理服务,-,辽宁,1,二手房,1990
开发区松苑街23号,大连,大连众益神州地产开发有限公司,开发区,20190712,22.52087435807652,113.40156105086167,松海庄园二期,13,13136,大连万达物业管理有限公司,0.5,辽宁,1,二手房,2000
开发区东北三街94号1层,大连,开发区城建局,开发区,20190712,39.05723508011585,121.80570768630555,倚园里小区,59,7606,大连佳兴物业管理有限公司,0.3,辽宁,1,二手房,1998
中山区中南路店212号门头房,大连,无开发商,中山,20190712,38.91149759691359,121.67700561077149,转山小区,18,12922,大连怡和物业服务有限公司,0.3,辽宁,1,二手房,1990
沙河口区西南路40号楼,大连,亿达集团大连房地产开发有限公司,沙河口,20190712,38.94143337232082,121.58616557598133,亿达海月公寓,12,16380,大连华艺物业管理有限公司,0.5,辽宁,1,二手房,1999
中山区华乐街107-115号,大连,大连华旭置业有限公司,中山,20190712,38.92093821499401,121.68879267531725,东港第,29,34831,大连华锐世纪物业管理有限公司,3,辽宁,1,二手房,2014
中山区碧浪园4号-3号,大连,大连三寰房地产开发有限公司,中山,20190712,38.89147289460474,121.69329560326236,碧浪园三期,14,16517,大连峰霖物业管理有限公司,0.3,辽宁,1,二手房,2003
高新园区红凌路732-4号,大连,大华集团大连置业有限公司,高新园区,20190712,38.90204708664442,121.53244406374695,大华锦绣华城一期,55,24769,大连大华物业管理有限公司,2.5,辽宁,1,二手房,2010
无门店信息,大连,大连鼎丰利华置业有限公司,金州,20190712,34.52713835999158,118.76812980670795,保亿丽景山,42,10738,保亿物业尊荣管家,1.8,辽宁,1,二手房,2013
中山区同心街72号1楼公建,大连,无开发商,中山,20190712,38.91979245940674,121.64769198230202,万家巷（昆明街）,13,16688,无物业管理服务,-,辽宁,1,二手房,1980
中山区解放路471-22号,大连,大连长策房屋开发有限公司,西岗,20190712,38.901309943567504,121.65419095766659,捷山观海,8,19628,大连鑫晟物业管理有限公司,2,辽宁,1,二手房,2008
甘井子区芳韵街31号,大连,亿达集团大连房地产开发有限公司,甘井子,20190712,38.95628814568166,121.59125586946814,亿达世纪城,58,24489,亿达物业管理有限公司,0.9,辽宁,1,二手房,2002
沙河口区五四路207-1-9号,大连,无开发商,沙河口,20190712,38.913544290955585,121.59450670056631,集贤街,14,14060,无物业管理服务,-,辽宁,1,二手房,1990
西岗区新田巷27号1-2,大连,无开发商,西岗,20190712,38.893215932589385,121.64103065169111,新联巷,4,11604,无物业管理服务,-,辽宁,1,二手房,1996
甘井子区锦城西园4#3-1-1,大连,大连锦绣房地产开发有限公司,甘井子,20190712,38.95286223185571,121.55129044777,锦城西园,25,19164,大连锦绣锦城园物业,0.6,辽宁,1,二手房,2006
中山区武昌街武昌公寓6号公建,大连,无开发商,中山,20190712,38.912280913445784,121.64921130527547,观象街（南山商圈）,11,21286,无物业管理服务,-,辽宁,1,二手房,1990
高新园区海苑街36号1单元2号公建,大连,大连海苑房屋开发有限公司,高新园区,20190712,20.06392317589085,110.32302599457326,海苑花园,22,14568,大连家园物业有限公司,0.3,辽宁,1,二手房,1998
无门店信息,大连,大连中瀛房地产开发有限公司,旅顺口,20190712,34.52713835999158,118.76812980670795,中瀛臻堡,43,9734,大连中瀛物业管理服务有限公司,1,辽宁,1,二手房,2005
高新园区书香街1A#1-1-2,大连,大连金弘基房地产开发有限公司,高新园区,20190712,38.880372108393104,121.55218773010999,弘基一期,26,20501,大连金弘基物业管理有限公司,0.6,辽宁,1,二手房,2000
开发区黄海西路201号107公建,大连,开发区城建局,开发区,20190712,39.04942604506828,121.80126318235419,开.东山小区,50,7378,大连友谊物业服务有限公司,0.5,辽宁,1,二手房,1990
甘井子区惠泽南园3-7号,大连,大连长鹭房屋开发有限公司,甘井子,20190712,38.939326611323615,121.52337842113351,长鹭悦湖,9,20004,大连旺宇物业有限公司,1.9,辽宁,1,二手房,2014
