address,city,developer,district,index_date,lat,lng,name,osv,price,property,property_fee,province,tv,type,year
甘井子区宜居园10-1号房屋,大连,大连万科房地产开发有限公司,甘井子,20190608,38.99913094587405,121.52084969112292,万科魅力之城,202,14645,大连万科物业服务有限公司,1.5,辽宁,40,二手房,2012
沙河口区沙能街101号1单元1层1号,大连,大连新型房地产开发有限公司,沙河口,20190608,38.9366316275348,121.59031205759763,侯二小区,179,11129,街道办事处（居委会）代管物业,0.1,辽宁,39,二手房,1985
大连经济技术开发区东城天下98-14,大连,大连乾豪集团有限公司,开发区,20190608,39.069195091289004,121.8502099927954,东城天下,348,8752,大连远洋基业物业管理有限公司,0.9,辽宁,46,二手房,2005
大连开发区金马路169-2-8号,大连,大连亿锋房地产实业有限公司,开发区,20190608,39.057398235688176,121.78261137849105,亿锋现代城,159,10136,亿锋豪景物业管理有限公司,1.1,辽宁,28,二手房,2006
开发区湾里南12栋-16-17-18号,大连,大连金湾实业有限公司,开发区,20190608,39.070782084451,121.8506739675913,湾里南小区,374,8744,大连金湾物业管理有限公司,0.3,辽宁,36,二手房,2003
甘井子区榆林街37号-12公建,大连,大连新型房地产开发有限公司,甘井子,20190608,38.980133141940186,121.52779506952932,泡崖美林园,255,11604,大连新型物业管理有限公司,0.6,辽宁,64,二手房,2003
甘井子区玉湖街25号2单元1层3号,大连,大连新型房地产开发有限公司,甘井子,20190608,38.97626265183615,121.54617349027997,泡崖四区,169,10648,大连新型物业管理有限公司,0.5,辽宁,26,二手房,2002
沙河口区华新苑10号楼4号公建,大连,大连新型房地产开发有限公司,沙河口,20190608,38.94033750532864,121.58990295130229,侯一小区,142,11324,大连新兴物业管理有限公司,0.3,辽宁,30,二手房,1989
沙河口区昌黎街22号,大连,大连城市建设集团有限公司,沙河口,20190608,38.91975785098891,121.59109628369768,北昌平小区,134,12872,无物业管理服务,-,辽宁,27,二手房,1983
开发区正恒园1-16,大连,大连华宇房地产开发有限公司,开发区,20190608,39.04823944344617,121.76165468797754,左岸经典,255,9016,大连豪之英物业管理有限公司,1.8,辽宁,26,二手房,2009
甘井子区泉水D1区37-7号,大连,大连运腾房地产开发有限公司,甘井子,20190608,39.013992871679214,121.61921940045104,锦泉源D2区,226,13209,大连嘉毅物业管理有限公司,0.5,辽宁,27,二手房,2005
大连经济技术开发区时代城4-3号1-2号,大连,远洋地产有限公司,开发区,20190608,39.0992481321252,121.83007860699459,远洋时代城一期,172,9325,大连远洋基业物业管理有限公司,1.5,辽宁,28,二手房,2012
开发区湾里南12栋-16-17-18号,大连,大连金湾实业有限公司,开发区,20190608,39.070782084451,121.8506739675913,湾里东,197,8156,大连金湾物业管理有限公司,0.5,辽宁,28,二手房,2004
甘井子区静林街34号4单元1层2,大连,大连祥盛房屋开发有限公司,甘井子,20190608,38.98321485010885,121.58185179833856,千山心城,123,14577,大连百特物业管理有限公司,0.5,辽宁,22,二手房,2003
甘井子区祥溢园4号1单元1层9号公建,大连,大连长鹭房屋开发有限公司,甘井子,20190608,38.92981664067587,121.54940314023253,亲亲家园,68,15377,渤海吉祥物业管理有限公司,0.5,辽宁,23,二手房,2004
沙河口区富民路120号4-1-1,大连,大连渤海红旗集团有限公司,沙河口,20190608,38.930937859528605,121.5647274237578,马栏小学北,91,10588,街道办事处（居委会）代管物业,0.2,辽宁,24,二手房,1994
甘井子区华北路花锦园28号23-3-1-2建筑物,大连,大连东特房地产开发有限公司,甘井子,20190608,38.951627958411166,121.5739439799003,东特新天地,50,16530,大连瑞祥物业管理有限公司,0.5,辽宁,19,二手房,2003
沙河口区五一路177-1-1-1,大连,无开发商,沙河口,20190608,38.913544290955585,121.59450670056631,台山,88,11776,街道办事处（居委会）代管物业,0.5,辽宁,20,二手房,1987
甘井子区红旗花园23号楼19-24轴公建,大连,大连红旗兴达房地产开发有限公司,甘井子,20190608,38.93108029984587,121.54902145022133,兴达花园,86,12802,大连万泰物业管理有限公司,0.3,辽宁,20,二手房,2000
金州新区先进街道渤海街7-4号1-2层、7-3号1-2层,大连,原金州纺织厂房地产公司,金州,20190608,39.09342713035472,121.74590886291374,金纺小区,179,6895,街道办事处（居委会）代管物业,0.5,辽宁,20,二手房,1985
甘井子区祥龙街2号楼1单元1楼1号,大连,大连恒新房地产开发有限公司,甘井子,20190608,38.988045874482445,121.60439401971377,华东人家,39,14405,大连福佳物业管理有限公司,1,辽宁,20,二手房,2007
金州区鹏程家园53#-8,大连,大连光伸房地产开发有限公司,开发区,20190608,39.03523987258615,121.80826248065051,绿洲半岛北岸,127,9292,大连经济技术开发区光伸物业服务有限公司,1.2,辽宁,21,二手房,2007
沙河口区马栏北街186号,大连,大连渤海红旗集团有限公司,甘井子,20190608,38.913544290955585,121.59450670056631,马栏北街,40,11381,大连辽南物业管理有限公司,0.2,辽宁,20,二手房,1993
开发区兴城路29-81层,大连,大连亿锋房地产实业有限公司,开发区,20190608,39.050214252167194,121.75835946441768,亿锋广场一期,79,14632,大连广恒物业管理有限公司,2.5,辽宁,21,二手房,2013
甘井子区玉丽街2号楼1单元4号公建,大连,大连新型房地产开发总公司,甘井子,20190608,38.98705071699301,121.55513043130172,泡崖康顺园,134,11178,大连新兴物业管理有限公司,0.5,辽宁,21,二手房,2007
甘井子区泡崖六小区6号楼1单元1层2号,大连,大连新型房地产开发有限公司,甘井子,20190608,38.98033159306754,121.55920598894072,泡崖五区,82,11390,大连新兴物业管理有限公司,0.5,辽宁,22,二手房,1990
沙河口区新生路万客园3-7,大连,大连绿波房屋开发集团有限公司,沙河口,20190608,38.94412875710208,121.57006756704837,绿波小区,144,10999,大连绿波建设发展有限公司,0.2,辽宁,22,二手房,1998
甘井子区宜居园10-1号房屋,大连,大连万科房地产开发有限公司,甘井子,20190608,38.99913094587405,121.52084969112292,万科朗润园,105,15030,大连万科物业服务有限公司,1.5,辽宁,25,二手房,2010
金州区金润花园B区47号1单元1层1号2号,大连,大连辽大房地产开发有限公司,金州,20190608,39.10434716151341,121.74517862677146,金润小区B区,190,8370,大连新兴物业管理有限公司,0.4,辽宁,25,二手房,2005
西岗区香炉礁24号1-1,大连,无开发商,西岗,20190608,38.92047268927287,121.61862512554262,香炉礁,192,11042,街道办事处（居委会）代管物业,0.1,辽宁,19,二手房,1979
大连市甘井子区柳林园8-7号,大连,大连万科置业有限公司,甘井子,20190608,38.91290525308349,121.47673750074993,万科溪之谷,202,14571,大连万科物业服务有限公司,0.6,辽宁,26,二手房,2007
无门店信息,大连,无开发商,甘井子,20190608,34.52713835999158,118.76812980670795,石油六闾,65,9327,街道办事处（居委会）代管物业,0.5,辽宁,19,二手房,1989
开发区东北三街94号1层,大连,大连欣达房地产开发有限公司,开发区,20190608,39.05723508011585,121.80570768630555,倚山里小区,229,7479,大连经济技术开发区聚盛达物业管理有限公司,0.2,辽宁,19,二手房,1996
大连市金州区站前街道生辉第一城14-3号1-2层,大连,大连新希望家园房地产有限公司,金州,20190608,39.0569681786798,121.74773530665969,新希望家园,197,8772,大连新希望物业服务有限公司,1.2,辽宁,19,二手房,2009
沙河口区西南路643号,大连,无开发商,沙河口,20190608,38.943483429804665,121.5833555851182,交通大学,73,12804,无物业管理服务,-,辽宁,19,二手房,1955
大连市甘井子中华路街道汇畅街48号,大连,远洋地产有限公司,甘井子,20190608,39.0059299196697,121.59621871231741,远洋荣域,155,18769,远洋亿家物业服务股份有限公司大连分公司,2.8,辽宁,17,二手房,2016
天河路173-2号 华润考拉22号公建,大连,华润置地（大连）开发有限公司,甘井子,20190608,23.14720645345518,113.3277414923158,华润考拉住区,89,15472,华润物业（大连）有限公司,2.5,辽宁,17,二手房,2015
沙河口区恒利园42号-8,大连,大连新华房屋开发有限公司,沙河口,20190608,38.93357562498634,121.57914091532649,新华同仁轩,42,17714,大连新华物业管理有限公司,0.6,辽宁,14,二手房,2000
沙河口区长江路946号-9,大连,大连机车商业城有限公司,沙河口,20190608,38.913544290955585,121.59450670056631,兴工街,70,13185,街道办事处（居委会）代管物业,0.2,辽宁,14,二手房,1985
甘井子区千山路26号,大连,大连市大钢集团,甘井子,20190608,38.985697948031984,121.58768860037272,山东路,86,12669,街道办事处（居委会）代管物业,0.2,辽宁,14,二手房,1986
大连市开发区左岸经典正恒园1-17,大连,大连神洲众益集团有限公司,开发区,20190608,39.049057070649155,121.76187404250511,万国宫馆一期,124,13132,加拿大高力国际物业服务有限公司,2.4,辽宁,14,二手房,2009
无门店信息,大连,大连航逸房地产开发有限公司,甘井子,20190608,34.52713835999158,118.76812980670795,中航华府,46,15212,中航物业管理有限公司大连分公司,2.5,辽宁,14,二手房,2016
沙河口区前程街46号4—1—2号,大连,大连银地置业发展有限公司,沙河口,20190608,38.913544290955585,121.59450670056631,观山满庭芳,95,17920,大连新展物业管理有限公司,1,辽宁,15,二手房,2008
开发区安盛里5栋-4,大连,大连盛铭资产管理有限公司,开发区,20190608,23.112106678834838,113.27801046214822,安盛花园,75,9311,大连经济技术开发区海青物业有限公司,1.1,辽宁,14,二手房,2003
甘井子区泉水D6区51号,大连,大连锦丰和源祥房地产开发有限公司,甘井子,20190608,39.00897610161069,121.61789300655198,泉水家年华,104,13695,街道办事处（居委会）代管物业,0.9,辽宁,15,二手房,2009
开发区润海园中区30-1,大连,华润（大连）房地产有限公司,开发区,20190608,39.04047273176333,121.76392358042445,华润海中国三期,164,14383,华润物业（大连）有限公司,3.1,辽宁,15,二手房,2011
金州区金润小区B区861单元102,大连,大连辽大房地产开发有限公司,金州,20190608,39.10615165380565,121.74639264534615,金润小区A区,151,8618,大连新兴物业管理有限公司,0.4,辽宁,15,二手房,2005
开发区润海园中区62-9,大连,华润（大连）房地产有限公司,开发区,20190608,39.04047273176333,121.76392358042445,华润海中国四期,119,14074,华润物业（大连）有限公司,3.1,辽宁,15,二手房,2014
沙河口区红凌路137号,大连,大连大实企业集团房屋开发有限公司,甘井子,20190608,38.922699288974506,121.54713601744747,叠翠山庄,37,11113,大连弘实物业管理有限公司,0.4,辽宁,15,二手房,2000
甘井子区红凌路109号,大连,大连锦联地产集团有限公司,甘井子,20190608,38.923388478439314,121.54860212120927,锦绣暖山,70,15298,大连锦明物业服务有限公司,1.2,辽宁,15,二手房,2007
大连市甘井子区七贤路8-3号,大连,大连万达商业地产有限公司,高新园区,20190608,38.86602612116956,121.53842265737707,万达海景公寓,124,11933,大连万达物业管理有限公司,2.9,辽宁,15,二手房,2013
沙河口区华北路448号楼1-4公建,大连,无开发商,沙河口,20190608,38.903224944733765,121.56809734950556,刘家桥,96,10838,街道办事处（居委会）代管物业,0.1,辽宁,16,二手房,1981
甘井子区汇仁街22号,大连,远洋地产有限公司,甘井子,20190608,38.99712640764999,121.58834420439493,远洋广场,183,17473,大连远洋基业物业管理有限公司,1.4,辽宁,16,二手房,2010
经济技术开发区城润万家62-8公建,大连,大连海汇房地产开发有限公司,开发区,20190608,39.06883436780937,117.72669530355309,城润万家,114,9543,大连正源物业服务有限公司,0.5,辽宁,16,二手房,2007
沙河口区数码路北段18—20号,大连,大连软景房地产开发有限公司,高新园区,20190608,38.892000603999115,121.5494486394066,软景E居,93,27371,亿达物业管理有限公司,2.6,辽宁,16,二手房,2011
甘井子区中华路泉水A1区86号4单元1层1号,大连,大连运泽房地产开发有限公司,甘井子,20190608,39.0040531092963,121.60742125620513,润泽园,91,16780,大连城建开发集团物业管理有限公司,1.4,辽宁,16,二手房,2012
甘井子区甘井子街3号公建,大连,无开发商,甘井子,20190608,38.982086281836246,121.63426694995971,文体街,134,10311,街道办事处（居委会）代管物业,0.1,辽宁,14,二手房,1985
甘井子区玉丽街2号楼1单元4号公建,大连,大连新型房地产开发有限公司,甘井子,20190608,38.98705071699301,121.55513043130172,泡崖七区,123,10916,大连新兴物业管理有限公司,0.3,辽宁,16,二手房,1999
无门店信息,大连,大连一方生态城房地产开发有限公司,开发区,20190608,34.52713835999158,118.76812980670795,一方天鹅湖,200,8103,大连一方物业管理有限公司,1.9,辽宁,18,二手房,2010
沙河口区南沙街36号台二2号1-1-37,大连,无开发商,沙河口,20190608,38.90741410359388,121.57685699961822,南沙,82,11316,无物业管理服务,1,辽宁,13,二手房,1995
甘井子区泉水D6区51号,大连,大连锦丰和源祥房地产开发有限公司,甘井子,20190608,39.00897610161069,121.61789300655198,泉水人家幸福里,131,13936,大连泽霖物业管理有限公司,0.9,辽宁,11,二手房,2009
甘井子区泉水A2区10-3号,大连,源祥房地产开发有限公司,甘井子,20190608,39.00419463553784,121.61128690376383,美域盛景,145,12911,大连新华物业管理有限公司,0.8,辽宁,11,二手房,2008
开发区润海园中区30-1,大连,暂无信息,开发区,20190608,39.04047273176333,121.76392358042445,华润海中国七期,63,16265,华润物业（大连）有限公司开发区分公司,3.1,辽宁,11,二手房,2016
西岗区平等街21号1层2号,大连,无开发商,西岗,20190608,38.92251066253164,121.63236845125735,实验小学同庆街,83,22691,无物业管理服务,-,辽宁,12,二手房,1990
大连经济技术开发区东城天下98-14,大连,大连富远房地产开发有限公司,开发区,20190608,39.069195091289004,121.8502099927954,一河两公园,65,10143,大连锦明物业服务有限公司,1.7,辽宁,11,二手房,2016
大连市开发区左岸经典正恒园1-17,大连,大连神洲众益集团有限公司,开发区,20190608,39.049057070649155,121.76187404250511,万国宫馆二期,124,14134,加拿大高力国际物业服务有限公司,2.4,辽宁,12,二手房,2009
沙河口区富静街26号1单元1层5号,大连,大连正源房地产开发有限公司,沙河口,20190608,38.908727606250466,121.58667844684369,幸福e家五期,188,37811,大连正源物业服务有限公司,1.8,辽宁,12,二手房,2008
大连市开发区左岸经典正恒园1-17,大连,大连众益神州地产开发有限公司,开发区,20190608,39.049057070649155,121.76187404250511,万国宫馆三期,114,14321,大连万佳物业管理有限公司,2,辽宁,12,二手房,2011
大连经济技术开发区时代城4-3号1-2号,大连,远洋地产有限公司,开发区,20190608,39.0992481321252,121.83007860699459,远洋时代城三期,87,8712,大连远洋基业物业管理有限公司,1.5,辽宁,12,二手房,2012
大连市开发区湾里东5-6号,大连,大连宏港房地产开发有限公司,开发区,20190608,39.07275772231556,121.85888789351343,都悦里,211,6846,大连宏港物业管理有限公司,0.3,辽宁,12,二手房,1992
金州新区先进街道渤海街7-4号1-2层、7-3号1-2层,大连,大连九鼎置地有限公司,金州,20190608,39.09342713035472,121.74590886291374,万科城,80,11147,大连万科物业服务有限公司,2.2,辽宁,12,二手房,2015
沙河口区敦煌路357号10-11轴公建,大连,无开发商,沙河口,20190608,38.93891619583455,121.59150694046835,车家村,36,10492,街道办事处（居委会）代管物业,0.5,辽宁,12,二手房,1989
甘井子区泉水H3区15号3单元1层2号,大连,大连新型房地产开发有限公司,甘井子,20190608,39.00158439075201,121.62616882572375,龙畔金泉四期,70,13072,大连新型物业管理有限公司,0.4,辽宁,12,二手房,2005
沙河口区五一路219-1,大连,大连亿达房地产股份有限公司,沙河口,20190608,38.913544290955585,121.59450670056631,桃山小区,77,9846,街道办事处（居委会）代管物业,0.5,辽宁,12,二手房,1998
沙河口区联合路133号,大连,无开发商,沙河口,20190608,38.91608561262676,121.60480987310456,79中永平,97,26911,无物业管理服务,-,辽宁,12,二手房,1994
开发区松苑街23号,大连,大连盛和房地产开发有限公司,开发区,20190608,22.52087435807652,113.40156105086167,北欧假日,128,12001,大连鸿达物业管理有限公司,1.1,辽宁,12,二手房,2005
甘井子金地艺境博艺西园2-1号,大连,大连恒昇房地产开发有限公司,甘井子,20190608,39.04402110608829,121.665484498555,福佳新城一期,64,9191,暂无信息,0.9,辽宁,12,二手房,2010
金州新区站前街道生辉第一城5号楼1-2层4号,大连,大连新希望家园房地产有限公司,金州,20190608,39.05819721414208,121.74650438736514,新希望乐城,64,10251,大连新希望物业服务有限公司,1.6,辽宁,12,二手房,2013
开发区黄海西路54号,大连,开发区城建局,开发区,20190608,39.047714586087785,121.76688238228269,青松北里,55,8416,大连经济技术开发区中强物业管理有限公司,0.2,辽宁,13,二手房,1996
无门店信息,大连,大连万德房地产集团有限公司,开发区,20190608,34.52713835999158,118.76812980670795,万德悦城,109,8321,大连万德物业管理有限公司,1.5,辽宁,10,二手房,2010
西岗区香炉礁24号1-1,大连,无开发商,西岗,20190608,38.92047268927287,121.61862512554262,工人村,54,10449,街道办事处（居委会）代管物业,0.5,辽宁,10,二手房,1980
开发区润海园中区30-1,大连,华润置地（大连）开发有限公司,开发区,20190608,39.04047273176333,121.76392358042445,华润海中国一期,151,16198,华润物业（大连）有限公司,1.8,辽宁,10,二手房,2009
中山区华乐街107-115号,大连,大连海昌房地产开发有限公司,中山,20190608,38.92093821499401,121.68879267531725,海昌欣城,96,17186,大连海昌欣城物业管理有限公司,1.2,辽宁,10,二手房,2002
沙河口区南沙街36号台二2号1-1-37,大连,大连康加立置业有限公司,沙河口,20190608,38.90741410359388,121.57685699961822,台四小区,38,13110,大连弘达物业管理有限公司,-,辽宁,10,二手房,1996
甘井子区千山路26号,大连,大连嘉兴房地产开发有限公司,甘井子,20190608,38.985697948031984,121.58768860037272,千山路,81,12119,无物业管理服务,0.5,辽宁,10,二手房,1989
无门店信息,大连,大连乐启房地产开发有限公司,甘井子,20190608,34.52713835999158,118.76812980670795,三寰融创城南园,71,13040,融创物业,2.2,辽宁,10,二手房,2015
无门店信息,大连,大连益宁房地产开发有限公司,开发区,20190608,34.52713835999158,118.76812980670795,岭湾峰尚二期,82,9853,大连鸿达物业管理有限公司,0.6,辽宁,10,二手房,2010
金州新区润海园中区18#2号,大连,华润置地（大连）有限公司,开发区,20190608,39.04047273176333,121.76392358042445,华润海中国二期,159,14210,华润物业（大连）有限公司,2.8,辽宁,10,二手房,2011
开发区红梅小区19栋-2-1-1号,大连,香港北海集团,开发区,20190608,29.906498897603264,121.5913630631805,君悦豪庭,66,11706,街道办事处（居委会）代管物业,1.2,辽宁,10,二手房,2004
沙河口区锦石路8号,大连,大连锦绣房地产开发有限公司,沙河口,20190608,38.94771288948481,121.56110903658733,锦泉南园,50,11442,大连锦绣物业管理有限公司,0.3,辽宁,10,二手房,1996
金州区金润小区B区861单元102,大连,大连中连房地产开发有限公司,金州,20190608,39.10615165380565,121.74639264534615,自然天城B区,70,7293,大连新生活物业管理有限公司,0.4,辽宁,10,二手房,2010
沙河口区黑石礁街3号1层1-1号,大连,无开发商,沙河口,20190608,38.880058010307856,121.56313403908827,浪花街,41,11752,无物业管理服务,-,辽宁,10,二手房,1991
开发区安盛里5栋-4,大连,大连汽贸房屋开发有限公司,开发区,20190608,23.112106678834838,113.27801046214822,东北明珠,62,12335,大连汽贸物业管理有限公司,1.5,辽宁,10,二手房,2007
金州区金润小区B区861单元102,大连,大连新型房地产开发有限公司,金州,20190608,39.10615165380565,121.74639264534615,糖果小区,73,9013,大连新兴物业管理有限公司,0.5,辽宁,10,二手房,2011
开发区安盛里5栋-4,大连,大连开建集团有限公司,开发区,20190608,23.112106678834838,113.27801046214822,开建阳光馨苑,97,9512,大连开利物业管理有限公司,1.2,辽宁,11,二手房,2009
沙河口区星海广场B3区20—3号,大连,大连飞通房地产开发有限公司,沙河口,20190608,38.88782715536473,121.5869168319735,东方星海,123,17879,大连兆恒物业管理有限公司,2.9,辽宁,10,二手房,2009
无门店信息,大连,大连环宇置业有限公司,开发区,20190608,34.52713835999158,118.76812980670795,环宇品阁,84,6208,大连环宇物业管理有限公司,1.5,辽宁,10,二手房,2010
甘井子区柳树南街45-10号,大连,大连都源置业有限公司,甘井子,20190608,38.92567666296449,121.4841330254372,依云溪谷,61,14998,大连远洋物业管理有限公司,1.2,辽宁,11,二手房,2008
沙河口区富民路120号4-1-1,大连,大连渤海红旗集团有限公司,沙河口,20190608,38.930937859528605,121.5647274237578,马栏小学南,63,11202,大连辽南物业管理有限公司,0.2,辽宁,11,二手房,1995
沙河口区黄浦路18号—5号公建,大连,无开发商,高新园区,20190608,38.8771225143479,121.54427480390662,凌源街,28,13514,大连凌电物业管理有限公司,0.1,辽宁,11,二手房,1981
开发区红星海-B区89-1号,大连,远洋地产有限公司,开发区,20190608,39.027851194371685,121.80327394132297,红星海五期青屿蓝,217,14898,大连远洋基业物业管理有限公司,2.2,辽宁,11,二手房,2012
沙河口区西南路161号,大连,无开发商,沙河口,20190608,38.89269676588945,121.56639953951542,孙家沟,84,12329,无物业管理服务,-,辽宁,9,二手房,1990
中山区益民街16号1层1号,大连,大连恒力德实业开发有限公司,中山,20190608,38.93092761298906,121.66470740073377,港湾壹号,75,14156,大连日航酒店物业管理有限公司,3.8,辽宁,11,二手房,2009
沙河口区前程街46号4—1—2号,大连,大连渤海红旗集团有限公司,甘井子,20190608,38.913544290955585,121.59450670056631,前程街,43,12013,渤海吉祥物业管理有限公司,0.4,辽宁,9,二手房,2000
莲花山路89-3号,大连,大连胜利路拓宽改造工程建设有限公司,沙河口,20190608,38.902848261803356,121.6041720815823,星海融汇,105,21588,大连星海湾商务区物业管理有限公司,1.5,辽宁,9,二手房,2014
甘井子区千山路26号,大连,大连市大钢集团,甘井子,20190608,38.985697948031984,121.58768860037272,华中街,31,12993,街道办事处（居委会）代管物业,0.1,辽宁,9,二手房,1986
无门店信息,大连,大连聚达房地产开发有限公司,旅顺口,20190608,34.52713835999158,118.76812980670795,海尚明珠,158,9831,大连合生物业管理有限公司,1.5,辽宁,9,二手房,2012
无门店信息,大连,大连万科房地产开发有限公司,旅顺口,20190608,34.52713835999158,118.76812980670795,万科樱花园三期,35,12874,大连万科物业服务有限公司,2.4,辽宁,9,二手房,2014
沙河口区绿清街12号,大连,大连绿波房屋开发集团有限公司,沙河口,20190608,38.93851335419565,121.57334844377094,绿波花园,31,13609,大连绿波建设发展有限公司,0.6,辽宁,9,二手房,2001
甘井子区哲林北园17-6号,大连,大连亿达美加房地产开发有限公司,甘井子,20190608,38.9600267109581,121.53876726228256,第五郡三号地,65,29224,亿达物业管理有限公司,2.2,辽宁,9,二手房,2012
大连市甘井子区辛如街35号1单元1层1号,大连,大连新星房地产开发有限公司,甘井子,20190608,38.96862607066881,121.52294869064194,新星绿城五期,67,14004,大连生生物业有限公司,0.8,辽宁,9,二手房,2009
中山区华乐街107-115号,大连,大连华顺房地产开发公司,中山,20190608,38.92093821499401,121.68879267531725,海景园,78,15905,大连华富物业管理有限公司,0.3,辽宁,9,二手房,1997
西岗区黄河路90号公建部分,大连,大连鼎森房地产开发有限公司,西岗,20190608,38.92234529815978,121.62829331825485,金宸国际,48,17962,英联华（香港）物业管理顾问有限公司,2.2,辽宁,9,二手房,2004
大连市甘井子区椒房街24号楼2-104链家地产,大连,无开发商,甘井子,20190608,38.985363789837166,121.61034055597686,椒房,91,14102,无物业管理服务,0.5,辽宁,9,二手房,1985
甘井子区泡崖六小区6号楼1单元1层2号,大连,大连新型房地产开发有限公司,甘井子,20190608,38.98033159306754,121.55920598894072,泡崖六区,39,11712,大连新兴物业管理有限公司,0.3,辽宁,9,二手房,1999
甘井子区红南东街7-7号,大连,大连均卫达房地产开发有限公司,甘井子,20190608,38.92880462247992,121.54144910207062,亲亲阳光,11,13031,大连万泰物业管理有限公司,0.5,辽宁,9,二手房,2004
中山区清溪南街11号,大连,无开发商,中山,20190608,38.88919604283904,121.66466481004835,秀月小区,36,16877,无物业管理服务,0.5,辽宁,9,二手房,1982
沙河口区锦石路8号,大连,大连锦绣房地产开发有限公司,沙河口,20190608,38.94771288948481,121.56110903658733,锦云中园,62,10637,大连锦绣物业管理有限公司,0.3,辽宁,9,二手房,1996
甘井子区新兴路36号3-1-3,大连,大连新型房地产开发有限公司,甘井子,20190608,38.95800216293212,121.53151895549547,泡崖一区,104,10693,大连新兴物业管理有限公司,0.5,辽宁,9,二手房,1992
沙河口区兰田街33号,大连,无开发商,沙河口,20190608,38.926138912221084,121.56486022834609,辽师,45,12217,无物业管理服务,-,辽宁,9,二手房,1970
金州新区站前街道生辉第一城5号楼1-2层4号,大连,大连公路工程集团生辉房地产开发有限公司,金州,20190608,39.05819721414208,121.74650438736514,生辉第一城,130,10953,大连生辉物业管理有限公司,1.2,辽宁,8,二手房,2007
甘井子区惠泽南园3-4号,大连,大连鹏德房屋开发有限公司,甘井子,20190608,38.939326611323615,121.52337842113351,西山阳光水岸,49,16936,大连三和住邦物业管理有限公司,1,辽宁,9,二手房,2007
沙河口区西南路643号,大连,无开发商,沙河口,20190608,38.943483429804665,121.5833555851182,西关街,41,11228,无物业管理服务,-,辽宁,8,二手房,1995
沙河口区五一路326号,大连,大连亿达房地产股份有限公司,高新园区,20190608,38.913544290955585,121.59450670056631,亿达学清园,26,22982,大连软件园物业管理有限公司,0.5,辽宁,8,二手房,2001
甘井子区祥龙街2号楼1单元1楼1号,大连,大连美辰房地产开发有限公司,甘井子,20190608,38.988045874482445,121.60439401971377,美辰香醒,48,15565,大连众和物业管理有限公司,1.4,辽宁,8,二手房,2012
甘井子区红旗中路143号1层4号,大连,大连保利红旗房地产开发有限公司,甘井子,20190608,38.93169566676921,121.5426632438217,保利西山林语,86,20566,保利物业服务有限公司,1.5,辽宁,8,二手房,2014
甘井子区红旗西路104-7,大连,大连盛达基业房地产开发有限公司,甘井子,20190608,38.940335495502666,121.52722586363274,依山云水,23,14555,大连盛新物业管理有限公司,0.4,辽宁,8,二手房,2004
沙河口区西南路643号,大连,大连泰安房地产开发有限公司,沙河口,20190608,38.943483429804665,121.5833555851182,幸福小区(沙河口),30,12494,大连三宝物业发展有限公司,0.3,辽宁,8,二手房,1998
沙河口区富国街14号1-1-2,大连,大连永辉房地产开发有限公司,沙河口,20190608,38.901027106600836,121.59047734850638,百年汇,116,18502,大连百年城物业管理有限公司,2.8,辽宁,8,二手房,2007
甘井子区柳树南街45-10号,大连,中体产业集团大连乐百年置业有限公司,甘井子,20190608,38.92567666296449,121.4841330254372,中体奥林匹克花园,71,15083,广东中奥物业有限公司大连分公司,1.9,辽宁,8,二手房,2010
甘井子区山东路商业街D区12号公建,大连,无开发商,甘井子,20190608,39.001060021502965,121.58883960371418,兴华路,54,12463,街道办事处（居委会）代管物业,0.5,辽宁,8,二手房,1989
中山区民运巷 47号1层2号,大连,无开发商,中山,20190608,38.905955122300846,121.64798148011702,民运巷,15,11081,无物业管理服务,-,辽宁,8,二手房,1996
甘井子区华北路花锦园28号23-3-1-2建筑物,大连,大连东特房地产开发有限公司,甘井子,20190608,38.951627958411166,121.5739439799003,东特爱俪舍,41,15916,大连东特祥禾物业管理有限公司,0.6,辽宁,8,二手房,2004
甘井子辛吉街150号-7号,大连,大连新星房地产开发有限公司,甘井子,20190608,38.96368508446978,121.52671221254214,新星帕尔美娜,42,15915,大连生生物业有限公司,1,辽宁,8,二手房,2009
大连市经济技术开发区东城园98-14,大连,大连金湾实业有限公司,开发区,20190608,39.06925526014871,121.8505146710752,裕民新苑,50,8367,大连金湾物业管理有限公司,0.3,辽宁,8,二手房,2006
开发区红梅小区19栋-2-1-1号,大连,无开发商,开发区,20190608,29.906498897603264,121.5913630631805,古耕国际酒店公寓,67,10800,街道办事处（居委会）代管物业,3,辽宁,8,二手房,2010
大连市甘井子区钻石湾和信园13-5,大连,远洋地产有限公司,甘井子,20190608,38.958699272665584,121.61903564217761,远洋钻石湾三期,69,21109,远洋亿家物业服务股份有限公司大连分公司,1.5,辽宁,8,二手房,2014
无门店信息,大连,无开发商,甘井子,20190608,34.52713835999158,118.76812980670795,五二三厂,46,8437,无物业管理服务,0.5,辽宁,8,二手房,1950
甘井子区促进路30号2-1-1,大连,福佳集团有限公司,甘井子,20190608,38.954133128707575,121.58355746311207,府佳名都,49,18138,大连富佳物业管理有限公司,0.5,辽宁,8,二手房,2002
沙河口区红凌路137号,大连,大连大实企业集团房屋开发有限公司,甘井子,20190608,38.922699288974506,121.54713601744747,泊林阳光A区,14,13893,大连弘实物业管理有限公司,0.6,辽宁,7,二手房,2007
金州新区先进街道五一路350-1号1-2层,大连,大连中连房地产开发有限公司,金州,20190608,39.078667146419825,121.77094423323935,聚鑫小区二期,32,7866,大连新生活物业管理有限公司,0.5,辽宁,7,二手房,2008
开发区红梅小区19栋-2-1-1号,大连,开发区城建局,开发区,20190608,29.906498897603264,121.5913630631805,红梅小区,47,12683,街道办事处（居委会）代管物业,0.3,辽宁,7,二手房,1995
大连市金州新区中长街道碧海尚城5-4号1-2层,大连,无开发商,金州,20190608,39.100290954587514,121.7304796052032,碧海尚城,124,8256,街道办事处（居委会）代管物业,0.8,辽宁,7,二手房,2007
无门店信息,大连,大连龙湖西城置业有限公司,甘井子,20190608,34.52713835999158,118.76812980670795,龙湖滟澜山,56,20527,大连龙湖物业服务有限公司,6.6,辽宁,7,二手房,2015
沙河口区前程街46号4—1—2号,大连,大连渤海红旗集团有限公司,甘井子,20190608,38.913544290955585,121.59450670056631,兰丰巷,14,10791,大连辽南物业管理有限公司,0.2,辽宁,7,二手房,1992
西岗区长红街4号1号公建,大连,无开发商,西岗,20190608,38.91377414665191,121.6302525225721,34中林荫巷,13,26101,无物业管理服务,-,辽宁,7,二手房,1997
中山区共建巷61号,大连,无开发商,中山,20190608,38.91828093658718,121.66259221532148,39中共建巷,25,26628,街道办事处（居委会）代管物业,0.5,辽宁,7,二手房,1990
中山区爱华街13号,大连,大连一方地产有限公司,中山,20190608,38.92541607518685,121.6535728031028,大连国际酒店,18,23041,大连一方物业管理有限公司,3.0,辽宁,7,二手房,2006
中山区东港龙湖水晶郦湾7-102,大连,大连保利东港房地产开发有限公司,中山,20190608,38.924700620463895,121.70344398518496,保利天禧,54,24933,保利物业服务有限公司,4.8,辽宁,7,二手房,2017
无门店信息,大连,大连乾豪集团有限公司,开发区,20190608,34.52713835999158,118.76812980670795,格林小镇,186,8134,沈阳瑞码阁物业管理有限公司大连分公司,0.6,辽宁,8,二手房,2002
开发区润海园中区65-7号1-2号,大连,华润（大连）房地产有限公司,开发区,20190608,39.04047273176333,121.76392358042445,华润海中国五期,105,14592,华润物业（大连）有限公司,3.1,辽宁,8,二手房,2015
开发区小孤山西里3栋-11号,大连,大连九龙汇房地产开发有限公司,开发区,20190608,39.02715282297674,121.80682183666346,九龙汇,53,8910,大连宏亮红物业管理有限公司,1.9,辽宁,8,二手房,2009
开发区黄海西路54号,大连,大连凯伦房地产开发股份有限公司,开发区,20190608,39.047714586087785,121.76688238228269,凯伦凯悦,101,8722,大连凯悦物业管理有限公司,3.1,辽宁,8,二手房,2008
甘井子区虹城路503号1-1号,大连,大连易和房地产集团有限公司,甘井子,20190608,38.981193588625004,121.49964051837122,岭秀滨城悦和东园,70,15331,大连易兴物业服务有限公司,1.3,辽宁,8,二手房,2010
金州区先进街道陶然居公建2-2号1层,大连,大连金信集团房地产有限公司,金州,20190608,39.08283372756215,121.76170982507143,桃园小区,204,6906,街道办事处（居委会）代管物业,3,辽宁,8,二手房,1992
高新园区火炬路18号,大连,大连海脉房地产开发有限公司,高新园区,20190608,38.937738080520404,117.39340752036043,MINI印象,137,15151,大连豪斯威物业管理有限公司,2.2,辽宁,8,二手房,2012
甘井子区山东路315号14栋1单元1跃2层13号,大连,华润置地（大连）开发有限公司,甘井子,20190608,39.00206212579579,121.59357231641214,华润置地广场一期,52,19886,华润物业（大连）有限公司,2.8,辽宁,8,二手房,2013
甘井子区华龙南园12-4-3-1-3,大连,大连长鹭房屋开发有限公司,甘井子,20190608,38.98528794231248,121.61028969481718,晶品枫林,47,13577,北京房修一物业管理有限公司,0.5,辽宁,8,二手房,2008
金州区先进街道陶然居公建2-2号1层,大连,大连金信集团房地产有限公司,金州,20190608,39.08283372756215,121.76170982507143,金信陶然居,72,9454,北京瑞思特物业管理有限公司,0.5,辽宁,7,二手房,2007
无门店信息,大连,大连海脉房地产开发有限公司,金州,20190608,34.52713835999158,118.76812980670795,海脉未来城,30,8179,大连豪斯威物业管理有限公司,1,辽宁,7,二手房,2013
甘井子区红南东街7-7号,大连,大连大实企业集团房屋开发有限公司,甘井子,20190608,38.92880462247992,121.54144910207062,泊林和山,32,11487,大连弘实物业管理有限公司,0.6,辽宁,6,二手房,2007
大连市沙河口区黄河路729号,大连,无开发商,沙河口,20190608,38.91710565765228,121.58954758972729,南昌平小区,56,12972,街道办事处（居委会）代管物业,0.8,辽宁,6,二手房,1986
大连市金州新区中长街道碧海尚城5-4号1-2层,大连,大连集品置业有限公司,金州,20190608,39.100290954587514,121.7304796052032,东林世家,45,14807,大连百安物业管理有限公司,1,辽宁,6,二手房,2008
中山区高尚路28-1号,大连,无开发商,中山,20190608,38.892673425111305,121.67148833870213,高洁巷,31,11127,街道办事处（居委会）代管物业,0.5,辽宁,6,二手房,1993
甘井子区甘井子街3号公建,大连,无开发商,甘井子,20190608,38.982086281836246,121.63426694995971,北山小区,24,8869,无物业管理服务,0.2,辽宁,7,二手房,1988
甘井子区山东路137号,大连,大连华南房地产开发有限公司,甘井子,20190608,38.99129404608926,121.59172125999353,名贵山庄青年公寓,5,14997,大连弘益达物业管理有限公司,0.5,辽宁,6,二手房,2004
甘井子区惠泽南园3-4号,大连,大连鹏德房屋开发有限公司,甘井子,20190608,38.939326611323615,121.52337842113351,西山逸林,34,15084,大连三和住邦物业管理有限公司,1.3,辽宁,7,二手房,2009
红星海A区126-4,大连,远洋地产有限公司,开发区,20190608,39.027851194371685,121.80327394132297,红星海一期城市别馆,107,13753,大连远洋基业物业管理有限公司,2,辽宁,7,二手房,2010
开发区小孤山西里3栋-11号,大连,大连开建房地产开发有限公司,开发区,20190608,39.02715282297674,121.80682183666346,瑞仕尚城,53,11141,大连阿尔滨汇城物业服务有限公司,1.1,辽宁,7,二手房,2008
大连市甘井子区泉水N2区3-13号,大连,大连金广地产集团有限公司,甘井子,20190608,39.021116079001885,121.64659997607325,泉水N3区,84,10743,无物业管理服务,0.7,辽宁,7,二手房,2000
开发区润海园中区18#2号,大连,大连布鲁科房地产开发有限公司,开发区,20190608,39.04047273176333,121.76392358042445,热岛黄金海岸,185,11120,大连戴德梁行物业管理有限公司,1.6,辽宁,7,二手房,2010
西岗区黄河路90号公建部分,大连,暂无信息,西岗,20190608,38.92234529815978,121.62829331825485,实验小学市场街,55,22443,无物业管理服务,-,辽宁,7,二手房,1990
沙河口区华新苑10号楼4号公建,大连,大连祥盛房屋开发有限公司,沙河口,20190608,38.94033750532864,121.58990295130229,香洲心城,27,18770,大连百特物业管理有限公司,1,辽宁,7,二手房,2011
沙河口区富民路120号4-1-1,大连,大连银地置业发展有限公司,沙河口,20190608,38.930937859528605,121.5647274237578,观山蝶恋花,39,14867,大连新展物业管理有限公司,1,辽宁,7,二手房,2011
无门店信息,大连,大连馨悦房地产开发有限公司,金州,20190608,34.52713835999158,118.76812980670795,悦泰山里,83,10417,大连百安物业管理有限公司,0.5,辽宁,7,二手房,2009
无门店信息,大连,无开发商,金州,20190608,34.52713835999158,118.76812980670795,滨海丰园,116,8242,街道办事处（居委会）代管物业,0.5,辽宁,7,二手房,2011
高新园区黄浦路901S号1单元1层3号,大连,大连海创房地产开发有限公司,高新园区,20190608,38.85845801548294,121.51687109601923,谷歌里,45,14940,大连海创物业管理有限公司,1.2,辽宁,7,二手房,2009
中山区碧浪园4号-3号,大连,大连三寰房地产开发有限公司,中山,20190608,38.89147289460474,121.69329560326236,碧浪园一期,38,14162,大连峰霖物业管理有限公司,0.3,辽宁,7,二手房,1999
沙河口区绿清街12号,大连,无开发商,沙河口,20190608,38.93851335419565,121.57334844377094,绿波B区,22,9770,街道办事处（居委会）代管物业,0.1,辽宁,7,二手房,1992
开发区兴城路29-81层,大连,大连兆佳房地产开发有限公司,开发区,20190608,39.050214252167194,121.75835946441768,自由向,56,14424,大连华安物业管理有限公司,2.4,辽宁,7,二手房,2008
沙河口区五一路270-274号,大连,大连亿达房地产股份有限公司,高新园区,20190608,38.913544290955585,121.59450670056631,city one,17,14270,亿达物业管理有限公司,0.5,辽宁,6,二手房,2006
甘井子区汇仁街22号,大连,中铁建（大连）置业有限公司,甘井子,20190608,38.99712640764999,121.58834420439493,动力院景三期汇善园,44,15398,大连铁龙安居物业管理有限公司,0.9,辽宁,6,二手房,2007
金州区站前街道盛滨花园B区13号楼2号公建,大连,大连和嘉房地产开发有限公司,金州,20190608,39.09609011892329,121.7335816409767,和嘉佳园,80,6950,街道办事处（居委会）代管物业,0.5,辽宁,6,二手房,2009
开发区兴城路29-81层,大连,大连亿锋房地产实业有限公司,开发区,20190608,39.050214252167194,121.75835946441768,亿锋广场二期,50,14891,大连广恒物业管理有限公司,2.5,辽宁,6,二手房,2015
甘井子区圣林南园3-3号,大连,大连广泰房屋开发有限公司,甘井子,20190608,38.95191781681833,121.54394961192217,美树日记,78,22490,大连华安物业管理有限公司,1.6,辽宁,6,二手房,2009
开发区润海园中区62-9,大连,大连金广嘉亿置地有限公司,开发区,20190608,39.04047273176333,121.76392358042445,大连海湾城一期,111,12431,大连金广物业服务有限公司,2.6,辽宁,6,二手房,2012
甘井子区玉丽街39号楼3号公建,大连,大连新型房地产开发有限公司,甘井子,20190608,38.98706755029984,121.55605471197089,玉浓街,51,10504,大连新兴物业管理有限公司,0.2,辽宁,6,二手房,2002
大连市甘井子区宜居园10-1号房屋,大连,大连万科置业有限公司,甘井子,20190608,38.99913094587405,121.52084969112292,万科现在城,21,15061,大连万科物业服务有限公司,2.2,辽宁,6,二手房,2015
无门店信息,大连,大连新跃房地产开发有限公司,金州,20190608,34.52713835999158,118.76812980670795,金海国际花园,228,8030,盘锦瀚新物业管理有限公司,1,辽宁,6,二手房,2010
沙河口区西南路161号,大连,无开发商,沙河口,20190608,38.89269676588945,121.56639953951542,大医物业,6,13544,街道办事处（居委会）代管物业,0.5,辽宁,6,二手房,1990
无门店信息,大连,大连亿达房地产股份有限公司,旅顺口,20190608,34.52713835999158,118.76812980670795,亿达玉龙湾,45,9338,亿达物业管理有限公司,1.5,辽宁,6,二手房,2013
甘井子区山东路127-2号,大连,无开发商,甘井子,20190608,38.99065559549029,121.59126483545545,七迎路,33,12368,街道办事处（居委会）代管物业,0.2,辽宁,6,二手房,1995
甘井子区红旗中路143号1层4号,大连,大连红旗兴达房地产开发有限公司,甘井子,20190608,38.93169566676921,121.5426632438217,兴达福山居,23,14738,大连万泰物业管理有限公司,0.4,辽宁,6,二手房,2006
开发区正恒园1-16,大连,暂无信息,开发区,20190608,39.04823944344617,121.76165468797754,正泰园B区,34,11860,无物业管理服务,-,辽宁,6,二手房,2000
甘井子区西南路979-7号公建,大连,大连祥盛房屋开发有限公司,甘井子,20190608,38.96275592929325,121.5958698791777,金盛家园,49,17137,大连宏华物业管理有限公司,0.5,辽宁,6,二手房,2001
甘井子区玉云路27-3-1-3,大连,大连新型房地产开发有限公司,甘井子,20190608,38.97896234099927,121.55865563488358,泡崖三区,75,11011,大连新兴物业管理有限公司,0.5,辽宁,6,二手房,1995
沙河口区红旗东路18-22号2单元1楼3号,大连,无开发商,甘井子,20190608,38.913544290955585,121.59450670056631,天泉山庄,17,12713,大连铁龙安居物业管理有限公司,0.5,辽宁,6,二手房,2000
开发区大开高吉里33栋6号,大连,无开发商,开发区,20190608,39.07355836059941,121.8280439450145,高泰里,16,6227,无物业管理服务,-,辽宁,6,二手房,1998
甘井子区泉水D1区10-2#1-1-7,大连,大连运达房地产集团有限公司,甘井子,20190608,39.01504676175047,121.61751269364314,锦泉源B4区,60,11256,大连佳泰物业管理有限公司,0.5,辽宁,6,二手房,2002
沙河口区红旗东路18-22号2单元1楼3号,大连,大连益嘉房屋开发有限公司,沙河口,20190608,38.913544290955585,121.59450670056631,益嘉广场,48,17023,大连益嘉物业管理有限公司,1.8,辽宁,6,二手房,2012
无门店信息,大连,大连中连房地产开发有限公司,金州,20190608,34.52713835999158,118.76812980670795,憬园河畔,60,7974,大连新生活物业管理有限公司,0.5,辽宁,6,二手房,2000
甘井子区虹港路16号楼1层公建,大连,大连鑫奇房地产开发有限公司,甘井子,20190608,38.9645939333502,121.553851837474,鑫境界,96,12471,大连鑫境界物业管理有限公司,1.3,辽宁,6,二手房,2009
甘井子区华龙南园12-4-3-1-3,大连,大连鹏德房屋开发有限公司,甘井子,20190608,38.98528794231248,121.61028969481718,乐活源,71,12952,大连三和住邦物业管理有限公司,0.5,辽宁,6,二手房,2009
甘井子区山东路398号,大连,大连盛铭资产管理有限公司,甘井子,20190608,38.99821826443242,121.59274974973462,亿合城,72,18504,大连盛安物业管理有限公司,1.5,辽宁,6,二手房,2013
沙河口区黄河路562号,大连,大连新型房地产开发有限公司,沙河口,20190608,38.9167961764482,121.60352063132478,79中科学家公寓,46,21076,大连新兴物业管理有限公司,0.8,辽宁,6,二手房,1995
开发区鹏程家园66#-6、66#-7公建,大连,大连新天润企业集团有限公司,开发区,20190608,37.92440451755906,112.59861436589645,水御兰庭,34,9781,大连港力物业管理有限公司,1.1,辽宁,6,二手房,2007
无门店信息,大连,大连中海新城置业有限公司,甘井子,20190608,34.52713835999158,118.76812980670795,中海凤凰熙岸,66,13817,大连中海物业管理有限公司,2.3,辽宁,6,二手房,2016
无门店信息,大连,大连鹏玥房地产开发有限公司,开发区,20190608,34.52713835999158,118.76812980670795,中环城市广场,23,9177,大连鹏玥物业公司,1.5,辽宁,6,二手房,2015
甘井子区海口路77—5号,大连,暂无信息,甘井子,20190608,38.960286398428124,121.60305183172997,鹏辉新世纪四期,52,17552,大连鹏辉物业管理有限公司,0.6,辽宁,6,二手房,2003
开发区黄海西路54号,大连,无开发商,开发区,20190608,39.047714586087785,121.76688238228269,翠南隆达院,25,8032,嘉兴物业管理有限公司,0.5,辽宁,6,二手房,1998
甘井子区促进路30号2-1-1,大连,大连谷和房屋开发有限公司,甘井子,20190608,38.954133128707575,121.58355746311207,谷和温馨苑,28,17650,大连谷和物业管理有限公司,0.6,辽宁,6,二手房,2002
无门店信息,大连,大连亿达房地产股份有限公司,高新园区,20190608,34.52713835999158,118.76812980670795,亿达悦龙居,16,14509,亿达物业管理有限公司,2.8,辽宁,6,二手房,2015
甘井子区芳韵街31号,大连,大连亿达房地产股份有限公司,甘井子,20190608,38.95628814568166,121.59125586946814,唯美品格,99,30094,亿达物业管理有限公司,1.5,辽宁,6,二手房,2009
沙河口区黄浦路18号—5号公建,大连,大连良运房地产开发有限公司,高新园区,20190608,38.8771225143479,121.54427480390662,翰林观海公寓,23,18255,大连良运物业管理有限公司,0.8,辽宁,6,二手房,2003
大连市甘井子区泉水N2区3-13号,大连,暂无信息,甘井子,20190608,39.021116079001885,121.64659997607325,泉水N2区,46,10870,无物业管理服务,0.7,辽宁,6,二手房,2009
甘井子区西南路979-7号公建,大连,暂无信息,甘井子,20190608,38.96275592929325,121.5958698791777,八十中红咀街,137,15657,街道办事处（居委会）代管物业,0.2,辽宁,6,二手房,1988
中山区杏林街66—5号,大连,嘉和房地产集团有限公司,中山,20190608,38.92572771377599,121.66490555592502,嘉和花样年华三期,52,24046,大连嘉和物业管理有限公司,3.5,辽宁,6,二手房,2007
西岗区平等街21号1层2号,大连,无开发商,西岗,20190608,38.92251066253164,121.63236845125735,香榭里,50,10280,大连金地物业管理有限公司,3.6,辽宁,6,二手房,2010
甘井子区辛寨子街道中冶蓝城辛虹园39-7号公建,大连,大连中冶京诚置业有限公司,甘井子,20190608,38.98155611421408,121.49259383356096,中冶蓝城C区,39,17125,大连添翼物业服务有限公司,2,辽宁,5,二手房,2011
甘井子区泉水B2区19-1号,大连,大连运达房地产集团有限公司,甘井子,20190608,39.0101309886317,121.60812584213187,锦泉源B1区,67,13480,大连佳泰物业管理有限公司,0.5,辽宁,5,二手房,2001
甘井子金地艺境博艺西园2-1号,大连,大连天意房地产开发有限公司,甘井子,20190608,39.04402110608829,121.665484498555,金地艺境,148,14948,大连金地物业管理有限公司,0.5,辽宁,5,二手房,2011
甘井子区虹港路391号第五幢1单元1跃2层3号,大连,大连加尔伦房地产开发有限公司,甘井子,20190608,38.96606635942528,121.53201387432493,万科金域华府,29,21868,大连万科物业服务有限公司,3,辽宁,5,二手房,2016
开发区松苑街23号,大连,大连泰乐房地产开发有限公司,开发区,20190608,22.52087435807652,113.40156105086167,碧海华庭,48,6807,大连海滨物业管理有限公司,0.5,辽宁,5,二手房,2005
甘井子区辛寨子街道中冶蓝城辛虹园39-7号公建,大连,大连中冶京诚置业有限公司,甘井子,20190608,38.98155611421408,121.49259383356096,中冶蓝城E区,40,14973,大连添翼物业服务有限公司,2,辽宁,5,二手房,2010
沙河口区锦霞南园1号1层公建,大连,大连锦绣房地产开发有限公司,沙河口,20190608,38.947367114450536,121.55342584213675,锦虹北园,16,11855,大连锦绣物业管理有限公司,0.3,辽宁,5,二手房,1998
无门店信息,大连,大华集团大连置业有限公司,高新园区,20190608,34.52713835999158,118.76812980670795,大华锦绣华城四期,41,22583,大连大华物业管理有限公司,2.5,辽宁,5,二手房,2015
甘井子区小平岛路66-4号,大连,大连软件园瑞安发展有限公司,高新园区,20190608,38.84623138470555,121.51516818634872,悦丽海湾,55,19921,上海丰城物业管理有限公司,2.8,辽宁,5,二手房,2014
沙河口区兰田街33号,大连,无开发商,沙河口,20190608,38.926138912221084,121.56486022834609,兰玉街,22,11910,街道办事处（居委会）代管物业,0.4,辽宁,5,二手房,1990
开发区鹏程家园66#-6、66#-7公建,大连,大连神洲众益集团有限公司,开发区,20190608,37.92440451755906,112.59861436589645,众益阳光海岸,93,10575,大连万佳物业管理有限公司,1.2,辽宁,5,二手房,2005
金州区南棉路310号,大连,无开发商,金州,20190608,39.09939229372624,121.72414976100345,胜利小区,96,7975,无物业管理服务,0.5,辽宁,5,二手房,1986
大连市甘井子区椒房街24号楼2-104链家地产,大连,大连港置地有限公司,甘井子,20190608,38.985363789837166,121.61034055597686,大连港天下粮仓,26,20095,大连万科物业服务有限公司,2.2,辽宁,5,二手房,2017
甘井子区中华路泉水A1区86号4单元1层1号,大连,大连科技园房地产开发有限公司,甘井子,20190608,39.0040531092963,121.60742125620513,奥林园,47,14161,大连衡德物业管理有限公司,0.5,辽宁,5,二手房,2004
开发区杏树里10栋-14,大连,无开发商,开发区,20190608,39.08113818354046,121.78505742127606,松苑山庄,81,5933,大连市金州区先进物业管理中心,0.5,辽宁,5,二手房,1999
金州区光明街道育才街42-6号1-2层,大连,大连市金州区育才房地产开发有限公司,金州,20190608,39.109080894078986,121.7182584929096,职高小区,47,8615,大连金州育才物业管理有限公司,0.5,辽宁,5,二手房,1996
高新园区海苑街36号1单元2号公建,大连,大连金华兴房地产开发有限公司,高新园区,20190608,20.06392317589085,110.32302599457326,华兴山庄,14,15622,大连华兴物业管理有限公司,0.5,辽宁,5,二手房,2004
甘井子金地艺境博艺西园2-1号,大连,大连丰达房地产开发有限公司,甘井子,20190608,39.04402110608829,121.665484498555,益丰乾城,21,12801,大连逸佳物业管理有限公司,1.6,辽宁,5,二手房,2015
沙河口区西南路358号1—2号,大连,大连泰安房地产开发有限公司,沙河口,20190608,38.90839654326566,121.56908246905662,泰安花园,23,14389,大连三宝物业发展有限公司,0.5,辽宁,5,二手房,1998
甘井子区红旗西路104-7,大连,大连盛华房地产开发有限公司,甘井子,20190608,38.940335495502666,121.52722586363274,水映西山,53,15943,大连长青物业管理中心,0.9,辽宁,5,二手房,2007
中山区杏林街66—5号,大连,大连开建集团有限公司,中山,20190608,38.92572771377599,121.66490555592502,花香维也纳,50,23325,大连开利物业管理有限公司,0.5,辽宁,5,二手房,2003
甘井子区泉水H1区54号3单元1层1号,大连,暂无信息,甘井子,20190608,39.0074937564393,121.62382856020916,龙畔金泉五期K1区,32,13476,大连新兴物业管理有限公司,0.5,辽宁,5,二手房,2008
金州区五一路先进街道 陶然居2-2,大连,大连金开房地产开发有限公司,金州,20190608,39.0830973395057,121.7630113583655,华邦俪城,108,10167,大连华邦物业有限公司,1.3,辽宁,5,二手房,2010
甘井子区红旗中路143号1层4号,大连,大连红旗兴达房地产开发有限公司,甘井子,20190608,38.93169566676921,121.5426632438217,兴达依山居,34,14013,大连金诚物业管理有限公司,0.3,辽宁,5,二手房,2004
甘井子区虹城路503号1-1号,大连,大连易和房地产集团有限公司,甘井子,20190608,38.981193588625004,121.49964051837122,岭秀滨城悦和中园,32,16073,大连易兴物业服务有限公司,1.3,辽宁,5,二手房,2009
甘井子区海口路77—5号,大连,大连圣韬房地产开发有限公司,甘井子,20190608,38.960286398428124,121.60305183172997,万福居,53,18596,大连圣韬物业管理有限公司,0.5,辽宁,5,二手房,2006
无门店信息,大连,大连运达房地产集团有限公司,甘井子,20190608,34.52713835999158,118.76812980670795,运达诺维溪谷一期,43,16725,大连运达物业有限公司,1.8,辽宁,5,二手房,2010
中山区中南路226号,大连,大连亿泰房屋开发有限公司,中山,20190608,38.90029610333926,121.68178899957817,亿泰庄园,12,15158,大连远洋基业物业管理有限公司,0.7,辽宁,5,二手房,1999
甘井子区金家街17-7号,大连,大连嘉兴房地产开发有限公司,甘井子,20190608,38.97493697764367,121.60110987128529,青林美地,39,21153,大连嘉盛物业管理有限公司,0.5,辽宁,5,二手房,2003
西岗区八一路196号1-3,大连,大连三环置业有限公司,西岗,20190608,38.92047268927287,121.61862512554262,桃花源小区,49,10159,大连三寰物业管理有限公司,0.5,辽宁,5,二手房,1996
大连市甘井子区燕南园50号,大连,大连软件园发展有限公司,高新园区,20190608,38.90172480153224,121.5363466289672,东方圣克拉二期,55,27501,亿达物业管理有限公司,2.6,辽宁,5,二手房,2011
开发区黄海西路201号107公建,大连,无开发商,开发区,20190608,39.04942604506828,121.80126318235419,岗松里小区,108,7132,大连经济技术开发区海青物业有限公司,0.5,辽宁,5,二手房,1999
沙河口区前程街46号4—1—2号,大连,大连台安房屋开发有限公司开发,甘井子,20190608,38.913544290955585,121.59450670056631,彩虹园,36,11016,渤海吉祥物业管理有限公司,0.4,辽宁,5,二手房,2000
沙河口区五一路177-1-1-1,大连,大华集团大连房地产开发有限公司,沙河口,20190608,38.913544290955585,121.59450670056631,大华御庭,57,22229,大连乐尔居物业服务有限公司,1.4,辽宁,5,二手房,2009
开发区高新里6栋-8,大连,无开发商,开发区,20190608,39.0710895068195,121.82860134358343,高民里,66,6767,街道办事处（居委会）代管物业,0.2,辽宁,5,二手房,1996
金州区先进街道渤海街1-4号1-2层,大连,无开发商,金州,20190608,39.09512910553563,121.74578812616167,金星小区,23,7431,街道办事处（居委会）代管物业,0.1,辽宁,5,二手房,1993
无门店信息,大连,大连唐银盛兴置业有限公司,开发区,20190608,34.52713835999158,118.76812980670795,钻石9座,45,10045,大连佳家物业管理有限公司,1.5,辽宁,5,二手房,2014
大连市甘井子区丰收路3-5号,大连,大连万鼎置业有限公司,甘井子,20190608,38.965377255081755,121.58288415324094,万科蓝山,25,26032,大连万科物业服务有限公司,2.9,辽宁,5,二手房,2015
高新园区海苑街36号1单元2号公建,大连,大连大有房屋开发有限公司,高新园区,20190608,20.06392317589085,110.32302599457326,大有恬园,43,17874,大连家园物业有限公司,0.5,辽宁,5,二手房,2003
"西岗区泰公街20号2层7号 西岗区久寿街22号1层14号""",大连,大连润德君城房地产开发有限公司,西岗,20190608,38.92600196862723,121.62141976476381,北京公园,41,24158,大连润德物业管理有限公司,2.2,辽宁,5,二手房,2010
沙河口区长江路738号,大连,大连大世界房地产开发有限公司,西岗,20190608,38.913544290955585,121.59450670056631,第九频道,41,25996,大世界商业联合机构,3.6,辽宁,5,二手房,2014
无门店信息,大连,大连宏鼎房地产开发有限公司,旅顺口,20190608,34.52713835999158,118.76812980670795,国宝星月湾,59,11964,大连星海国宝物业管理有限公司,2.5,辽宁,5,二手房,2015
西岗区香炉礁24号1-1,大连,大连新型房地产开发有限公司,西岗,20190608,38.92047268927287,121.61862512554262,金海花园西园,46,12034,无物业管理服务,0.5,辽宁,5,二手房,2001
中山区武昌街武昌公寓6号公建,大连,无开发商,中山,20190608,38.912280913445784,121.64921130527547,宪立巷,22,10256,无物业管理服务,-,辽宁,5,二手房,1988
西岗区长春路334号,大连,大连新型房地产开发总公司,西岗,20190608,38.89807766522607,121.63221082858387,林茂小区,39,10332,大连新型物业管理有限公司,0.2,辽宁,5,二手房,1995
开发区大开高吉里33栋6号,大连,大连开建集团有限公司,开发区,20190608,39.07355836059941,121.8280439450145,高城北花园,36,8849,大连经济技术开发区聚盛达物业管理有限公司,0.2,辽宁,5,二手房,1998
中山区中青街87号一单元107,大连,大连亿达房地产股份有限公司,中山,20190608,38.90213494248529,121.65806522267005,青云林海,49,21472,亿达物业管理有限公司,1,辽宁,5,二手房,2001
西岗区黄河路82号,大连,大连民兴房地产开发有限公司,西岗,20190608,38.92243503020161,121.6287927913896,前城国际二期,32,23184,大连前城花园物业管理有限公司,1.5,辽宁,5,二手房,2000
沙河口区黑石礁街5号1层1号,大连,无开发商,沙河口,20190608,38.879813345473714,121.56313742300513,黑石礁,10,12014,无物业管理服务,-,辽宁,5,二手房,1990
无门店信息,大连,开发区城建局,开发区,20190608,34.52713835999158,118.76812980670795,东居里,125,7018,大连经济技术开发区海青物业有限公司,0.2,辽宁,5,二手房,1996
甘井子区汇达园26号,大连,北亚实业集团股份有限公司大连开发区分公司,甘井子,20190608,38.99704654604941,121.59758808878767,北府花园,74,17072,大连优豪斯物业管理有限公司,0.5,辽宁,5,二手房,2006
甘井子区金家街17-7号,大连,暂无信息,甘井子,20190608,38.97493697764367,121.60110987128529,金二街,43,19658,无物业管理服务,-,辽宁,5,二手房,1970
甘井子区玉湖街18号1单元1-1,大连,大连新型房地产开发有限公司,甘井子,20190608,38.97554522550266,121.54552721066896,书香府第二期,25,11339,大连新型物业管理有限公司,0.5,辽宁,5,二手房,2002
西岗区鞍山路29号龙畔锦城东门,大连,大连凯润房屋开发有限公司,西岗,20190608,38.92763470697088,121.61498923399098,景润一期,40,11769,无物业管理服务,-,辽宁,5,二手房,2000
中山区北斗街53号1层1号,大连,大连运达房地产集团有限公司,中山,20190608,38.92727355733075,121.67002970974048,运达嘉洲阳光,30,18949,大连运达物业有限公司,1.8,辽宁,5,二手房,2007
甘井子区汇仁街22号,大连,大连永高房屋开发有限公司,甘井子,20190608,38.99712640764999,121.58834420439493,加州洋房,79,14932,大连怡和物业服务有限公司,0.9,辽宁,5,二手房,2008
中山区鲁迅路204号百盛新药特药商店一楼西侧部分,大连,无开发商,中山,20190608,38.9258993614899,121.6768880001226,鲁迅路（寺儿沟商圈）,11,11945,无物业管理服务,-,辽宁,4,二手房,1990
沙河口区星海广场B3区14-2号1层,大连,大连友谊合升房地产开发有限公司,沙河口,20190608,38.88693148294673,121.58735631267305,壹品星海公寓,33,18567,大连富丽华物业管理有限公司,2,辽宁,4,二手房,2003
西岗区大同街125号,大连,大连新型房地产开发有限公司,西岗,20190608,38.920458602340894,121.61445835429899,银寰花园,28,11224,街道办事处（居委会）代管物业,0.3,辽宁,4,二手房,1995
甘井子区玉丽街2号楼1单元4号公建,大连,暂无信息,甘井子,20190608,38.98705071699301,121.55513043130172,玉意街,53,10314,大连新兴物业管理有限公司,0.3,辽宁,4,二手房,2002
天河路173-2号 华润考拉22号公建,大连,大连世隆房地产开发有限公司,甘井子,20190608,23.14720645345518,113.3277414923158,桑尼小镇,25,15326,大连大家物业管理有限公司,1.9,辽宁,4,二手房,2014
西岗区平等街21号1层2号,大连,辽宁宁安房地产开发有限公司,西岗,20190608,38.92251066253164,121.63236845125735,赛维利大厦,25,20044,大连良玖物业管理有限责任公司,1.5,辽宁,4,二手房,2004
开发区黄海西路201号107公建,大连,中信开发商,开发区,20190608,39.04942604506828,121.80126318235419,金海里,64,7379,大连中信物业管理有限公司,0.1,辽宁,4,二手房,2000
甘井子区美域盛景A2区10-6,大连,大连百思泰置业有限公司,甘井子,20190608,39.006221362805846,121.61022278003976,钰桥中央庭院,47,18271,大连百嘉物业管理有限公司,1.8,辽宁,4,二手房,2014
开发区兴城路29-81层,大连,中合北大荒（大连）置业有限公司,开发区,20190608,39.050214252167194,121.75835946441768,银帆国际,40,12402,大连中合物业管理有限公司,2,辽宁,4,二手房,2015
大连市高新园区软件园路1A-3号,大连,大连软景房地产开发有限公司,高新园区,20190608,38.89360013642285,121.54653763548625,亿达软景中心,14,21465,亿达物业管理有限公司,3.5,辽宁,4,二手房,2014
大连市甘井子区丰收路3-5号,大连,大连智和房地产开发有限公司,甘井子,20190608,38.965377255081755,121.58288415324094,华锦铭苑,41,18725,大连东昌物业管理有限公司,1.3,辽宁,4,二手房,2009
沙河口区西南路643号,大连,无开发商,沙河口,20190608,38.943483429804665,121.5833555851182,恒达花园（沙河口）,9,11490,无物业管理服务,-,辽宁,4,二手房,1990
无门店信息,大连,大连中政房地产开发有限公司,中山,20190608,34.52713835999158,118.76812980670795,中政小区,17,12280,大连中政物业管理有限公司,0.3,辽宁,4,二手房,1996
甘井子区山东路137号,大连,无开发商,甘井子,20190608,38.99129404608926,121.59172125999353,天河路,13,12644,街道办事处（居委会）代管物业,0.1,辽宁,4,二手房,1998
中山区山屏街116号1-1,大连,大连中信海港投资有限公司,中山,20190608,38.90729438486833,121.68598159980013,山峦街,13,11831,无物业管理服务,-,辽宁,4,二手房,1990
西岗区绕山路31号公建一层东侧,大连,无开发商,西岗,20190608,38.90257514466717,121.61412736644739,和云巷,19,10147,无物业管理服务,-,辽宁,4,二手房,1990
甘井子区红旗中路143号1层4号,大连,亿海房地产开发有限公司,甘井子,20190608,38.93169566676921,121.5426632438217,红旗西路,3,12312,大连万泰物业管理有限公司,0.2,辽宁,4,二手房,1997
甘井子区鹏辉新世纪1幢1单元1-3号房屋（海口路99号）,大连,暂无信息,甘井子,20190608,38.96077365187575,121.60514653016222,鹏辉新世纪一期,10,17530,大连鹏辉物业管理有限公司,0.6,辽宁,4,二手房,2003
中山区高尚路28-1号,大连,无开发商,中山,20190608,38.892673425111305,121.67148833870213,宪卫里,18,10443,无物业管理服务,0.5,辽宁,4,二手房,1994
开发区兴城路29-81层,大连,大连华宇房地产开发有限公司,开发区,20190608,39.050214252167194,121.75835946441768,华宇梧桐苑,20,13114,大连永嘉物业管理公司,1.9,辽宁,4,二手房,2013
"西岗区泰公街20号2层7号 西岗区久寿街22号1层14号""",大连,大连万达房地产开发有限公司,西岗,20190608,38.92600196862723,121.62141976476381,万达高层,13,11606,大连白云物业管理公司,0.3,辽宁,4,二手房,1995
开发区湾里南12栋-16-17-18号,大连,无开发商,开发区,20190608,39.070782084451,121.8506739675913,东城国际,45,8637,大连乾豪物业管理有限公司,1,辽宁,4,二手房,2006
甘井子区华龙南园34-5号34-库4号34-5号,大连,大连钧卫达房地产开发有限公司,甘井子,20190608,38.98270467597865,121.6117222765123,亲亲美境,24,12535,大连三和住邦物业管理有限公司,0.9,辽宁,4,二手房,2008
甘井子区华东路22号公建,大连,大连凯祥房地产开发有限公司,甘井子,20190608,38.97736184953593,121.5935814234334,环馨山庄,22,13262,大连凯祥物业管理有限公司,0.5,辽宁,4,二手房,2000
甘井子区亿家缘虹韵路205,大连,大连亿达美加房地产开发有限公司,甘井子,20190608,38.95647848453699,121.53130152244339,第五郡四号地,48,27972,亿达物业管理有限公司,2,辽宁,4,二手房,2010
中山区爱华街13号,大连,无开发商,中山,20190608,38.92541607518685,121.6535728031028,39中安阳街,30,25816,无物业管理服务,-,辽宁,4,二手房,1990
无门店信息,大连,昕德（大连）房地产开发有限公司,金州,20190608,34.52713835999158,118.76812980670795,伟桥金北嘉园,67,7417,街道办事处（居委会）代管物业,0.5,辽宁,4,二手房,2012
沙河口区黄埔路427号,大连,大连名仕房地产开发有限公司,高新园区,20190608,38.913544290955585,121.59450670056631,名仕乐居,20,20386,大连万祥物业管理有限公司,1.3,辽宁,4,二手房,2008
金州区站前街道盛滨花园B区13号楼2号公建,大连,大连阿尔滨集团房地产开发有限公司,金州,20190608,39.09609011892329,121.7335816409767,现代雅筑,43,6672,大连阿尔滨集团物业管理有限公司,0.5,辽宁,4,二手房,2009
开发区高新里6栋-8,大连,无开发商,开发区,20190608,39.0710895068195,121.82860134358343,高志里小区,38,6710,街道办事处（居委会）代管物业,0.3,辽宁,4,二手房,1993
开发区东北三街94号1层,大连,大连同济房地产开发有限公司,开发区,20190608,39.05723508011585,121.80570768630555,新东方公寓一期,40,5617,大连同济物业管理有限公司,1.5,辽宁,4,二手房,2005
沙河口区锦石园24-7号第A2-13幢1单元1层1号,大连,大连锦绣房地产开发有限公司,沙河口,20190608,38.913544290955585,121.59450670056631,锦城园C区,28,15322,大连锦绣物业管理有限公司,0.6,辽宁,4,二手房,2006
甘井子区红旗西路104-7,大连,大连盛达实业总公司,甘井子,20190608,38.940335495502666,121.52722586363274,盛新园,30,11896,大连盛新物业管理有限公司,0.3,辽宁,4,二手房,2000
中山区职工街96号1-3层公建,大连,大连嘉和房地产开发有限公司,中山,20190608,38.92565613737007,121.66193575790903,嘉和花样年华一期,72,20521,大连嘉和物业管理有限公司,3,辽宁,4,二手房,2003
金州新区先进街道渤海街7-4号1-2层、7-3号1-2层,大连,无开发商,金州,20190608,39.09342713035472,121.74590886291374,金色阳光,20,8388,大连金广物业有限公司,0.5,辽宁,4,二手房,2005
金州区南棉路310号,大连,无开发商,金州,20190608,39.09939229372624,121.72414976100345,劳动局小区,114,8054,无物业管理服务,0.1,辽宁,4,二手房,1990
沙河口区华北路448号楼1-4公建,大连,无开发商,甘井子,20190608,38.903224944733765,121.56809734950556,周山街,22,16362,街道办事处（居委会）代管物业,0.5,辽宁,4,二手房,1989
甘井子区锦城东园1号3单元1层2号,大连,大连锦绣房地产开发有限公司,沙河口,20190608,38.952805477462775,121.55656194973994,锦城东园,44,17989,大连锦绣物业管理有限公司,0.6,辽宁,4,二手房,2006
甘井子区虹港路16号楼1层公建,大连,无开发商,甘井子,20190608,38.9645939333502,121.553851837474,迎客路（机场商圈）,34,12122,街道办事处（居委会）代管物业,0.2,辽宁,4,二手房,1990
甘井子区山东路127-2号,大连,大连市大钢集团,甘井子,20190608,38.99065559549029,121.59126483545545,苍山路,43,12531,街道办事处（居委会）代管物业,0.4,辽宁,4,二手房,1989
沙河口区黄河路535号,大连,大连城市建设集团有限公司,沙河口,20190608,38.91773777159567,121.60217159922856,79中金光小区,44,25464,无物业管理服务,-,辽宁,4,二手房,1993
甘井子区汇达园26号,大连,大连红星美凯龙投资发展有限公司,甘井子,20190608,38.99704654604941,121.59758808878767,红星国际广场,141,14708,红星物业管理有限公司,1.5,辽宁,4,二手房,2014
大连市甘井子区泉水N2区3-13号,大连,大连半岛集团有限公司,甘井子,20190608,39.021116079001885,121.64659997607325,半岛泉水欣座,34,14928,大连半岛物业管理有限公司,1.5,辽宁,4,二手房,2010
甘井子辛吉街150号-7号,大连,大连新星房地产开发有限公司,甘井子,20190608,38.96368508446978,121.52671221254214,新星绿城三期,67,12827,大连生生物业管理有限公司,0.5,辽宁,4,二手房,2006
沙河口区恒利园42号-8,大连,无开发商,沙河口,20190608,38.93357562498634,121.57914091532649,新建小区,4,11528,无物业管理服务,-,辽宁,4,二手房,1980
高新园区红凌路732-4号,大连,大华集团大连置业有限公司,高新园区,20190608,38.90204708664442,121.53244406374695,大华锦绣华城二期,48,26060,大连大华物业管理有限公司,2.5,辽宁,4,二手房,2013
大连市金州区站前街道生辉第一城14-3号1-2层,大连,大连新天润企业集团有限公司,开发区,20190608,39.0569681786798,121.74773530665969,凯旋国际,112,7138,第一东方(大连)物业服务有限公司,2.3,辽宁,4,二手房,2008
无门店信息,大连,大连安邦房地产开发有限公司,甘井子,20190608,34.52713835999158,118.76812980670795,安邦阳光润城,39,13106,无物业管理服务,-,辽宁,4,二手房,2011
甘井子区玉云路27-3-1-3,大连,暂无信息,甘井子,20190608,38.97896234099927,121.55865563488358,泡崖新六区,39,11329,大连新型物业管理有限公司,0.3,辽宁,4,二手房,2003
甘井子区泉水B2区19-1号,大连,大连金广集团,甘井子,20190608,39.0101309886317,121.60812584213187,金色阳光家园,57,13790,大连金广物业服务有限公司,0.5,辽宁,4,二手房,2002
沙河口区黄河路883号,大连,大连正源房地产开发有限公司,沙河口,20190608,38.919826721475204,121.57749657966676,幸福e家四期,68,33208,大连正源物业服务有限公司,1.2,辽宁,4,二手房,2007
高新园区红凌路732-4号,大连,大连亿达房地产股份有限公司,高新园区,20190608,38.90204708664442,121.53244406374695,亿达峦翠园,37,20399,亿达物业管理有限公司,1.3,辽宁,4,二手房,2009
甘井子区迎客路郭东街一品蓝天公建14号,大连,大连福田房屋开发有限公司,甘井子,20190608,38.958456949708726,121.556756277476,隽佳欣苑,34,14980,大连安洁物业管理服务有限公司,0.5,辽宁,4,二手房,2007
甘井子区惠泽南园3-4号,大连,大连九衡房地产开发有限公司,甘井子,20190608,38.939326611323615,121.52337842113351,易和熙园,27,19995,大连易兴物业服务有限公司,2.3,辽宁,4,二手房,2013
大连市甘井子区七贤路8-3号,大连,大连瑞恒置业有限公司,高新园区,20190608,38.86602612116956,121.53842265737707,未名山,52,25928,大连龙湖物业服务有限公司,3,辽宁,4,二手房,2015
开发区润海园中区18#2号,大连,华润（大连）房地产有限公司,开发区,20190608,39.04047273176333,121.76392358042445,华润海中国六期,64,14681,华润物业（大连）有限公司,3.1,辽宁,4,二手房,2016
金州新区先进街道渤海街7-4号1-2层、7-3号1-2层,大连,大连海洋房地产开发有限公司,金州,20190608,39.09342713035472,121.74590886291374,金海嘉园,18,8285,大连辽渔物业管理有限公司,0.8,辽宁,4,二手房,2007
中山区民建街10号1单元1号,大连,大连港连房地产开发有限公司,中山,20190608,38.925444479476894,121.66915026954452,海港公寓（三八广场）,27,21935,大连海港物业管理有限公司,0.2,辽宁,4,二手房,1996
无门店信息,大连,大连软件园瑞安发展有限公司,高新园区,20190608,34.52713835999158,118.76812980670795,大连天地悦翠台,97,15261,大连万科物业服务有限公司,1,辽宁,4,二手房,2012
沙河口区黄浦路18号—5号公建,大连,大连高新技术产业园区建设开发总公司,高新园区,20190608,38.8771225143479,121.54427480390662,学府1+1公寓,9,16174,街道办事处（居委会）代管物业,0.6,辽宁,4,二手房,2007
甘井子区绿洲园60号,大连,大连友谊合升房地产开发有限公司,甘井子,20190608,38.95390300214936,121.59409785747448,壹品天城,123,28942,大连富丽华物业管理有限公司,0.5,辽宁,4,二手房,2011
沙河口区长江路738号,大连,无开发商,西岗,20190608,38.913544290955585,121.59450670056631,21中五一广场,27,20550,无物业管理服务,-,辽宁,4,二手房,1976
沙河口区锦石路8号,大连,大连运腾房地产开发有限公司,沙河口,20190608,38.94771288948481,121.56110903658733,锦云南园,65,10159,大连锦绣物业管理有限公司,0.3,辽宁,4,二手房,1996
开发区红星海B区212-1,大连,远洋地产有限公司,开发区,20190608,39.027851194371685,121.80327394132297,红星海时光的岸,72,13583,大连远洋基业物业管理有限公司,2.2,辽宁,4,二手房,2015
中山区解放路471-22号,大连,大连圣北开发有限公司,中山,20190608,38.901309943567504,121.65419095766659,亿达云集,103,19986,亿达物业管理有限公司,1.9,辽宁,4,二手房,2015
甘井子区促进路200号,大连,大连亿达房地产股份有限公司,甘井子,20190608,38.95810188892782,121.58530036264898,林语家话,36,25752,亿达物业管理有限公司,1.2,辽宁,4,二手房,2005
甘井子区红旗西路104-23,大连,大连鹏德房屋开发有限公司,甘井子,20190608,38.94013845868325,121.5282577714263,逸林派,28,14901,大连三和住邦物业管理有限公司,1.6,辽宁,4,二手房,2011
大连经济技术开发区时代城4-3号1-2号,大连,远洋地产有限公司,开发区,20190608,39.0992481321252,121.83007860699459,远洋时代城四期,53,8724,大连远洋基业物业管理有限公司,1.5,辽宁,4,二手房,2012
开发区金源南里14栋-11号一层部分，14号-12号一层部分,大连,大连开建房地产开发有限公司,开发区,20190608,39.06148862675436,121.82503941311765,金源北里安居小区,62,8185,嘉兴物业管理有限公司,0.3,辽宁,4,二手房,1999
沙河口区锦石园24-7号第A2-13幢1单元1层1号,大连,大连鼎新房地产开发有限公司,甘井子,20190608,38.913544290955585,121.59450670056631,鼎新鼎润府,30,20719,大连鼎新物业管理有限公司,0.6,辽宁,4,二手房,2006
开发区兴城路29-81层,大连,大连亿锋集团有限公司,开发区,20190608,39.050214252167194,121.75835946441768,亿锋广场三期,59,15118,大连广恒物业管理有限公司,2.8,辽宁,4,二手房,2015
沙河口区前程街46号4—1—2号,大连,大连欧兰房地产开发有限公司,甘井子,20190608,38.913544290955585,121.59450670056631,耕海山尚,27,16971,大连耕海物业管理有限公司,1.5,辽宁,4,二手房,2010
甘井子区华龙南园34-5号34-库4号34-5号,大连,大连运达房地产集团有限公司,甘井子,20190608,38.98270467597865,121.6117222765123,泊岭紫郡,30,13498,大连怡和物业服务有限公司,0.9,辽宁,4,二手房,2009
沙河口区西南路40号楼,大连,无开发商,沙河口,20190608,38.94143337232082,121.58616557598133,黑石礁景山,19,12122,无物业管理服务,-,辽宁,4,二手房,1990
大连经济技术开发区时代城4-3号1-2号,大连,暂无信息,开发区,20190608,39.0992481321252,121.83007860699459,摩宿公寓,73,7467,大连远洋基业物业管理有限公司,1.5,辽宁,4,二手房,2012
沙河口区长江路738号,大连,勋业（大连）置业有限公司,西岗,20190608,38.913544290955585,121.59450670056631,远洋风景,59,23558,大连远洋风景物业服务中心,1.9,辽宁,4,二手房,2007
甘井子区红旗西路104-7,大连,大连安邦房地产开发有限公司,甘井子,20190608,38.940335495502666,121.52722586363274,水畔香谷,13,14368,大连万科绿色家园物业有限公司,1,辽宁,3,二手房,2007
无门店信息,大连,大连祥和房屋开发有限公司,甘井子,20190608,34.52713835999158,118.76812980670795,祥和花园,45,12172,大连市大北物业管理有限公司,0.4,辽宁,3,二手房,2007
甘井子区华东路22号公建,大连,无开发商,甘井子,20190608,38.97736184953593,121.5935814234334,秀山路,29,12110,街道办事处（居委会）代管物业,0.5,辽宁,3,二手房,1986
沙河口区西南路643号,大连,大连海昌房屋开发有限公司,沙河口,20190608,38.943483429804665,121.5833555851182,兴港花园,6,12443,大连永佳物业管理有限公司,0.3,辽宁,3,二手房,1999
甘井子区华北路花锦园28号23-3-1-2建筑物,大连,大连东特房地产开发有限公司,甘井子,20190608,38.951627958411166,121.5739439799003,东特星中环,24,16502,大连东特祥禾物业管理有限公司,0.8,辽宁,3,二手房,2006
西岗区华北路100号1层5号,大连,大连万达房地产开发有限公司,西岗,20190608,38.92047268927287,121.61862512554262,香海花园,21,16447,大连万达物业管理有限公司,0.8,辽宁,3,二手房,1999
开发区大开高吉里33栋6号,大连,大连开建集团有限公司,开发区,20190608,39.07355836059941,121.8280439450145,高城花园,31,7719,嘉兴物业管理有限公司,0.2,辽宁,3,二手房,2002
沙河口区五一路270-274号,大连,大连誉园房地产开发有限公司,高新园区,20190608,38.913544290955585,121.59450670056631,斯坦福院落,21,21362,第一太平戴维斯物业顾问（北京）有限公司大连分公司,1.2,辽宁,3,二手房,2008
甘井子区泉水D1区37-7号,大连,大连运腾房地产开发有限公司,甘井子,20190608,39.013992871679214,121.61921940045104,锦泉源D4区,27,14023,大连嘉和物业管理有限公司,0.5,辽宁,3,二手房,2007
西岗区鞍山路29号龙畔锦城东门,大连,无开发商,西岗,20190608,38.92763470697088,121.61498923399098,铁路西站,23,12058,无物业管理服务,-,辽宁,3,二手房,1981
中山区武昌街武昌公寓6号公建,大连,暂无信息,中山,20190608,38.912280913445784,121.64921130527547,学府林居,22,10283,暂无信息,1,辽宁,3,二手房,2000
西岗区鞍山路65-5号,大连,大连晟大房地产开发有限公司,沙河口,20190608,38.926971569913064,121.60260230348328,亿鑫大厦,3,13411,大连德一物业管理有限公司,1,辽宁,3,二手房,2003
中山区益民街16号1层1号,大连,无开发商,中山,20190608,38.93092761298906,121.66470740073377,益民街（三八广场）,9,14101,无物业管理服务,-,辽宁,3,二手房,1992
无门店信息,大连,大连航宇房屋开发有限公司,甘井子,20190608,34.52713835999158,118.76812980670795,西郊棠梨园,10,12059,渤海吉祥物业管理有限公司,0.5,辽宁,3,二手房,2007
中山区益民街16号1层1号,大连,无开发商,中山,20190608,38.93092761298906,121.66470740073377,兴盛里（三八广场）,12,13645,无物业管理服务,-,辽宁,3,二手房,1993
高新园区海苑街36号1单元2号公建,大连,大连海苑房屋开发有限公司,高新园区,20190608,20.06392317589085,110.32302599457326,海苑花园,26,14586,大连家园物业有限公司,0.3,辽宁,3,二手房,2000
甘井子区祥龙街2号楼1单元1楼1号,大连,大连宏孚房屋开发有限公司,甘井子,20190608,38.988045874482445,121.60439401971377,宏孚小区,29,10828,无物业管理服务,-,辽宁,3,二手房,1995
沙河口区西南路851号3单元1层3号,大连,无开发商,沙河口,20190608,38.94344210837944,121.58246796944378,春柳街,13,11750,街道办事处（居委会）代管物业,0.1,辽宁,3,二手房,1985
无门店信息,大连,大连腾达房地产开发有限公司,中山,20190608,34.52713835999158,118.76812980670795,紫竹轩,7,16845,大连市晟阳物业管理有限公司,1,辽宁,3,二手房,2003
甘井子区凌秀路37号-1链家地产,大连,大连九九集团有限公司,高新园区,20190608,38.883794285403965,121.52361997548515,文荟小区,8,12848,大连理工物业管理中心,0.5,辽宁,3,二手房,1994
金州新区八一路金都嘉园1号楼1号公建,大连,大连市金州区房屋开发公司,金州,20190608,39.05525210261778,121.74865634199398,古城丁区,177,7360,街道办事处（居委会）代管物业,0.1,辽宁,3,二手房,1993
经济技术开发区红星海-A区81-2号1层,大连,远洋地产有限公司,开发区,20190608,39.027851194371685,121.80327394132297,红星海三期境界,90,14017,大连远洋基业物业管理有限公司,2.2,辽宁,3,二手房,2012
高新园区火炬路18号,大连,大连联合柏立置业有限公司,高新园区,20190608,38.937738080520404,117.39340752036043,柏悦国际公寓,47,17975,大连柏悦国际公寓管理有限公司,3.5,辽宁,3,二手房,2012
无门店信息,大连,大连铁龙房地产开发有限公司,甘井子,20190608,34.52713835999158,118.76812980670795,连海金源,32,14140,大连铁龙安居物业管理有限公司,1.3,辽宁,3,二手房,2012
金州区光明街道育才街42-6号1-2层,大连,无开发商,金州,20190608,39.109080894078986,121.7182584929096,光明小区(金州),12,8676,无物业管理服务,0.5,辽宁,3,二手房,1995
沙河口区五一路326号,大连,无开发商,高新园区,20190608,38.913544290955585,121.59450670056631,双语学校,16,22026,无物业管理服务,0.2,辽宁,3,二手房,1998
金州区拥政街道733号-8号1-2层,大连,无开发商,金州,20190608,39.11690610445662,121.73030803603723,414小区,86,7413,街道办事处（居委会）代管物业,0.5,辽宁,3,二手房,1989
沙河口区联合路133号,大连,大连新型房地产开发有限公司,沙河口,20190608,38.91608561262676,121.60480987310456,21中天兴花园一期,32,19425,大连万泰物业管理有限公司,0.5,辽宁,3,二手房,1998
甘井子区泉水K4区1号2单元1层1号,大连,暂无信息,甘井子,20190608,39.01482019232349,121.63242049308988,龙畔金泉五期K3区,63,13938,大连新兴物业管理有限公司,0.5,辽宁,3,二手房,2008
甘井子区华东路33-5号,大连,暂无信息,甘井子,20190608,38.97497080220593,121.59479866243332,巾帼小区,21,11856,大连新华物业管理有限公司,-,辽宁,3,二手房,1993
甘井子金地艺境博艺西园2-1号,大连,大连天盛房地产开发有限公司,甘井子,20190608,39.04402110608829,121.665484498555,金地檀境,64,15072,大连金地物业管理有限公司,2.6,辽宁,3,二手房,2016
甘井子区锦城东园1号3单元1层2号,大连,大连鹏生房地产开发有限公司,甘井子,20190608,38.952805477462775,121.55656194973994,鹏辉新纪元,14,16340,大连鹏辉物业管理有限公司,0.5,辽宁,3,二手房,2006
甘井子区汇仁街19号12号楼1单元102室,大连,大连凯祥房地产开发有限公司,甘井子,20190608,38.99746297497168,121.58917714380617,名贵山庄亲情园,22,14174,大连弘益达物业管理有限公司,0.5,辽宁,3,二手房,2002
无门店信息,大连,大连晨阳房地产开发有限公司,金州,20190608,34.52713835999158,118.76812980670795,金科理想城,31,9463,金科物业服务集团有限公司,1.6,辽宁,3,二手房,2014
金州区拥政街道733号-8号1-2层,大连,大连市金州区房屋开发公司,金州,20190608,39.11690610445662,121.73030803603723,桂林小区,78,7127,街道办事处（居委会）代管物业,0.3,辽宁,3,二手房,1993
甘井子区红旗花园23号楼19-24轴公建,大连,大连科宏房屋开发有限公司,甘井子,20190608,38.93108029984587,121.54902145022133,海港楼,18,9063,大连科海物业有限公司,0.2,辽宁,3,二手房,1996
西岗区黄河路362号公建,大连,大连万峰房地产开发有限公司,西岗,20190608,38.91819905243802,121.61365779430986,万达华府一期,57,28004,大连万景物业管理有限公司,1.3,辽宁,3,二手房,2005
开发区翠竹小区33栋4-1-1号,大连,暂无信息,开发区,20190608,30.635492106460237,119.69169575745704,翠竹中区,26,10107,嘉兴物业管理有限公司,0.3,辽宁,3,二手房,1996
高新园区红凌路732-4号,大连,大华集团大连置业有限公司,高新园区,20190608,38.90204708664442,121.53244406374695,大华锦绣华城一期,53,25232,大连大华物业管理有限公司,2.5,辽宁,3,二手房,2010
西岗区黄河路362号公建,大连,大连万达商业地产有限公司,西岗,20190608,38.91819905243802,121.61365779430986,万达华府二期,49,23201,大连万景物业管理有限公司,1.6,辽宁,3,二手房,2006
无门店信息,大连,暂无信息,甘井子,20190608,34.52713835999158,118.76812980670795,海禄苑小区,23,9665,无物业管理服务,0.9,辽宁,3,二手房,2000
西岗区平等街21号1层2号,大连,裕景兴业（大连）有限公司,西岗,20190608,38.92251066253164,121.63236845125735,中心裕景,100,20968,第一太平戴维斯物业顾问（北京）有限公司大连分公司,3.8,辽宁,3,二手房,2012
开发区景和园1-7,大连,开发区城建局,开发区,20190608,30.41892168817929,120.30896459202738,小孤山东里,87,6436,大连广谊物业管理有限公司,0.4,辽宁,3,二手房,2000
沙河口区星海广场B3区20—3号,大连,大连华奇置业有限公司,沙河口,20190608,38.88782715536473,121.5869168319735,星海旺座,24,14155,大连佳和物业管理有限公司,2.5,辽宁,3,二手房,2005
开发区红星海B区212-1,大连,远洋地产有限公司,开发区,20190608,39.027851194371685,121.80327394132297,红星海五期岚谷,118,13881,大连远洋基业物业管理有限公司,2.2,辽宁,3,二手房,2012
无门店信息,大连,大连软件园世通开发有限公司,高新园区,20190608,34.52713835999158,118.76812980670795,亿达普罗旺斯二期,83,20731,亿达物业管理有限公司,2.6,辽宁,3,二手房,2014
甘井子区金家街17-7号,大连,暂无信息,甘井子,20190608,38.97493697764367,121.60110987128529,金四街,51,19873,无物业管理服务,-,辽宁,3,二手房,1960
金州区小平岛B组团4号楼3号商铺,大连,大连安达房地产开发有限公司,高新园区,20190608,39.05643299166072,121.78943558267059,小平岛亲海园A2组团,43,20652,大连凯尔富物业管理有限公司,1.7,辽宁,3,二手房,2007
中山区中南路店212号门头房,大连,峰尚房屋开发有限公司,中山,20190608,38.91149759691359,121.67700561077149,峰尚中南,14,15981,大连银洲物业管理有限公司,2.2,辽宁,3,二手房,2011
开发区正恒园1-16,大连,大连富华房地产有限公司,开发区,20190608,39.04823944344617,121.76165468797754,正泰园A区,15,12018,嘉泰物业管理有限公司,1.9,辽宁,3,二手房,2012
沙河口区昌黎街77号楼第1层公建,大连,大连金新房地产开发有限公司,沙河口,20190608,38.91974518366595,121.5902918379551,福佳新天地,79,14286,大连福佳物业管理有限公司,1.8,辽宁,3,二手房,2003
开发区黄海西路201号107公建,大连,无开发商,开发区,20190608,39.04942604506828,121.80126318235419,岗盛里小区,108,6927,街道办事处（居委会）代管物业,0.5,辽宁,3,二手房,1995
中山区中青街87号一单元107,大连,无开发商,中山,20190608,38.90213494248529,121.65806522267005,葵园巷,14,12482,无物业管理服务,-,辽宁,3,二手房,1992
中山区南山路59号1层4号,大连,大连铁路房地产开发有限责任公司,中山,20190608,38.91992239075882,121.6479206962747,延安小区,18,20780,大连铁路物业管理有限公司,0.5,辽宁,3,二手房,1995
甘井子区玉丽街39号楼3号公建,大连,大连润置房地产有限公司,甘井子,20190608,38.98706755029984,121.55605471197089,华润二十四城,23,19316,华润物业（大连）有限公司,3.1,辽宁,3,二手房,2018
大连市甘井子区张前路620-18号（第19幢1单元1跃2层14号）,大连,无开发商,甘井子,20190608,38.98764207496216,121.52409526893047,嘉安边防家园,15,12464,大连新型物业管理有限公司,1,辽宁,3,二手房,2009
中山区爱华街13号,大连,无开发商,中山,20190608,38.92541607518685,121.6535728031028,九中安乐街,45,36686,无物业管理服务,-,辽宁,3,二手房,1990
无门店信息,大连,大连君悦房地产开发有限公司,甘井子,20190608,34.52713835999158,118.76812980670795,君悦晟景,24,12668,大连弘实物业有限公司,1.2,辽宁,3,二手房,2011
无门店信息,大连,大连九城房地产开发有限公司,开发区,20190608,34.52713835999158,118.76812980670795,新城丽景,15,10355,大连恒瑞物业管理有限公司,1.2,辽宁,3,二手房,2015
西岗区康平街2号（5号楼3-1-3号）,大连,大连北洋房屋开发公司,西岗,20190608,38.91044414697888,121.61980769264477,胜利花园,25,15214,大连宏成物业管理有限公司,0.5,辽宁,3,二手房,1997
中山区岭前街53-5,大连,暂无信息,中山,20190608,38.89487069426055,121.65795959631497,胜鼎桃源,25,21302,暂无信息,1.8,辽宁,3,二手房,2015
甘井子区华龙南园12-4-3-1-3,大连,大连瑞祥房地产开发有限公司,甘井子,20190608,38.98528794231248,121.61028969481718,今都小区,50,12186,大连泰安物业管理有限公司,0.2,辽宁,3,二手房,1996
大连市甘井子区椒房街24号楼2-104链家地产,大连,大连凯祥房地产开发有限公司,甘井子,20190608,38.985363789837166,121.61034055597686,椒金山庄,21,17057,大连凯祥物业管理有限公司,0.5,辽宁,3,二手房,2000
开发区高新里6栋-8,大连,无开发商,开发区,20190608,39.0710895068195,121.82860134358343,怡海花园二期,19,7839,街道办事处（居委会）代管物业,0.2,辽宁,3,二手房,2002
高新园区海苑街36号1单元2号公建,大连,大连鸿越房地产开发有限公司,高新园区,20190608,20.06392317589085,110.32302599457326,康桥小镇,23,19930,大连长青物业管理中心,1.3,辽宁,3,二手房,2010
大连市开发区抚顺街30号,大连,无开发商,开发区,20190608,38.92272284555705,121.5977239817503,翠南管委会院,23,9745,街道办事处（居委会）代管物业,0.5,辽宁,3,二手房,1998
高新园敬贤街23-11号,大连,中海东丰地产（大连）有限公司,高新园区,20190608,38.869456648212356,121.53023725049893,中海华庭,67,20331,大连中海物业管理有限公司,2,辽宁,3,二手房,2009
中山区山屏街116号1-1,大连,无开发商,中山,20190608,38.90729438486833,121.68598159980013,怡和街,31,12365,街道办事处（居委会）代管物业,0.5,辽宁,3,二手房,1990
中山区职工街96号1-3层公建,大连,大连名仕房地产开发有限公司,中山,20190608,38.92565613737007,121.66193575790903,名仕国际公寓,25,10883,大连名流物业有限公司,3.8,辽宁,3,二手房,2004
西岗区长春路334号,大连,无开发商,西岗,20190608,38.89807766522607,121.63221082858387,星火小区,14,9390,大连自然物业管理中心,0.5,辽宁,3,二手房,1999
无门店信息,大连,大连乾豪集团有限公司,开发区,20190608,34.52713835999158,118.76812980670795,乾豪新界,80,11306,大连乾豪物业管理有限公司,1.7,辽宁,3,二手房,2015
甘井子区哲林北园17-6号,大连,大连科宏房屋开发有限公司,甘井子,20190608,38.9600267109581,121.53876726228256,虹港新居,28,13498,大连空港物业管理有限公司,0.4,辽宁,3,二手房,1996
西岗区黄河路362号公建,大连,大连万佳房地产开发有限公司,西岗,20190608,38.91819905243802,121.61365779430986,优豪斯,12,25347,大连万佳物业管理有限公司,1.2,辽宁,3,二手房,2003
沙河口区西南路161号,大连,无开发商,沙河口,20190608,38.89269676588945,121.56639953951542,西沟小区,33,12411,无物业管理服务,-,辽宁,3,二手房,1990
开发区黄海西路201号107公建,大连,无开发商,开发区,20190608,39.04942604506828,121.80126318235419,新辰里,30,7501,街道办事处（居委会）代管物业,0.5,辽宁,3,二手房,1998
甘井子区佳林北园2-7号,大连,大连瑞泰祥房地产开发有限公司,甘井子,20190608,38.96331610956877,121.52802328494242,缇香漫城,56,20855,大连瑞泰祥物业服务有限公司,2,辽宁,3,二手房,2013
甘井子区华东路33-5号,大连,无开发商,甘井子,20190608,38.97497080220593,121.59479866243332,秀水小区,17,11168,大连广宇物业有限责任公司,0.5,辽宁,3,二手房,1994
甘井子区红南东街7-7号,大连,大连良运房地产开发有限公司,甘井子,20190608,38.92880462247992,121.54144910207062,山居笔记,22,16433,大连良运物业管理有限公司,1.5,辽宁,3,二手房,2009
金州区光明街道育才街42-6号1-2层,大连,三门振兴房产开发公司,金州,20190608,39.109080894078986,121.7182584929096,育才小区,13,8161,无物业管理服务,-,辽宁,3,二手房,1989
无门店信息,大连,大连新兴海韵房地产开发有限公司,金州,20190608,34.52713835999158,118.76812980670795,通用阳光丽景,86,7081,街道办事处（居委会）代管物业,1.4,辽宁,3,二手房,2013
西岗区八一路102号,大连,大连澳南房屋开发有限公司,中山,20190608,38.92047268927287,121.61862512554262,明秀山庄A区,54,34387,绿城物业服务集团有限公司大连分公司,1.9,辽宁,3,二手房,2008
沙河口区恒利园42号-8,大连,大连三寰房屋开发有限公司,沙河口,20190608,38.93357562498634,121.57914091532649,三寰芳草园,23,16392,大连空港物业管理有限公司,0.4,辽宁,3,二手房,2003
高新园区硅谷假日小区25号楼地下室,大连,暂无信息,高新园区,20190608,38.86467854992112,121.53720784613759,硅谷假日公寓,18,14876,大连斌弘物业管理有限公司,1.5,辽宁,3,二手房,2005
甘井子区甘井子路32号楼1单元1楼9号,大连,大连市建设控股有限公司,甘井子,20190608,38.982488275116516,121.63345389253514,胜景家园,12,12647,街道办事处（居委会）代管物业,0.9,辽宁,3,二手房,2009
西岗区鞍山路65-5号,大连,大连万达房地产开发有限公司,沙河口,20190608,38.926971569913064,121.60260230348328,79中广电中心,60,28738,无物业管理服务,-,辽宁,3,二手房,1988
大连市甘井子区辛如街35号1单元1层1号,大连,大连新星房地产开发有限公司,甘井子,20190608,38.96862607066881,121.52294869064194,新星绿城四期,34,14667,大连生生物业管理有限公司,0.8,辽宁,3,二手房,2008
开发区黄海西路201号107公建,大连,无开发商,开发区,20190608,39.04942604506828,121.80126318235419,自由港,46,6804,大连安洁物业管理服务有限公司,0.5,辽宁,3,二手房,2006
开发区红梅小区19栋-2-1-1号,大连,大开中和祥房地产开发有限公司,开发区,20190608,29.906498897603264,121.5913630631805,金丰大厦,53,9978,新加坡物业管理有限公司,1.9,辽宁,3,二手房,2012
高新园区火炬路18号,大连,大连嘉创房地产开发有限公司,高新园区,20190608,38.937738080520404,117.39340752036043,嘉创E人国际,73,16119,大连紫金物业管理有限公司,2,辽宁,3,二手房,2011
中山区益民街16号1层1号,大连,中海地产,中山,20190608,38.93092761298906,121.66470740073377,中海海港城,72,19417,中海物业,4.2,辽宁,3,二手房,2015
金州新区八一路金都嘉园1号楼1号公建,大连,大连元新房地产开发有限公司,金州,20190608,39.05525210261778,121.74865634199398,华夏金城,63,9936,大连元新物业管理有限公司,1.2,辽宁,3,二手房,2008
西岗区八一路102号,大连,无开发商,西岗,20190608,38.92047268927287,121.61862512554262,杏环街,17,9834,无物业管理服务,-,辽宁,3,二手房,1994
开发区黄海西路201号107公建,大连,开发区城建局,开发区,20190608,39.04942604506828,121.80126318235419,东阁里,55,6981,大连经济技术开发区海青物业有限公司,0.4,辽宁,3,二手房,1994
甘井子区泉水B5区27-9,大连,大连运达房地产集团有限公司,甘井子,20190608,39.01477152073682,121.60970286326823,锦泉源B6区,19,14309,政治物业管理有限公司,0.5,辽宁,3,二手房,2012
中山区华乐街71号公建,大连,无开发商,中山,20190608,38.923187679200566,121.6843197903016,春园里,29,12182,无物业管理服务,-,辽宁,3,二手房,1990
西岗区胜利路33号,大连,暂无信息,西岗,20190608,38.91309771954841,121.62500886627636,34中纪念街,61,25185,无物业管理服务,-,辽宁,3,二手房,1990
沙河口区中山路417A-4号,大连,无开发商,沙河口,20190608,38.90740323140171,121.59484801084653,同泰街,22,12921,无物业管理服务,0.5,辽宁,3,二手房,1999
甘井子区美域盛景A2区10-6,大连,大连时代房地产开发有限公司,甘井子,20190608,39.006221362805846,121.61022278003976,泉水友好园,39,13415,大连爱静物业服务有限公司,0.5,辽宁,3,二手房,1998
甘井子区泉水B5区27-9,大连,大连华智房地产开发有限公司,甘井子,20190608,39.01477152073682,121.60970286326823,华远新都汇广场,33,12162,街道办事处（居委会）代管物业,1,辽宁,3,二手房,2010
开发区小孤山西里3栋-11号,大连,大连广隆房地产开发有限公司,开发区,20190608,39.02715282297674,121.80682183666346,文华园,41,10056,大连广隆物业管理有限公司,1.1,辽宁,3,二手房,2007
金州区同济路44号,大连,大连金州金山房地产开发有限公司,金州,20190608,39.10476859984152,121.71234684495865,金山小区,94,7184,大连金山物业管理有限公司,-,辽宁,3,二手房,1999
高新园区黄浦路901S号1单元1层3号,大连,大连金真源集团房地产开发有限公司,高新园区,20190608,38.85845801548294,121.51687109601923,山海一家一期,53,14416,大连龙海物业管理有限公司,0.6,辽宁,3,二手房,2005
甘井子区虹港路16号楼1层公建,大连,亿达房地产开发有限公司,甘井子,20190608,38.9645939333502,121.553851837474,虹港路（机场商圈）,39,12865,亿达物业管理有限公司,0.2,辽宁,3,二手房,1996
金州区凤翔路220号,大连,大连鸿玮置业有限公司,金州,20190608,39.08410553937731,121.77700083356399,鸿玮澜山一期,30,15023,大连鸿玮物业服务有限公司,1.8,辽宁,3,二手房,2009
甘井子区虹港路16号楼1层公建,大连,大连建园房地产开发有限公司,甘井子,20190608,38.9645939333502,121.553851837474,城市印象,52,15403,大连天兴物业管理有限公司,1.8,辽宁,3,二手房,2011
沙河口区黄河路535号,大连,大连城市建设集团有限公司,沙河口,20190608,38.91773777159567,121.60217159922856,79中至诚小区,38,27405,大连天河物业管理有限公司,0.1,辽宁,3,二手房,1958
沙河口区绿清街12号,大连,大连绿波房屋开发集团有限公司,沙河口,20190608,38.93851335419565,121.57334844377094,绿香花园,19,13325,大连大伟物业管理有限公司,0.4,辽宁,3,二手房,2001
无门店信息,大连,新兴际华集团有限公司,甘井子,20190608,34.52713835999158,118.76812980670795,中华城,20,15881,大连仲邦维行物业管理有限公司,2.5,辽宁,3,二手房,2017
无门店信息,大连,北方沿海房地产开发（大连）有限公司,沙河口,20190608,34.52713835999158,118.76812980670795,星海大观,216,17428,北京世邦魏理仕物业管理服务有限公司大连分公司,4.4,辽宁,3,二手房,2008
中山区杏林街66—5号,大连,无开发商,中山,20190608,38.92572771377599,121.66490555592502,39中民生里,12,28082,街道办事处（居委会）代管物业,0.5,辽宁,3,二手房,1990
开发区湾里南12栋-16-17-18号,大连,大连金湾实业有限公司,开发区,20190608,39.070782084451,121.8506739675913,湾里西,65,7688,广宜物业有限公司,0.2,辽宁,3,二手房,2003
大连市开发区湾里东5-6号,大连,大连明和房地产开发有限公司,开发区,20190608,39.07275772231556,121.85888789351343,青国青城,59,11358,大连豪斯沃克物业有限公司,1.5,辽宁,3,二手房,2014
西岗区华北路100号1层5号,大连,大连双振房屋开发有限公司,沙河口,20190608,38.92047268927287,121.61862512554262,香茗苑,6,15861,大连双振物业有限公司,0.5,辽宁,3,二手房,2003
沙河口区华北路404号,大连,暂无信息,沙河口,20190608,38.8862815932937,121.59082948696123,柳华街,26,11123,无物业管理服务,0.1,辽宁,3,二手房,1985
无门店信息,大连,大连金宸集团,金州,20190608,34.52713835999158,118.76812980670795,金宸联郡,29,8811,大连四通物业管理有限公司,1.4,辽宁,3,二手房,2015
中山区鲁迅路184号1层B—A,大连,无开发商,中山,20190608,38.92590875965419,121.67594393403164,海滨住宅小区（寺儿沟商圈）,8,11360,无物业管理服务,-,辽宁,2,二手房,1995
无门店信息,大连,无开发商,西岗,20190608,34.52713835999158,118.76812980670795,双兴财富长街（大菜市商圈）,33,14139,街道办事处（居委会）代管物业,0.5,辽宁,3,二手房,2004
沙河口区五四路207-1-9号,大连,无开发商,沙河口,20190608,38.913544290955585,121.59450670056631,集贤北街,2,14315,无物业管理服务,0.5,辽宁,2,二手房,1995
无门店信息,大连,大连海华房地产开发有限公司,甘井子,20190608,34.52713835999158,118.76812980670795,丽湾海景,27,12111,大连海华房地产开发有限公司,0.5,辽宁,2,二手房,2010
中山区金城街26号一楼,大连,无开发商,中山,20190608,38.922282529515634,121.65214466263014,友好路,6,15207,无物业管理服务,-,辽宁,2,二手房,1990
金州区站前街道盛滨花园B区13号楼2号公建,大连,无开发商,金州,20190608,39.09609011892329,121.7335816409767,金源花园小区,19,6886,街道办事处（居委会）代管物业,0.5,辽宁,2,二手房,1998
金州新区八一路金都嘉园1号楼1号公建,大连,大连天程置业有限公司,金州,20190608,39.05525210261778,121.74865634199398,御河壹號,12,10001,大连天程置业有限公司,1.2,辽宁,2,二手房,2015
中山区解放路604号,大连,无开发商,中山,20190608,38.89026319122045,121.66407876092346,鸣鹤街,8,15139,街道办事处（居委会）代管物业,0.5,辽宁,2,二手房,1998
中山区清溪南街11号,大连,暂无信息,中山,20190608,38.88919604283904,121.66466481004835,秀峰东园,3,13004,社区物业,-,辽宁,2,二手房,1994
沙河口区华北路404号,大连,无开发商,沙河口,20190608,38.8862815932937,121.59082948696123,华北路（春柳商圈）,9,10744,街道办事处（居委会）代管物业,0.1,辽宁,2,二手房,1981
西岗区绕山路31号公建一层东侧,大连,无开发商,西岗,20190608,38.90257514466717,121.61412736644739,康庄街,6,10074,无物业管理服务,-,辽宁,2,二手房,1991
无门店信息,大连,大连树源世嘉房地产开发有限公司,金州,20190608,34.52713835999158,118.76812980670795,龙山小区,29,6479,民盛集团物业管理有限公司,0.5,辽宁,2,二手房,2000
开发区松苑街23号,大连,无开发商,开发区,20190608,22.52087435807652,113.40156105086167,松林里小区,5,12928,街道办事处（居委会）代管物业,0.5,辽宁,2,二手房,1996
西岗区绕山路31号公建一层东侧,大连,无开发商,西岗,20190608,38.90257514466717,121.61412736644739,槐花大厦,10,9299,无物业管理服务,-,辽宁,2,二手房,1997
中山区中南路226号,大连,大连澳南房屋开发有限公司,中山,20190608,38.90029610333926,121.68178899957817,伊顿山庄,10,24198,大连澳南物业管理有限公司,0.8,辽宁,2,二手房,2005
甘井子区华龙南园12-4-3-1-3,大连,大连融汇置业有限公司,甘井子,20190608,38.98528794231248,121.61028969481718,格林翠庭,8,14859,北京房修一物业管理有限公司,1.3,辽宁,2,二手房,2009
沙河口区华北路404号,大连,无开发商,沙河口,20190608,38.8862815932937,121.59082948696123,园丁巷,5,9759,街道办事处（居委会）代管物业,0.3,辽宁,2,二手房,1990
西岗区长春路334号,大连,无开发商,西岗,20190608,38.89807766522607,121.63221082858387,花园巷,2,10027,无物业管理服务,-,辽宁,2,二手房,1990
沙河口区五一路219-1,大连,大连圣北房地产有限公司,沙河口,20190608,38.913544290955585,121.59450670056631,电业花园,13,14539,大连市沙河口房产物业管理有限公司,0.3,辽宁,3,二手房,1999
中山区中南路226号,大连,大连大业房屋开发有限公司,中山,20190608,38.90029610333926,121.68178899957817,阳光花园二期,6,13847,大连全得利物业管理有限公司,0.5,辽宁,2,二手房,1997
中山区民运巷 47号1层2号,大连,大连新型房地产开发总公司,中山,20190608,38.905955122300846,121.64798148011702,葵英小区,9,12925,街道办事处（居委会）代管物业,0.3,辽宁,2,二手房,1999
中山区清溪南街11号,大连,无开发商,中山,20190608,38.88919604283904,121.66466481004835,小龙街,13,17879,无物业管理服务,0.5,辽宁,2,二手房,1985
沙河口区黄河路883号,大连,无开发商,沙河口,20190608,38.919826721475204,121.57749657966676,黄河路（辽师商圈）,3,11804,大连辽南物业管理有限公司,0.5,辽宁,2,二手房,1970
中山区共建巷61号,大连,无开发商,中山,20190608,38.91828093658718,121.66259221532148,39中明泽街,15,23422,无物业管理服务,-,辽宁,2,二手房,1993
开发区红梅小区19栋-2-1-1号,大连,无开发商,开发区,20190608,29.906498897603264,121.5913630631805,金玛海景,6,11941,街道办事处（居委会）代管物业,1,辽宁,2,二手房,2007
中山区共建巷61号,大连,无开发商,中山,20190608,38.91828093658718,121.66259221532148,39中中化街,1,24155,街道办事处（居委会）代管物业,0.5,辽宁,2,二手房,1995
中山区益民街16号1层1号,大连,无开发商,中山,20190608,38.93092761298906,121.66470740073377,永胜街（三八广场）,14,14409,无物业管理服务,-,辽宁,2,二手房,1993
中山区北斗街53号1层1号,大连,大连大森房地产开发有限公司,中山,20190608,38.92727355733075,121.67002970974048,东港林苑,22,17244,大连美心物业管理有限公司,2.8,辽宁,2,二手房,2013
无门店信息,大连,大连招源房地产有限公司,甘井子,20190608,34.52713835999158,118.76812980670795,招商海德公园,21,17704,招商局物业管理有限公司大连分公司,2.6,辽宁,2,二手房,2018
沙河口区华北路404号,大连,大连元泰房屋开发有限公司,沙河口,20190608,38.8862815932937,121.59082948696123,福居家园,6,14423,渤海吉祥物业管理有限公司,0.5,辽宁,2,二手房,2003
中山区虎滩路176号4-1-2,大连,大连万达房地产开发有限公司,中山,20190608,38.890884710033156,121.69257379232747,碧涛南园,6,16192,大连虎滩置业物业管理有限公司,0.2,辽宁,2,二手房,1998
莲花山路89-3号,大连,无开发商,沙河口,20190608,38.902848261803356,121.6041720815823,拥民巷,4,11067,无物业管理服务,-,辽宁,2,二手房,2000
中山区高尚路28-1号,大连,无开发商,中山,20190608,38.892673425111305,121.67148833870213,高原街,23,10259,街道办事处（居委会）代管物业,0.5,辽宁,2,二手房,1996
开发区松苑街23号,大连,暂无信息,开发区,20190608,22.52087435807652,113.40156105086167,松峪里二期,6,13190,大连中信物业管理有限公司,0.5,辽宁,2,二手房,2000
甘井子区泉水P3区35-2号,大连,暂无信息,甘井子,20190608,39.01530162252779,121.63546089163083,泉水P2区,5,11389,暂无信息,1.2,辽宁,2,二手房,2014
中山区中南路226号,大连,大连亿成房屋开发有限公司,中山,20190608,38.90029610333926,121.68178899957817,亿成花园,4,14852,大连维尔利物业管理有限公司,0.8,辽宁,2,二手房,2000
甘井子区虹港路16号楼1层公建,大连,大连祥盛房屋开发有限公司,甘井子,20190608,38.9645939333502,121.553851837474,祥和新家园,14,15187,大连东特祥禾物业管理有限公司,0.5,辽宁,2,二手房,2002
金州区拥政街道733号-8号1-2层,大连,大连盛铭资产管理有限公司,金州,20190608,39.11690610445662,121.73030803603723,安盛花园（金州）,19,10835,大连经济技术开发区海青物业有限公司,1,辽宁,2,二手房,2000
金州区拥政街道733号-8号1-2层,大连,无开发商,金州,20190608,39.11690610445662,121.73030803603723,花园小区,20,8285,大连四通物业管理有限公司,0.1,辽宁,2,二手房,1993
大连市甘井子中华路街道汇畅街48号,大连,大连嘉盈置业有限公司,甘井子,20190608,39.0059299196697,121.59621871231741,宏都熙景,34,22355,大连宏都物业管理有限公司,2.3,辽宁,2,二手房,2016
高新园区聚贤路36号5幢1单元1层1号,大连,大连海创房地产开发有限公司,高新园区,20190608,32.31472011562832,119.46141263909165,海创半山壹号,60,17215,大连海创物业管理有限公司,1.8,辽宁,2,二手房,2011
甘井子区芳韵街31号,大连,亿达集团大连房地产开发有限公司,甘井子,20190608,38.95628814568166,121.59125586946814,亿达世纪城,55,24372,亿达物业管理有限公司,0.9,辽宁,2,二手房,2002
大连市沙河口区知邻街50号,大连,大连亿达房地产股份有限公司,沙河口,20190608,38.913544290955585,121.59450670056631,东方圣荷西,35,24647,亿达物业管理有限公司,2.6,辽宁,2,二手房,2008
莲花山路89-3号,大连,无开发商,沙河口,20190608,38.902848261803356,121.6041720815823,新华街,11,13435,无物业管理服务,-,辽宁,2,二手房,1999
甘井子区华北路花锦园28号23-3-1-2建筑物,大连,大连东特房地产开发有限公司,甘井子,20190608,38.951627958411166,121.5739439799003,星加坡花园,24,18206,大连东特祥禾物业管理有限公司,0.6,辽宁,2,二手房,2004
中山区中青街43号,大连,大连亿达房地产股份有限公司,中山,20190608,38.90150598268117,121.65711014604845,青云映山,19,27168,亿达物业管理有限公司,1.3,辽宁,2,二手房,2005
无门店信息,大连,暂无信息,开发区,20190608,34.52713835999158,118.76812980670795,十里岗小区,59,5870,大连经济技术开发区盛辉物业服务有限公司,0.5,辽宁,2,二手房,1996
无门店信息,大连,大连软件园恒荣开发有限公司,高新园区,20190608,34.52713835999158,118.76812980670795,亿达普罗旺斯三期,29,21049,亿达物业管理有限公司,2.6,辽宁,2,二手房,2017
金州区鹏程家园53#-8,大连,大连海富花园开发有限公司,开发区,20190608,39.03523987258615,121.80826248065051,鹏程家园（开发区）,7,8276,广宜物业有限公司,1.2,辽宁,2,二手房,2006
西岗区香炉礁24号1-1,大连,中瑞置业（大连）有限公司,西岗,20190608,38.92047268927287,121.61862512554262,香周首府,78,19426,中融物业管理有限公司,3,辽宁,2,二手房,2014
沙河口区联合路133号,大连,大连新型房地产开发有限公司,沙河口,20190608,38.91608561262676,121.60480987310456,21中联德小区,6,21601,大连新型物业管理有限公司,0.5,辽宁,2,二手房,1998
大连市甘井子区逸林南园1-1号,大连,暂无信息,甘井子,20190608,38.95800216293212,121.53151895549547,三鼎春天B区,45,27791,瑞联德（大连）物业管理有限公司,3.2,辽宁,2,二手房,2015
西岗区鞍山路29号龙畔锦城东门,大连,大连铁路房地产开发有限责任公司,西岗,20190608,38.92763470697088,121.61498923399098,龙畔锦城,42,19890,大连亚航物业管理有限公司,1.2,辽宁,2,二手房,2009
中山区益民街16号1层1号,大连,大连三鑫房地产开发有限公司,中山,20190608,38.93092761298906,121.66470740073377,金和苑,16,22600,大连报业物业管理有限公司三鑫分公司,3.5,辽宁,2,二手房,2004
中山区武昌街武昌公寓6号公建,大连,暂无信息,中山,20190608,38.912280913445784,121.64921130527547,南山西花厅,8,11853,暂无信息,1,辽宁,2,二手房,-
无门店信息,大连,大连鲁能置业有限公司,金州,20190608,34.52713835999158,118.76812980670795,鲁能优山美地,89,11325,长城物业集团股份有限大连分公司,1.9,辽宁,2,二手房,2013
沙河口区长江路946号-9,大连,无开发商,沙河口,20190608,38.913544290955585,121.59450670056631,机车商厦,7,13943,街道办事处（居委会）代管物业,0.3,辽宁,2,二手房,1997
甘井子区山东路商业街D区12号公建,大连,大连市大钢集团,甘井子,20190608,39.001060021502965,121.58883960371418,梅山路,11,12335,街道办事处（居委会）代管物业,0.5,辽宁,2,二手房,1982
西岗区康平街2号（5号楼3-1-3号）,大连,无开发商,西岗,20190608,38.91044414697888,121.61980769264477,长太巷,7,11351,无物业管理服务,-,辽宁,2,二手房,1990
中山区华乐街107-115号,大连,大连复城置业有限公司,中山,20190608,38.92093821499401,121.68879267531725,星光耀广场,15,23549,上海复瑞物业管理有限公司大连分公司,4.8,辽宁,2,二手房,2015
大连市金州新区友谊街道和平路59-10号1-2层公建,大连,大连金连房地产开发有限公司,金州,20190608,39.112168401852266,121.72006917947859,金连佳地,20,11125,街道办事处（居委会）代管物业,1.5,辽宁,2,二手房,2010
大连市金州区友谊街道南金华城25号1-2层1号,大连,大连金华房地产开发有限公司,金州,20190608,39.128677228885614,121.71356109978767,金华小区二期,38,8216,大连金华兴物业有限公司,0.5,辽宁,2,二手房,2006
甘井子区华北路花锦园28号23-3-1-2建筑物,大连,无开发商,甘井子,20190608,38.951627958411166,121.5739439799003,久胜街,17,16358,街道办事处（居委会）代管物业,0.1,辽宁,2,二手房,1989
沙河口区富国街34-3,大连,无开发商,沙河口,20190608,38.90159716600704,121.58930603357904,星海街,38,12282,无物业管理服务,-,辽宁,2,二手房,1990
开发区松苑街23号,大连,无开发商,开发区,20190608,22.52087435807652,113.40156105086167,松峪里一期,18,12259,大连中信物业管理有限公司,0.5,辽宁,2,二手房,2000
中山区解放路471-22号,大连,无开发商,中山,20190608,38.901309943567504,121.65419095766659,解放路（青云街商圈）,7,12043,街道办事处（居委会）代管物业,0.6,辽宁,2,二手房,1997
甘井子区凌秀路37号-1链家地产,大连,无开发商,高新园区,20190608,38.883794285403965,121.52361997548515,海事附小,11,13435,街道办事处（居委会）代管物业,0.5,辽宁,2,二手房,1990
金州新区先进街道五一路350-1号1-2层,大连,暂无信息,金州,20190608,39.078667146419825,121.77094423323935,聚鑫小区一期,61,7625,大连新生活物业管理有限公司,0.5,辽宁,2,二手房,1993
中山区岭前街53-5,大连,无开发商,中山,20190608,38.89487069426055,121.65795959631497,岭前街,13,14790,街道办事处（居委会）代管物业,0.4,辽宁,2,二手房,1995
甘井子区虹港路391号第五幢1单元1跃2层3号,大连,暂无信息,甘井子,20190608,38.96606635942528,121.53201387432493,商务学院,14,12830,亿达物业管理有限公司,0.5,辽宁,2,二手房,1996
甘井子区柳树南街45-11号,大连,中海新海汇（大连）置业有限公司,甘井子,20190608,38.92567666296449,121.4841330254372,中海御湖熙谷,71,15124,大连中海物业管理有限公司,2.2,辽宁,2,二手房,2014
高新园区书香街1A#1-1-2,大连,大连金弘基房地产开发有限公司,高新园区,20190608,38.880372108393104,121.55218773010999,弘基一期,23,20826,大连金弘基物业管理有限公司,0.6,辽宁,2,二手房,2001
西岗区长春路334号,大连,大连源通房地产开发有限公司,西岗,20190608,38.89807766522607,121.63221082858387,南石源居,3,17584,大连源通物业管理有限公司,1.3,辽宁,2,二手房,2009
中山区虎滩路176号4-1-2,大连,大连国泰房地产开发有限公司,中山,20190608,38.890884710033156,121.69257379232747,帝柏湾,18,21664,加拿大高力国际物业服务有限公司,2,辽宁,2,二手房,2007
甘井子区泉水B2区19-1号,大连,北方沿海房地产开发（大连）有限公司,甘井子,20190608,39.0101309886317,121.60812584213187,沿海鉴筑二期,27,16422,美佳物业管理（深圳）有限公司大连分公司,1.5,辽宁,2,二手房,2012
无门店信息,大连,大连金州金德房地产开发有限公司,金州,20190608,34.52713835999158,118.76812980670795,新辉小区,64,7196,大连市金州金德物业管理有限公司,0.5,辽宁,2,二手房,2005
开发区兴城路29-81层,大连,大连瑞宇置业有限公司,开发区,20190608,39.050214252167194,121.75835946441768,心海阳光,11,12965,大连经济技术开发区盛辉物业服务有限公司,1.8,辽宁,2,二手房,2015
无门店信息,大连,无开发商,金州,20190608,34.52713835999158,118.76812980670795,金山名苑,18,9639,大连金山物业管理有限公司,0.5,辽宁,2,二手房,2009
中山区民建街10号1单元1号,大连,暂无信息,中山,20190608,38.925444479476894,121.66915026954452,39中港湾街,2,19805,无物业管理服务,-,辽宁,2,二手房,1995
无门店信息,大连,大连安邦房地产开发有限公司,甘井子,20190608,34.52713835999158,118.76812980670795,西郊闲庭,21,12586,大连龙城物业服务有限公司,1,辽宁,2,二手房,2010
中山区爱华街13号,大连,大连新世界广场国际有限公司,中山,20190608,38.92541607518685,121.6535728031028,曼哈顿大厦,45,14161,大连侨乐物业服务有限公司,3.5,辽宁,2,二手房,2005
无门店信息,大连,大连新兴海韵房地产开发有限公司,开发区,20190608,34.52713835999158,118.76812980670795,山海家园,18,15670,大连经济技术开发区通讯物业有限公司,0.5,辽宁,2,二手房,2004
大连市甘井子区钻石湾和信园13-5,大连,远洋地产有限公司,甘井子,20190608,38.958699272665584,121.61903564217761,远洋钻石湾一期,95,23859,大连远洋基业物业管理有限公司,2.7,辽宁,2,二手房,2014
西岗区八一路196号1-3,大连,无开发商,西岗,20190608,38.92047268927287,121.61862512554262,新泉巷,17,9288,无物业管理服务,-,辽宁,2,二手房,1990
甘井子区榆水街6-9号公建,大连,大连弘润置业有限公司,甘井子,20190608,38.97957540063716,121.52458567456938,万科城市之光,60,21922,大连万科物业服务有限公司,2.8,辽宁,2,二手房,2015
沙河口区五四路207-1-9号,大连,中航国际中航地产,沙河口,20190608,38.913544290955585,121.59450670056631,中航国际广场,25,21392,中航物业管理有限公司大连分公司,3.6,辽宁,2,二手房,2016
沙河口区锦云北园9号2单元1层2号,大连,大连锦绣房地产开发有限公司,沙河口,20190608,38.94836395772248,121.55744845421044,锦云北园,25,10255,大连锦绣物业管理有限公司,0.3,辽宁,2,二手房,1996
西岗区中山路158号唐山街市场外14号,大连,暂无信息,西岗,20190608,38.91688106727098,121.63201298398174,34中松花街,16,27035,无物业管理服务,-,辽宁,2,二手房,1980
天河路173-2号 华润考拉22号公建,大连,大连华南房地产开发有限公司,甘井子,20190608,23.14720645345518,113.3277414923158,名贵山庄华丽园,16,13581,大连弘益达物业管理有限公司,0.5,辽宁,2,二手房,2002
甘井子区红旗中路143号1层4号,大连,大连红旗兴达房地产开发有限公司,甘井子,20190608,38.93169566676921,121.5426632438217,吉祥街,5,11309,大连金诚物业管理有限公司,0.2,辽宁,2,二手房,1996
甘井子区泉水P3区35-2号,大连,大连鑫成置业有限公司,甘井子,20190608,39.01530162252779,121.63546089163083,欧尚广场,42,17894,大连宏华物业服务有限公司,1.5,辽宁,2,二手房,2014
甘井子区金北路17号,大连,暂无信息,甘井子,20190608,38.97553393692831,121.59969720502335,金二小学南,41,20393,无物业管理服务,-,辽宁,2,二手房,1976
金州区拥政街道733号-8号1-2层,大连,大连千川房地产有限公司,金州,20190608,39.11690610445662,121.73030803603723,湖畔嘉园,23,10761,大连千川物业管理有限公司,3.8,辽宁,2,二手房,2007
沙河口区新生路万客园3-7,大连,暂无信息,沙河口,20190608,38.94412875710208,121.57006756704837,中海天赋山二期,21,19730,大连中海物业管理有限公司,2.8,辽宁,2,二手房,2017
无门店信息,大连,大连光伸房地产开发有限公司,开发区,20190608,34.52713835999158,118.76812980670795,光伸卧龙港湾,20,9065,大连经济技术开发区光伸物业服务有限公司,1.5,辽宁,2,二手房,2015
西岗区九三街64号,大连,大连金福星房地产开发有限公司,西岗,20190608,38.92047268927287,121.61862512554262,金福星大厦,8,8612,大连金星物业管理中心,2.2,辽宁,2,二手房,2001
沙河口区黑石礁街3号1层1-1号,大连,无开发商,沙河口,20190608,38.880058010307856,121.56313403908827,东财烛光园,8,18285,无物业管理服务,-,辽宁,2,二手房,1988
中山区民建街10号1单元1号,大连,无开发商,中山,20190608,38.925444479476894,121.66915026954452,39中学士街,32,19431,无物业管理服务,-,辽宁,2,二手房,1995
大连市甘井子区丰收路3-5号,大连,大连壹高房地产发展有限公司,甘井子,20190608,38.965377255081755,121.58288415324094,朗香小镇,16,22213,大连顶点物业管理有限公司,1.3,辽宁,2,二手房,2011
开发区大开高吉里33栋6号,大连,无开发商,开发区,20190608,39.07355836059941,121.8280439450145,高吉里,27,6578,广宜物业有限公司,0.2,辽宁,2,二手房,1998
沙河口区黄河路535号,大连,大连金广地产集团有限公司,沙河口,20190608,38.91773777159567,121.60217159922856,79中美加华公寓,32,21615,大连亮泰安邦物业有限公司,2,辽宁,2,二手房,2008
无门店信息,大连,暂无信息,旅顺口,20190608,34.52713835999158,118.76812980670795,熙龙山庄,87,8404,大连市辰馨物业服务有限公司,1,辽宁,2,二手房,2005
沙河口区五一路110-4号,大连,大连大重房屋开发有限公司,沙河口,20190608,38.913544290955585,121.59450670056631,星台花园一期,32,16088,大连大重房屋开发公司物业管理中心,-,辽宁,2,二手房,1998
沙河口区五一路109-4号,大连,大连正源房地产开发有限公司,沙河口,20190608,38.913544290955585,121.59450670056631,幸福e家一期,24,31353,大连正源物业服务有限公司,0.8,辽宁,2,二手房,2002
甘井子区锦城西园4#3-1-1,大连,大连锦绣房地产开发有限公司,沙河口,20190608,38.95286223185571,121.55129044777,锦华北园,83,14038,大连锦绣物业管理有限公司,0.6,辽宁,2,二手房,2002
甘井子区玉丽街39号楼3号公建,大连,暂无信息,甘井子,20190608,38.98706755029984,121.55605471197089,泡崖康祥园,25,11513,大连新兴物业管理有限公司,0.5,辽宁,2,二手房,2005
沙河口区长江路738号,大连,大连大和中盛房地产有限公司,西岗,20190608,38.913544290955585,121.59450670056631,颐和香榭,44,29065,大连颐和物业管理有限公司,2.5,辽宁,2,二手房,2008
沙河口区鞍山路65号美都园7号1单元1层4号公建,大连,远洋地产有限公司,沙河口,20190608,38.92755211283745,121.60306664748275,绿都园,18,14421,大连峰霖物业管理有限公司,0.6,辽宁,2,二手房,2000
金州区同济路44号,大连,大连永乐房地产开发有限公司,金州,20190608,39.10476859984152,121.71234684495865,永乐金庭,42,9955,大连天河物业管理有限公司,0.8,辽宁,2,二手房,2006
甘井子区亿家缘虹韵路205,大连,大连耕海置业有限公司,甘井子,20190608,38.95647848453699,121.53130152244339,国民院子,31,21082,大连耕海物业管理有限公司,2,辽宁,2,二手房,2012
甘井子区玉丽街39号楼3号公建,大连,大连新型房地产开发有限公司,甘井子,20190608,38.98706755029984,121.55605471197089,玉丽街,72,9739,大连新兴物业管理有限公司,0.5,辽宁,2,二手房,2002
高新园区火炬路18号,大连,大连海创房地产开发有限公司,高新园区,20190608,38.937738080520404,117.39340752036043,芝麻街,57,14115,大连海创物业管理有限公司,2.4,辽宁,2,二手房,2010
中山区华乐街93—1号,大连,大连鸿雁房地产开发公司,中山,20190608,38.921950924512124,121.68673151242629,海之恋花园,24,16853,大连鸿雁物业有限公司,0.8,辽宁,2,二手房,2001
开发区高新里6栋-8,大连,无开发商,开发区,20190608,39.0710895068195,121.82860134358343,怡海花园一期,23,7380,街道办事处（居委会）代管物业,0.2,辽宁,2,二手房,2001
沙河口区五四路207-1-9号,大连,无开发商,沙河口,20190608,38.913544290955585,121.59450670056631,五四路,15,12261,无物业管理服务,-,辽宁,2,二手房,1992
金州新区八一路金都嘉园1号楼1号公建,大连,大连友谊合升房地产开发有限公司,金州,20190608,39.05525210261778,121.74865634199398,宏意小区,59,7289,大连天河物业管理有限公司,0.4,辽宁,2,二手房,2009
沙河口区沙能街101号1单元1层1号,大连,大连大力置业有限公司,沙河口,20190608,38.9366316275348,121.59031205759763,机车佳苑,6,15500,大连大力物业管理有限公司,1.5,辽宁,2,二手房,2009
金州区凤翔路220号,大连,大连经济技术开发区银海开发置业有限公司,金州,20190608,39.08410553937731,121.77700083356399,达赫山庄,20,12175,街道办事处（居委会）代管物业,0.5,辽宁,2,二手房,2009
沙河口区锦霞南园1号1层公建,大连,大连锦绣房地产开发有限公司,沙河口,20190608,38.947367114450536,121.55342584213675,锦虹南园,16,10926,大连锦绣物业管理有限公司,0.3,辽宁,2,二手房,1998
中山区华乐街71号公建,大连,大连中银房地产开发有限公司,中山,20190608,38.923187679200566,121.6843197903016,澳景园,34,17752,大连衡德物业管理有限公司,1,辽宁,2,二手房,2003
开发区大开高吉里33栋6号,大连,无开发商,开发区,20190608,39.07355836059941,121.8280439450145,高安里回迁楼,11,8330,大连华宸物业管理有限公司,0.2,辽宁,2,二手房,1998
甘井子区山东路137号,大连,大连新型房地产开发有限公司,甘井子,20190608,38.99129404608926,121.59172125999353,华南花园,31,13429,大连天洋物业管理有限公司,0.3,辽宁,2,二手房,1990
中山区清溪南街11号,大连,大连澳南房屋开发有限公司,中山,20190608,38.88919604283904,121.66466481004835,明秀山庄B区,32,35494,绿城物业服务集团有限公司大连分公司,1.9,辽宁,2,二手房,2008
高新园敬贤街23-11号,大连,暂无信息,高新园区,20190608,38.869456648212356,121.53023725049893,中海紫御观邸四期,7,20307,大连中海物业管理有限公司,2.6,辽宁,2,二手房,2013
西岗区鞍山路29号龙畔锦城东门,大连,无开发商,西岗,20190608,38.92763470697088,121.61498923399098,双兴北巷（大菜市商圈）,10,10870,街道办事处（居委会）代管物业,0.5,辽宁,2,二手房,1995
甘井子辛吉街150号-7号,大连,大连新星房地产开发有限公司,甘井子,20190608,38.96368508446978,121.52671221254214,新星绿城一期,33,12082,大连生生物业管理有限公司,0.5,辽宁,2,二手房,2003
开发区东北三街94号1层,大连,开发区城建局,开发区,20190608,39.05723508011585,121.80570768630555,倚园里小区,58,7628,大连佳兴物业管理有限公司,0.3,辽宁,2,二手房,1999
大连经济技术开发区同和里7栋-9号,大连,无开发商,开发区,20190608,39.04901984220615,121.7885236929847,新星里,42,8095,大连广谊物业管理有限公司,0.3,辽宁,2,二手房,2003
中山区民建街10号1单元1号,大连,无开发商,中山,20190608,38.925444479476894,121.66915026954452,39中民建街,10,19593,无物业管理服务,-,辽宁,2,二手房,1995
中山区高尚路28-1号,大连,大连锦绣房地产开发有限公司,中山,20190608,38.892673425111305,121.67148833870213,高云街,15,9293,街道办事处（居委会）代管物业,0.3,辽宁,2,二手房,1994
中山区山屏街116号1-1,大连,无开发商,中山,20190608,38.90729438486833,121.68598159980013,山屏东街,17,11759,无物业管理服务,-,辽宁,2,二手房,1990
金州区光明街道育才街42-6号1-2层,大连,无开发商,金州,20190608,39.109080894078986,121.7182584929096,味食小区,23,7967,大连大众物业管理有限公司,0.5,辽宁,2,二手房,1988
甘井子区鹏辉新世纪1幢1单元1-3号房屋（海口路99号）,大连,暂无信息,甘井子,20190608,38.96077365187575,121.60514653016222,鹏辉新世纪三期北园,28,16659,大连鹏辉物业管理有限公司,0.6,辽宁,2,二手房,2003
金州区光明街道育才街42-6号1-2层,大连,暂无信息,金州,20190608,39.109080894078986,121.7182584929096,芙蓉花园（金州）,29,9723,大连金州新区建房物业管理中心,0.6,辽宁,2,二手房,2007
西岗区长春路334号,大连,无开发商,西岗,20190608,38.89807766522607,121.63221082858387,曙光巷,15,11257,无物业管理服务,-,辽宁,2,二手房,1990
沙河口区黑石礁街5号1层1号,大连,大连鹏生房地产开发有限公司,沙河口,20190608,38.879813345473714,121.56313742300513,鹏莱花园,13,14874,大连新兴物业管理有限公司,0.3,辽宁,2,二手房,1998
无门店信息,大连,大连鹏辉房地产开发有限公司,甘井子,20190608,34.52713835999158,118.76812980670795,鹏辉新天居三期,45,14040,大连鹏辉物业管理有限公司,0.8,辽宁,2,二手房,2009
甘井子区祥龙街2号楼1单元1楼1号,大连,大连源隆房地产开发有限公司,甘井子,20190608,38.988045874482445,121.60439401971377,鑫汇茗苑,11,16899,大连佳和物业管理有限公司,1.6,辽宁,2,二手房,2011
西岗区八一路102号,大连,无开发商,西岗,20190608,38.92047268927287,121.61862512554262,智勇西二巷,11,9988,无物业管理服务,-,辽宁,2,二手房,1993
甘井子区金北街17号,大连,大连悦泰集团有限公司,甘井子,20190608,38.95800216293212,121.53151895549547,悦泰馨家,26,25332,大连优豪斯物业管理有限公司,0.5,辽宁,2,二手房,2003
中山区华乐街71号公建,大连,大连环海房地产开发有限公司,中山,20190608,38.923187679200566,121.6843197903016,华乐小区,17,14448,大连景和物业管理有限公司,0.5,辽宁,2,二手房,2000
西岗区胜利路33号,大连,大连恒盛房屋开发有限公司,西岗,20190608,38.91309771954841,121.62500886627636,盛阳山庄,11,11298,大连佳捷物业管理有限公司,0.5,辽宁,2,二手房,1999
中山区华乐街71号公建,大连,暂无信息,中山,20190608,38.923187679200566,121.6843197903016,东港印象A区,15,19499,大连众和物业管理有限公司,1.2,辽宁,2,二手房,2008
大连市开发区湾里东5-6号,大连,大连德玉隆房地产开发有限公司,开发区,20190608,39.07275772231556,121.85888789351343,康馨壹品,46,11066,大连亚航物业管理有限公司,1,辽宁,2,二手房,2014
中山区职工街96号1-3层公建,大连,无开发商,中山,20190608,38.92565613737007,121.66193575790903,警后大院（三八广场）,20,15001,无物业管理服务,-,辽宁,2,二手房,1993
开发区安盛里5栋-4,大连,大连万晟房地产开发有限公司,开发区,20190608,23.112106678834838,113.27801046214822,宜家大院,19,8785,大连万晟置业有限公司,0.8,辽宁,2,二手房,2002
开发区杏树里10栋-14,大连,大连经济技术开发区城市建设开发有限公司,开发区,20190608,39.08113818354046,121.78505742127606,颐馨园,14,9105,大连经济技术开发区杏林物业管理有限公司,0.8,辽宁,2,二手房,2005
金州区南棉路310号,大连,暂无信息,金州,20190608,39.09939229372624,121.72414976100345,环保小区,18,7219,街道办事处（居委会）代管物业,0.5,辽宁,2,二手房,1990
中山区武昌街武昌公寓6号公建,大连,无开发商,中山,20190608,38.912280913445784,121.64921130527547,气象街,19,21720,街道办事处（居委会）代管物业,0.5,辽宁,2,二手房,1989
大连市金州新区中长街道碧海尚城5-4号1-2层,大连,无开发商,金州,20190608,39.100290954587514,121.7304796052032,于洼小区,64,7267,街道办事处（居委会）代管物业,0.1,辽宁,2,二手房,1990
红星海A区126-4,大连,大连光伸房地产开发有限公司,开发区,20190608,39.027851194371685,121.80327394132297,绿洲半岛三期,40,10083,大连经济技术开发区光伸物业服务有限公司,0.6,辽宁,2,二手房,2005
西岗区新田巷27号1-2,大连,无开发商,西岗,20190608,38.893215932589385,121.64103065169111,新河街,13,10675,无物业管理服务,-,辽宁,2,二手房,1995
沙河口区中山路417A-4号,大连,大连电业房地产开发有限公司,沙河口,20190608,38.90740323140171,121.59484801084653,电力公寓,10,15937,街道办事处（居委会）代管物业,0.7,辽宁,2,二手房,2000
开发区湾里南12栋-16-17-18号,大连,开发区城建局,开发区,20190608,39.070782084451,121.8506739675913,宜宁里,54,5997,大连宏港物业管理有限公司,0.2,辽宁,2,二手房,1992
甘井子区金北路17号,大连,暂无信息,甘井子,20190608,38.97553393692831,121.59969720502335,76中学桥南,73,16143,大连新华物业管理有限公司,0.2,辽宁,2,二手房,1970
沙河口区连山街10号2-1-2,大连,大连城市建设集团有限公司,沙河口,20190608,38.89637522563413,121.57143690983219,莱州街,32,11051,无物业管理服务,-,辽宁,2,二手房,1990
中山区同心街72号1楼公建,大连,大连万达房地产开发有限公司,西岗,20190608,38.91979245940674,121.64769198230202,雍景台,7,18049,大连万达物业管理有限公司,3.5,辽宁,2,二手房,2000
沙河口区红凌路137号,大连,大连大实企业集团房屋开发有限公司,甘井子,20190608,38.922699288974506,121.54713601744747,叠翠骏景,14,12418,大连弘实物业管理有限公司,0.4,辽宁,2,二手房,2004
中山区岭前街53-5,大连,大连铭泰房地产开发有限公司,中山,20190608,38.89487069426055,121.65795959631497,锦府桃源,20,24150,大连豪之英物业管理有限公司,1.2,辽宁,2,二手房,2009
中山区东港龙湖水晶郦湾7-102,大连,大连创富房地产开发有限公司,中山,20190608,38.924700620463895,121.70344398518496,中国铁建国滨苑,29,24860,北京国贸物业,4.3,辽宁,2,二手房,2015
沙河口区中山路417A-4号,大连,无开发商,沙河口,20190608,38.90740323140171,121.59484801084653,连华街,14,15981,无物业管理服务,-,辽宁,2,二手房,1995
西岗区长红街4号1号公建,大连,暂无信息,西岗,20190608,38.91377414665191,121.6302525225721,34中长红街,27,24633,无物业管理服务,-,辽宁,2,二手房,1990
金州区拥政街道733号-8号1-2层,大连,无开发商,金州,20190608,39.11690610445662,121.73030803603723,古城甲区,123,7633,街道办事处（居委会）代管物业,0.5,辽宁,2,二手房,1990
甘井子区甘井子路32号楼1单元1楼9号,大连,大连和华房地产开发有限公司,甘井子,20190608,38.982488275116516,121.63345389253514,万成御园,12,14423,大连银力物业管理有限公司,1.3,辽宁,2,二手房,2015
金州区同济路44号,大连,大连金开信都房地产开发有限公司,金州,20190608,39.10476859984152,121.71234684495865,海天新界,56,8272,大连西海岸物业管理有限公司,1,辽宁,2,二手房,2011
高新园区红凌路732-4号,大连,大华集团大连房地产开发有限公司,高新园区,20190608,38.90204708664442,121.53244406374695,大华爱琴湾,39,21161,大连大华物业管理有限公司,1.8,辽宁,2,二手房,2016
甘井子区华龙南园34-5号34-库4号34-5号,大连,中信集团大连中信房地产开发公司,甘井子,20190608,38.98270467597865,121.6117222765123,惠丰小区,24,10001,大连中信物业管理有限公司,0.2,辽宁,2,二手房,1989
沙河口区西南路40号楼,大连,无开发商,沙河口,20190608,38.94143337232082,121.58616557598133,杭州街,18,12209,无物业管理服务,-,辽宁,2,二手房,1990
中山区东港龙湖水晶郦湾7-102,大连,大连德威佳业投资有限公司,中山,20190608,38.924700620463895,121.70344398518496,东港天鹅湾,92,27783,哈尔滨德润物业管理有限公司大连分公司,4.8,辽宁,2,二手房,2018
中山区爱华街13号,大连,暂无信息,中山,20190608,38.92541607518685,121.6535728031028,九中杏林街,4,40747,无物业管理服务,6,辽宁,2,二手房,2000
中山区武昌街武昌公寓6号公建,大连,大连武昌房地产开发有限公司,中山,20190608,38.912280913445784,121.64921130527547,部居逸阁,25,13419,大连宜佳物业管理有限公司,1,辽宁,2,二手房,2005
西岗区绕山路31号公建一层东侧,大连,无开发商,西岗,20190608,38.90257514466717,121.61412736644739,山庄北三街,7,10303,无物业管理服务,-,辽宁,2,二手房,1990
沙河口区西南路40号楼,大连,大连金通房屋开发有限公司,沙河口,20190608,38.94143337232082,121.58616557598133,海韵花园,13,13703,大连金通物业管理有限公司,0.4,辽宁,2,二手房,2000
无门店信息,大连,大连金石文化旅游投资有限公司,金州,20190608,34.52713835999158,118.76812980670795,大连金石天成,41,8610,大连万达物业管理有限公司,1.8,辽宁,2,二手房,2009
无门店信息,大连,大连宝泰华置业发展有限公司,金州,20190608,34.52713835999158,118.76812980670795,海天富地,34,12799,大连戴德梁行物业管理有限公司,1.6,辽宁,2,二手房,2012
甘井子区哲林北园17-6号,大连,大连大力房屋开发有限公司,甘井子,20190608,38.9600267109581,121.53876726228256,圆梦园,9,20209,大连嘉禾物业管理服务有限公司,1.6,辽宁,2,二手房,2015
沙河口区联合路133号,大连,大连新型房地产开发有限公司,沙河口,20190608,38.91608561262676,121.60480987310456,五四小区,7,15340,大连新晨物业管理有限公司,0.5,辽宁,1,二手房,2000
中山区南山路59号1层4号,大连,无开发商,中山,20190608,38.91992239075882,121.6479206962747,祝胜街（昆明街）,2,17195,无物业管理服务,-,辽宁,2,二手房,1988
"西岗区泰公街20号2层7号 西岗区久寿街22号1层14号""",大连,无开发商,西岗,20190608,38.92600196862723,121.62141976476381,银华双厦,6,11007,无物业管理服务,-,辽宁,1,二手房,1999
西岗区八一路102号,大连,无开发商,西岗,20190608,38.92047268927287,121.61862512554262,群英阁,2,17856,无物业管理服务,-,辽宁,1,二手房,2000
无门店信息,大连,暂无信息,金州,20190608,34.52713835999158,118.76812980670795,金馨园一区,2,6806,暂无信息,-,辽宁,1,二手房,-
金州区光明街道育才街42-6号1-2层,大连,大连市金州区光明房地产开发有限公司,金州,20190608,39.109080894078986,121.7182584929096,学府世家,2,11598,大连永和物业管理有限公司,1.2,辽宁,1,二手房,2011
中山区中南路226号,大连,万科中山置业有限公司,中山,20190608,38.90029610333926,121.68178899957817,万科中南府,2,28513,大连万科物业服务有限公司,5,辽宁,1,二手房,2018
中山区武昌街武昌公寓6号公建,大连,无开发商,中山,20190608,38.912280913445784,121.64921130527547,绿山巷,1,15488,无物业管理服务,-,辽宁,1,二手房,1986
沙河口区联合路133号,大连,亿达集团大连房地产开发有限公司,沙河口,20190608,38.91608561262676,121.60480987310456,21中亿达广场,1,21518,亿达物业管理有限公司,1.2,辽宁,1,二手房,1999
沙河口区五四路207-1-9号,大连,无开发商,沙河口,20190608,38.913544290955585,121.59450670056631,新生巷,0,12325,街道办事处（居委会）代管物业,0.5,辽宁,1,二手房,-
沙河口区西南路851号3单元1层3号,大连,无开发商,沙河口,20190608,38.94344210837944,121.58246796944378,凌山五街,2,11011,街道办事处（居委会）代管物业,0.3,辽宁,1,二手房,1990
大连市沙河口区西南路875号1层21号,大连,暂无信息,沙河口,20190608,38.94485969061231,121.58418648447764,凌云一街,0,9602,暂无信息,-,辽宁,1,二手房,-
中山区解放路471-22号,大连,暂无信息,中山,20190608,38.901309943567504,121.65419095766659,青云公寓,1,9191,暂无信息,1,辽宁,1,二手房,1990
中山区南山路59号1层4号,大连,无开发商,中山,20190608,38.91992239075882,121.6479206962747,南山路（昆明街商圈）,0,18889,无物业管理服务,-,辽宁,1,二手房,1982
甘井子区华东路22号公建,大连,暂无信息,甘井子,20190608,38.97736184953593,121.5935814234334,经一街,0,11512,无物业管理服务,-,辽宁,1,二手房,1993
中山区同心街72号1楼公建,大连,无开发商,中山,20190608,38.91979245940674,121.64769198230202,胜利东路,0,15082,无物业管理服务,-,辽宁,1,二手房,1988
中山区鲁迅路204号百盛新药特药商店一楼西侧部分,大连,暂无信息,中山,20190608,38.9258993614899,121.6768880001226,华山街,0,10335,无物业管理服务,-,辽宁,1,二手房,-
中山区三八广场5号,大连,大连宏正房地产开发有限公司,中山,20190608,38.92540000551715,121.6642911149562,宏都嘉园,1,22368,大连宏进物业管理有限公司,1.5,辽宁,1,二手房,2002
开发区大开高吉里33栋6号,大连,大连联富地产有限公司,开发区,20190608,39.07355836059941,121.8280439450145,城宁家园,5,9407,大连联富物业有限公司,1.5,辽宁,1,二手房,2015
西岗区绕山路31号公建一层东侧,大连,无开发商,西岗,20190608,38.90257514466717,121.61412736644739,彩云路,9,8987,无物业管理服务,-,辽宁,1,二手房,1994
中山区北斗街53号1层1号,大连,无开发商,中山,20190608,38.92727355733075,121.67002970974048,北斗街（二七商圈）,4,14020,无物业管理服务,-,辽宁,1,二手房,1990
中山区中南路226号,大连,大连华钧房地产开发有限公司,中山,20190608,38.90029610333926,121.68178899957817,半山花园,4,12516,大连仁和物业管理有限公司,0.7,辽宁,1,二手房,2000
中山区中南路店212号门头房,大连,大连金广地产集团有限公司,中山,20190608,38.91149759691359,121.67700561077149,迎宾花园,1,13515,大连德一物业管理有限公司,1.2,辽宁,1,二手房,2003
沙河口区兰田街33号,大连,无开发商,沙河口,20190608,38.926138912221084,121.56486022834609,西苑新区,5,14024,街道办事处（居委会）代管物业,0.3,辽宁,1,二手房,2000
西岗区康平街2号（5号楼3-1-3号）,大连,暂无信息,西岗,20190608,38.91044414697888,121.61980769264477,胜利路（莲花白云商圈）,0,10716,无物业管理服务,-,辽宁,1,二手房,1999
中山区中南路226号,大连,大连市建设控股有限公司,中山,20190608,38.90029610333926,121.68178899957817,欧洲小镇,11,17314,大连大众物业管理有限公司,0.8,辽宁,1,二手房,2004
"西岗区泰公街20号2层7号 西岗区久寿街22号1层14号""",大连,大连安大房屋开发有限公司,西岗,20190608,38.92600196862723,121.62141976476381,万达公寓,4,9676,庄河金城物业管理有限公司,0.8,辽宁,1,二手房,1997
中山区民建街10号1单元1号,大连,暂无信息,中山,20190608,38.925444479476894,121.66915026954452,港湾街（二七商圈）,4,20889,无物业管理服务,-,辽宁,1,二手房,2000
中山区鲁迅路184号1层B—A,大连,大连绿地新城置业有限公司,中山,20190608,38.92590875965419,121.67594393403164,大连绿地中心,13,19520,上海科瑞物业管理发展有限公司大连第二分公司,4.2,辽宁,1,二手房,2015
甘井子区华北路花锦园28号23-3-1-2建筑物,大连,大连鼎新恒盛房地产开发有限公司,甘井子,20190608,38.951627958411166,121.5739439799003,鼎新悦府,7,24105,大连万润物业服务有限公司,1.5,辽宁,1,二手房,2012
金州区南棉路310号,大连,暂无信息,金州,20190608,39.09939229372624,121.72414976100345,金乾公馆,9,8060,无物业管理服务,-,辽宁,1,二手房,-
无门店信息,大连,无开发商,金州,20190608,34.52713835999158,118.76812980670795,伟桥嘉园,3,7516,无物业管理服务,0.5,辽宁,1,二手房,-
中山区山屏街116号1-1,大连,无开发商,中山,20190608,38.90729438486833,121.68598159980013,怡梦园,5,15158,无物业管理服务,-,辽宁,1,二手房,1900
沙河口区红旗东路18-22号2单元1楼3号,大连,无开发商,甘井子,20190608,38.913544290955585,121.59450670056631,兰兴巷,1,12628,大连辽南物业管理有限公司,0.2,辽宁,1,二手房,1992
西岗区中山路158号唐山街市场外14号,大连,暂无信息,西岗,20190608,38.91688106727098,121.63201298398174,34中安宁巷,2,29989,无物业管理服务,-,辽宁,1,二手房,1985
中山区武昌街武昌公寓6号公建,大连,无开发商,中山,20190608,38.912280913445784,121.64921130527547,铁山巷（南山商圈）,3,13288,街道办事处（居委会）代管物业,1,辽宁,1,二手房,1990
沙河口区锦江园30号1层公建,大连,暂无信息,沙河口,20190608,38.949985113183935,121.56560955976859,锦江园南松路,4,11591,绿城物业服务集团有限公司大连分公司,0.2,辽宁,1,二手房,2001
大连市沙河口区黄河路729号,大连,无开发商,沙河口,20190608,38.91710565765228,121.58954758972729,黄河路（西安路商圈）,3,9716,无物业管理服务,-,辽宁,1,二手房,1995
大连市高新园区七贤中路63号,大连,大连鑫亿房屋开发有限公司,高新园区,20190608,38.86053006357667,121.53273606963094,瑞丰园,16,14677,无物业管理服务,0.8,辽宁,1,二手房,1999
开发区松苑街23号,大连,大连开建房地产开发有限公司,开发区,20190608,22.52087435807652,113.40156105086167,开建海景南苑,4,12872,大连万佳物业管理有限公司,1.2,辽宁,1,二手房,2002
西岗区八一路196号2-1-12号,大连,暂无信息,西岗,20190608,38.92047268927287,121.61862512554262,八一路（新起屯商圈）,2,12719,无物业管理服务,-,辽宁,1,二手房,1995
金州区同济路44号,大连,大连金世纪房地产经纪有限公司,金州,20190608,39.10476859984152,121.71234684495865,教师公寓,18,9010,大连恒天物业管理公司,-,辽宁,1,二手房,2010
甘井子区汇仁街19号12号楼1单元102室,大连,大连华南房地产开发有限公司,甘井子,20190608,38.99746297497168,121.58917714380617,名贵山庄华秋园,13,13534,大连弘益达物业管理有限公司,0.5,辽宁,1,二手房,2002
金州新区八一路金都嘉园1号楼1号公建,大连,无开发商,金州,20190608,39.05525210261778,121.74865634199398,老街坊小区,14,8662,街道办事处（居委会）代管物业,0.5,辽宁,1,二手房,1997
中山区三八广场5号,大连,大连新型房地产开发总公司,中山,20190608,38.92540000551715,121.6642911149562,二七公寓,10,19671,大连新型物业管理有限公司,0.8,辽宁,1,二手房,1999
甘井子区海口路77—5号,大连,暂无信息,甘井子,20190608,38.960286398428124,121.60305183172997,鹏辉新世纪五期,12,19330,大连鹏辉物业管理有限公司,0.6,辽宁,1,二手房,2009
无门店信息,大连,中体产业集团大连乐百年置业有限公司,甘井子,20190608,34.52713835999158,118.76812980670795,中体九号院别墅,5,25258,广东中奥物业有限公司大连分公司,4.5,辽宁,1,二手房,2014
中山区爱华街13号,大连,无开发商,中山,20190608,38.92541607518685,121.6535728031028,邮电公寓,4,10578,无物业管理服务,-,辽宁,1,二手房,1999
金州新区八一路金都嘉园1号楼1号公建,大连,大连锦阳房地产开发有限公司,金州,20190608,39.05525210261778,121.74865634199398,古城天下,9,7341,大连锦阳房地产开发有限公司,1,辽宁,1,二手房,2004
大连市金州新区友谊街道和平路59-10号1-2层公建,大连,无开发商,金州,20190608,39.112168401852266,121.72006917947859,新金州大厦,1,7101,街道办事处（居委会）代管物业,0.5,辽宁,1,二手房,2006
甘井子区华东路33-5号,大连,暂无信息,甘井子,20190608,38.97497080220593,121.59479866243332,金源小区,6,14629,无物业管理服务,-,辽宁,1,二手房,2000
中山区解放路604号,大连,大连雅风房屋开发有限公司,中山,20190608,38.89026319122045,121.66407876092346,秀月风景,5,18984,大连风景物业管理有限公司,1,辽宁,1,二手房,1996
中山区共建巷61号,大连,暂无信息,中山,20190608,38.91828093658718,121.66259221532148,山林街（三八商圈）,2,25944,无物业管理服务,-,辽宁,1,二手房,1990
莲花山路89-3号,大连,大连兴达房地产有限公司,西岗,20190608,38.902848261803356,121.6041720815823,香都花园,2,16675,大连香都物业管理有限公司,0.8,辽宁,1,二手房,1993
沙河口区知心园10号公建,大连,亿达房地产开发有限公司,高新园区,20190608,38.893977135945136,121.55667141994431,亿达康派,7,18894,亿达物业管理有限公司,1.5,辽宁,1,二手房,2006
中山区民建街10号1单元1号,大连,无开发商,中山,20190608,38.925444479476894,121.66915026954452,39中鲁迅路（三八广场）,1,20250,无物业管理服务,-,辽宁,1,二手房,1995
甘井子区华北路花锦园28号23-3-1-2建筑物,大连,暂无信息,甘井子,20190608,38.951627958411166,121.5739439799003,周水子广场,1,14654,无物业管理服务,0.5,辽宁,1,二手房,1990
西岗区八一路102号,大连,无开发商,西岗,20190608,38.92047268927287,121.61862512554262,河沿巷,17,12314,无物业管理服务,-,辽宁,2,二手房,1992
中山区中青街87号一单元107,大连,无开发商,中山,20190608,38.90213494248529,121.65806522267005,中青街,5,15676,无物业管理服务,-,辽宁,1,二手房,1996
大连市高新园区七贤中路63号,大连,无开发商,高新园区,20190608,38.86053006357667,121.53273606963094,学府士家,15,15469,无物业管理服务,-,辽宁,1,二手房,2000
甘井子区促进路30号2-1-1,大连,无开发商,甘井子,20190608,38.954133128707575,121.58355746311207,柳河小区,10,11580,大连衡德物业管理有限公司,0.2,辽宁,1,二手房,1995
沙河口区昌黎街77号楼第1层公建,大连,清远君行房地产有限公司,沙河口,20190608,38.91974518366595,121.5902918379551,君安国际,1,8716,街道办事处（居委会）代管物业,11,辽宁,1,二手房,2010
西岗区八一路102号,大连,无开发商,西岗,20190608,38.92047268927287,121.61862512554262,杏红巷,7,10735,无物业管理服务,-,辽宁,1,二手房,1994
中山区爱华街13号,大连,大连银河房地产开发有限公司,中山,20190608,38.92541607518685,121.6535728031028,银河公寓,7,9663,街道办事处（居委会）代管物业,-,辽宁,1,二手房,1996
甘井子区华北路花锦园28号23-3-1-2建筑物,大连,无开发商,甘井子,20190608,38.951627958411166,121.5739439799003,大连门广场,10,16711,街道办事处（居委会）代管物业,0.1,辽宁,1,二手房,2003
金州区南棉路310号,大连,暂无信息,金州,20190608,39.09939229372624,121.72414976100345,连胜小区,4,6128,无物业管理服务,0.5,辽宁,1,二手房,1995
金州区拥政街道733号-8号1-2层,大连,暂无信息,金州,20190608,39.11690610445662,121.73030803603723,八一花园,12,7989,暂无信息,0.2,辽宁,1,二手房,2000
中山区民运巷 47号1层2号,大连,无开发商,中山,20190608,38.905955122300846,121.64798148011702,葵英街（武昌街商圈）,5,12888,无物业管理服务,-,辽宁,1,二手房,1990
西岗区绕山路31号公建一层东侧,大连,暂无信息,沙河口,20190608,38.90257514466717,121.61412736644739,山庄南二巷,3,11394,暂无信息,-,辽宁,1,二手房,1990
沙河口区锦江园30号1层公建,大连,暂无信息,沙河口,20190608,38.949985113183935,121.56560955976859,锦江园绿莲街,9,10943,绿城物业服务集团有限公司大连分公司,0.2,辽宁,1,二手房,2001
中山区北斗街53号1层1号,大连,暂无信息,中山,20190608,38.92727355733075,121.67002970974048,温州城,0,8748,暂无信息,-,辽宁,1,二手房,-
中山区中青街87号一单元107,大连,无开发商,中山,20190608,38.90213494248529,121.65806522267005,葵英街（青云街商圈）,2,11025,无物业管理服务,-,辽宁,1,二手房,1992
沙河口区西南路358号1—2号,大连,大连恒安房地产开发有限公司,沙河口,20190608,38.90839654326566,121.56908246905662,水芙山竹,9,21914,大连上达物业管理有限公司,0.6,辽宁,1,二手房,2005
甘井子区红凌路109号,大连,无开发商,甘井子,20190608,38.923388478439314,121.54860212120927,红凌小区,4,9702,无物业管理服务,-,辽宁,1,二手房,1997
甘井子区泉水P3区35-2号,大连,暂无信息,甘井子,20190608,39.01530162252779,121.63546089163083,泉水P1区,7,10905,暂无信息,1.2,辽宁,2,二手房,2014
西岗区新田巷27号1-2,大连,无开发商,西岗,20190608,38.893215932589385,121.64103065169111,新丽街,13,9651,无物业管理服务,-,辽宁,2,二手房,1992
大连市开发区裕民新苑42-7,大连,无开发商,开发区,20190608,39.070771020021674,121.85093056856022,澳东世纪,27,11390,街道办事处（居委会）代管物业,0.5,辽宁,2,二手房,2002
甘井子区迎客路郭东街一品蓝天公建14号,大连,沈阳军区后勤部,甘井子,20190608,38.958456949708726,121.556756277476,金寓花园三期,5,17243,大连瑞祥物业管理有限公司,1,辽宁,2,二手房,2009
甘井子区千山路66号楼2单元1楼2号,大连,暂无信息,甘井子,20190608,38.985716774397915,121.58287796391829,蓝天小区,7,12308,大连新华物业管理有限公司,-,辽宁,1,二手房,1993
甘井子区知音园20号3单元1层1号,大连,亿达集团大连房地产开发有限公司,高新园区,20190608,38.95800216293212,121.53151895549547,亿达知音园,6,22520,亿达物业管理有限公司,0.5,辽宁,1,二手房,2001
无门店信息,大连,无开发商,西岗,20190608,34.52713835999158,118.76812980670795,华滨街（八一路）,10,11714,无物业管理服务,-,辽宁,1,二手房,1993
中山区高尚路28-1号,大连,大连丰源房地产有限公司,中山,20190608,38.892673425111305,121.67148833870213,丰源海景,12,15723,大连丰源海景物业管理有限公司,0.5,辽宁,1,二手房,2000
西岗区绕山路31号公建一层东侧,大连,无开发商,西岗,20190608,38.90257514466717,121.61412736644739,绕云巷,7,9840,无物业管理服务,-,辽宁,1,二手房,1991
大连经济技术开发区同和里7栋-9号,大连,无开发商,开发区,20190608,39.04901984220615,121.7885236929847,新月里,20,9120,街道办事处（居委会）代管物业,0.5,辽宁,1,二手房,2000
中山区职工街96号1-3层公建,大连,大连天通房地产开发有限公司,中山,20190608,38.92565613737007,121.66193575790903,天通金融大厦,5,11468,无物业管理服务,-,辽宁,1,二手房,2006
甘井子区锦城西园4#3-1-1,大连,沈阳军区后勤部,甘井子,20190608,38.95286223185571,121.55129044777,金寓花园一期,5,16133,大连瑞祥物业管理有限公司,0.5,辽宁,1,二手房,2003
无门店信息,大连,平谷地产发展（大连）有限公司,金州,20190608,34.52713835999158,118.76812980670795,平谷蓝熙庭,22,8109,平谷物业服务(大连)有限公司,1.8,辽宁,1,二手房,2013
大连市高新园区七贤中路63号,大连,大连招宇房地产有限公司,高新园区,20190608,38.86053006357667,121.53273606963094,招商兰溪谷,30,22912,招商局物业管理有限公司大连分公司,2.6,辽宁,1,二手房,2015
中山区共建巷61号,大连,无开发商,中山,20190608,38.91828093658718,121.66259221532148,39中永青街,10,25351,街道办事处（居委会）代管物业,0.5,辽宁,1,二手房,1995
金州区同济路44号,大连,大连金州金山房地产开发有限公司,金州,20190608,39.10476859984152,121.71234684495865,金山苑小区,23,9079,大连金山物业管理有限公司,-,辽宁,1,二手房,2000
中山区华乐街71号公建,大连,大连新型房地产开发有限公司,中山,20190608,38.923187679200566,121.6843197903016,春海街,7,11122,无物业管理服务,-,辽宁,1,二手房,1992
沙河口区南沙街36号台二2号1-1-37,大连,大连三寰房屋开发有限公司,沙河口,20190608,38.90741410359388,121.57685699961822,南平花园,6,18318,大连上达物业管理有限公司,0.3,辽宁,1,二手房,2001
中山区南山路59号1层4号,大连,深圳市东山开发有限公司,中山,20190608,38.91992239075882,121.6479206962747,昆明花园,5,21542,深圳市东山物业管理有限公司,0.5,辽宁,1,二手房,2000
经济技术开发区城润万家4-5号公建,大连,恒安房地产,开发区,20190608,39.05716325096989,121.75946281983826,中环嘉园,6,9644,大连大连开发区杰佳物业管理有限公司,0.5,辽宁,1,二手房,2001
中山区山屏街116号1-1,大连,暂无信息,中山,20190608,38.90729438486833,121.68598159980013,干休所,2,14867,街道办事处（居委会）代管物业,0.1,辽宁,1,二手房,1988
甘井子区华东路22号公建,大连,无开发商,甘井子,20190608,38.97736184953593,121.5935814234334,经四街,11,11822,街道办事处（居委会）代管物业,0.5,辽宁,1,二手房,1993
西岗区八一路196号1-3,大连,暂无信息,西岗,20190608,38.92047268927287,121.61862512554262,靠山中巷,2,10656,社区物业,-,辽宁,1,二手房,1990
无门店信息,大连,大连裕安房地产开发有限公司,甘井子,20190608,34.52713835999158,118.76812980670795,金塘裕墅,5,27173,大连旺宇物业有限公司,3.5,辽宁,1,二手房,2014
沙河口区恒利园42号-8,大连,无开发商,沙河口,20190608,38.93357562498634,121.57914091532649,大庆街,3,12260,无物业管理服务,-,辽宁,1,二手房,1982
甘井子区华东路33-5号,大连,大连宜和房地产开发有限公司,甘井子,20190608,38.97497080220593,121.59479866243332,松江路,3,10941,大连新华物业管理有限公司,-,辽宁,1,二手房,1993
甘井子区甘井子路32号楼1单元1楼9号,大连,暂无信息,甘井子,20190608,38.982488275116516,121.63345389253514,锦联樱花园,10,13344,街道办事处（居委会）代管物业,0.5,辽宁,1,二手房,2010
大连市甘井子区丰收路3-5号,大连,大连邦德房屋开发有限公司,甘井子,20190608,38.965377255081755,121.58288415324094,芙蓉人家,65,16534,大连广丰物业管理有限公司,0.5,辽宁,1,二手房,2002
沙河口区五一路110-4号,大连,大连市中联房地产开发有限公司,沙河口,20190608,38.913544290955585,121.59450670056631,星海中龙园,20,20577,大连斌弘物业管理有限公司,0.6,辽宁,1,二手房,2004
无门店信息,大连,无开发商,西岗,20190608,34.52713835999158,118.76812980670795,胜利街（胜利桥北商圈）,7,11300,无物业管理服务,-,辽宁,1,二手房,1984
中山区金城街26号一楼,大连,大连万达房地产开发有限公司,中山,20190608,38.922282529515634,121.65214466263014,九中金城街,23,35063,无物业管理服务,-,辽宁,1,二手房,1992
沙河口区长江路738号,大连,大连城市建设集团有限公司,沙河口,20190608,38.913544290955585,121.59450670056631,21中广电中心,23,18314,无物业管理服务,-,辽宁,1,二手房,1992
金州区金润花园B区47号1单元1层1号2号,大连,大连金都地产开发有限公司,金州,20190608,39.10434716151341,121.74517862677146,观山悦,31,10116,街道办事处（居委会）代管物业,1.4,辽宁,1,二手房,2014
甘井子区汇达园26号,大连,大连市大钢集团,甘井子,20190608,38.99704654604941,121.59758808878767,华南沃尔玛六平路,14,11976,街道办事处（居委会）代管物业,0.5,辽宁,1,二手房,1990
沙河口区黄河路883号,大连,大连亿达房地产股份有限公司,沙河口,20190608,38.919826721475204,121.57749657966676,亿达学苑,7,19699,亿达物业管理有限公司,0.7,辽宁,1,二手房,2003
金州新区八一路金都嘉园1号楼1号公建,大连,大连海洋房地产开发有限公司,金州,20190608,39.05525210261778,121.74865634199398,金都嘉园,9,8965,街道办事处（居委会）代管物业,0.5,辽宁,1,二手房,2009
西岗区中山路158号唐山街市场外14号,大连,暂无信息,西岗,20190608,38.91688106727098,121.63201298398174,34中畅通街,3,28429,无物业管理服务,-,辽宁,1,二手房,1980
大连经济技术开发区同和里7栋-9号,大连,无开发商,开发区,20190608,39.04901984220615,121.7885236929847,绿色家园小区,8,11014,大连经济技术开发区白石物业管理有限公司,0.5,辽宁,1,二手房,2002
金州区拥政街道733号-8号1-2层,大连,无开发商,金州,20190608,39.11690610445662,121.73030803603723,建兴苑,35,7518,街道办事处（居委会）代管物业,0.5,辽宁,1,二手房,1999
沙河口区西南路358号1—2号,大连,大连城市建设集团有限公司,沙河口,20190608,38.90839654326566,121.56908246905662,台扩小区,8,11277,大连新华物业管理有限公司,0.1,辽宁,1,二手房,1995
中山区高尚路28-1号,大连,无开发商,中山,20190608,38.892673425111305,121.67148833870213,高寿街,14,10359,无物业管理服务,-,辽宁,1,二手房,1991
金州区南棉路310号,大连,大连阿尔滨集团房地产开发有限公司,金州,20190608,39.09939229372624,121.72414976100345,荣盛小区,10,8960,街道办事处（居委会）代管物业,1,辽宁,1,二手房,2009
沙河口区长江路946号-9,大连,无开发商,沙河口,20190608,38.913544290955585,121.59450670056631,城品城,11,18837,大连万景物业管理有限公司,2,辽宁,1,二手房,2010
大连市甘井子区丰收路3-5号,大连,大连亿海房地产开发有限公司,甘井子,20190608,38.965377255081755,121.58288415324094,亿海盛都,21,20970,街道办事处（居委会）代管物业,0.5,辽宁,1,二手房,2004
中山区清溪南街11号,大连,大连澳南房屋开发有限公司,中山,20190608,38.88919604283904,121.66466481004835,清溪南苑,1,19376,大连中园房地产物业公司,0.6,辽宁,1,二手房,2003
中山区金城街26号一楼,大连,无开发商,中山,20190608,38.922282529515634,121.65214466263014,39中柳林街,6,24526,街道办事处（居委会）代管物业,-,辽宁,1,二手房,1992
甘井子区泉水H3区15号3单元1层2号,大连,大连新型房地产开发有限公司,甘井子,20190608,39.00158439075201,121.62616882572375,龙畔金泉一期,11,10969,大连新型物业管理有限公司,0.5,辽宁,1,二手房,2002
甘井子区金家街17-7号,大连,暂无信息,甘井子,20190608,38.97493697764367,121.60110987128529,金一街,17,20130,无物业管理服务,-,辽宁,1,二手房,1970
中山区高尚路28-1号,大连,无开发商,中山,20190608,38.892673425111305,121.67148833870213,高福街,8,10899,无物业管理服务,-,辽宁,1,二手房,1994
沙河口区西南路851号3单元1层3号,大连,大连振屹房屋开发有限公司,沙河口,20190608,38.94344210837944,121.58246796944378,柳馨家园,7,11103,街道办事处（居委会）代管物业,0.6,辽宁,1,二手房,2000
西岗区鞍山路65-5号,大连,大连华阳房地产开发有限公司,沙河口,20190608,38.926971569913064,121.60260230348328,华阳风尚,17,17602,北京凯莱物业管理有限公司大连分公司,1.3,辽宁,1,二手房,2009
高新园区海苑街36号1单元2号公建,大连,大连友谊合升房地产开发有限公司,高新园区,20190608,20.06392317589085,110.32302599457326,壹品漫谷,29,18077,大连富丽华物业管理有限公司,1,辽宁,1,二手房,2008
甘井子区迎客路郭东街一品蓝天公建14号,大连,沈阳军区后勤部,甘井子,20190608,38.958456949708726,121.556756277476,虹桥干休所,8,13607,大连虹桥物业管理中心,0.1,辽宁,1,二手房,2000
开发区东北三街94号1层,大连,大连盛和房地产开发有限公司,开发区,20190608,39.05723508011585,121.80570768630555,盛和派帝盟,20,5825,街道办事处（居委会）代管物业,0.5,辽宁,1,二手房,1999
中山区北斗街53号1层1号,大连,无开发商,中山,20190608,38.92727355733075,121.67002970974048,鲁迅路（二七商圈）,4,11654,无物业管理服务,-,辽宁,1,二手房,1999
中山区共建巷61号,大连,无开发商,中山,20190608,38.91828093658718,121.66259221532148,39中七七街,8,25058,街道办事处（居委会）代管物业,0.5,辽宁,1,二手房,1995
中山区爱华街13号,大连,大连鸿霖房地产开发有限公司,中山,20190608,38.92541607518685,121.6535728031028,鸿霖大厦,50,9271,大连凯立宏物业管理有限公司,3.2,辽宁,1,二手房,2004
大连市开发区抚顺街30号,大连,无开发商,开发区,20190608,38.92272284555705,121.5977239817503,红梅南里,19,11172,街道办事处（居委会）代管物业,0.3,辽宁,1,二手房,1997
沙河口区中山路417A-4号,大连,无开发商,沙河口,20190608,38.90740323140171,121.59484801084653,星海造船楼,15,12795,无物业管理服务,-,辽宁,1,二手房,1996
高新园区硅谷假日小区25号楼地下室,大连,浦项（大连）软件园开发有限公司,高新园区,20190608,38.86467854992112,121.53720784613759,浦项道,35,23618,浦项(大连)物业管理有限公司,3.4,辽宁,1,二手房,2015
甘井子区惠泽南园3-4号,大连,大连长鹭房屋开发有限公司,甘井子,20190608,38.939326611323615,121.52337842113351,晶品缘林,15,16894,大连三和住邦物业管理有限公司,1,辽宁,1,二手房,2008
无门店信息,大连,无开发商,金州,20190608,34.52713835999158,118.76812980670795,福泉东里小区,27,6127,街道办事处（居委会）代管物业,0.5,辽宁,1,二手房,2006
无门店信息,大连,暂无信息,旅顺口,20190608,34.52713835999158,118.76812980670795,金川家园,26,11912,暂无信息,-,辽宁,1,二手房,2010
沙河口区黄河路883号,大连,大连安邦房地产开发有限公司,沙河口,20190608,38.919826721475204,121.57749657966676,阳光小筑,6,19165,大连远洋基业物业管理有限公司,0.8,辽宁,1,二手房,2007
沙河口区富国街14号1-1-2,大连,无开发商,沙河口,20190608,38.901027106600836,121.59047734850638,西安路（和平广场商圈）,3,13172,无物业管理服务,-,辽宁,1,二手房,1996
中山区中南路226号,大连,大连海王府房地产开发有限公司,中山,20190608,38.90029610333926,121.68178899957817,海王府现代城,14,16277,街道办事处（居委会）代管物业,1,辽宁,1,二手房,2004
沙河口区长江路738号,大连,暂无信息,西岗,20190608,38.913544290955585,121.59450670056631,21中鞍山路,11,21567,无物业管理服务,-,辽宁,1,二手房,1990
沙河口区联合路133号,大连,大连建兴房屋开发有限公司,沙河口,20190608,38.91608561262676,121.60480987310456,21中学中山南苑,3,22483,大连自然物业管理有限公司,1.3,辽宁,1,二手房,2001
无门店信息,大连,暂无信息,西岗,20190608,34.52713835999158,118.76812980670795,民航大连疗养院,1,15037,无物业管理服务,-,辽宁,1,二手房,1990
沙河口区兰田街33号,大连,大连大力房地产开发有限公司,沙河口,20190608,38.926138912221084,121.56486022834609,电业逸彩园,6,17038,大连亿安物业管理有限公司,0.5,辽宁,1,二手房,2002
开发区润海园中区62-9,大连,暂无信息,开发区,20190608,39.04047273176333,121.76392358042445,大连海湾城三期,23,12179,大连金广物业服务有限公司,3,辽宁,1,二手房,2017
金州区同济路44号,大连,无开发商,金州,20190608,39.10476859984152,121.71234684495865,永乐铭庭,35,8671,无物业管理服务,-,辽宁,1,二手房,2010
金州区同济路44号,大连,大连市碧鸿房地产开发有限责任公司,金州,20190608,39.10476859984152,121.71234684495865,碧鸿海悦园,48,7929,吉田物业管理有限公司,0.5,辽宁,1,二手房,2007
金州区光明街道育才街42-6号1-2层,大连,大连金华房地产开发有限公司,金州,20190608,39.109080894078986,121.7182584929096,金华小区一期,75,7685,大连金华兴物业有限公司,0.4,辽宁,1,二手房,2003
无门店信息,大连,远洋地产有限公司,金州,20190608,34.52713835999158,118.76812980670795,远洋假日养生庄园,160,9768,大连远洋基业物业管理有限公司,2,辽宁,1,二手房,2010
金州区同济路44号,大连,大连市金州区光明房地产开发有限公司,金州,20190608,39.10476859984152,121.71234684495865,绿苑小区,41,7311,街道办事处（居委会）代管物业,0.5,辽宁,1,二手房,2000
中山区北斗街53号1层1号,大连,无开发商,中山,20190608,38.92727355733075,121.67002970974048,丹东街（二七商圈）,9,13947,无物业管理服务,-,辽宁,1,二手房,1990
沙河口区民权街324号,大连,暂无信息,沙河口,20190608,38.92064616208148,121.59777611850379,79中民权小区,15,16162,大连福港物业管理有限公司,0.2,辽宁,1,二手房,1997
西岗区中山路158号唐山街市场外14号,大连,大连胜利路拓宽改造工程建设有限公司,西岗,20190608,38.91688106727098,121.63201298398174,星海绿山城,33,29804,无物业管理服务,1.5,辽宁,1,二手房,2015
甘井子区西南路979-7号公建,大连,大连圣元房地产开发有限公司,甘井子,20190608,38.96275592929325,121.5958698791777,亿达梧桐路,25,22630,亿达物业管理有限公司,1.5,辽宁,1,二手房,2010
中山区益民街16号1层1号,大连,大连上方房地产开发有限公司,中山,20190608,38.93092761298906,121.66470740073377,上方港景,29,16987,北京世邦魏理仕物业管理服务有限公司大连分公司,3.5,辽宁,1,二手房,2011
西岗区长红街4号1号公建,大连,大连丰源房地产开发有限公司,西岗,20190608,38.91377414665191,121.6302525225721,丰源小区,19,21641,大连广安物业有限公司,0.5,辽宁,1,二手房,1997
沙河口区西南路851号3单元1层3号,大连,无开发商,沙河口,20190608,38.94344210837944,121.58246796944378,凌山二街,8,11192,无物业管理服务,-,辽宁,1,二手房,1985
经济技术开发区红星海-A区81-2号1层,大连,无开发商,开发区,20190608,39.027851194371685,121.80327394132297,西雅图,36,10516,大连维泰物业管理有限公司,0.8,辽宁,1,二手房,2004
沙河口区成仁街91号,大连,大连城市建设集团有限公司,沙河口,20190608,38.91539947107844,121.59585638842556,79中学中盈家园,21,20332,街道办事处（居委会）代管物业,0.5,辽宁,1,二手房,2002
西岗区长春路334号,大连,无开发商,西岗,20190608,38.89807766522607,121.63221082858387,纪念街(石道街商圈),11,11401,无物业管理服务,-,辽宁,1,二手房,1990
沙河口区五四路207-1-9号,大连,无开发商,沙河口,20190608,38.913544290955585,121.59450670056631,成仁街,18,13246,无物业管理服务,-,辽宁,1,二手房,1995
中山区南山路59号1层4号,大连,无开发商,中山,20190608,38.91992239075882,121.6479206962747,昆明街（独立街）,13,19968,无物业管理服务,-,辽宁,1,二手房,1988
中山区爱华街13号,大连,无开发商,中山,20190608,38.92541607518685,121.6535728031028,九中爱华街,8,39532,无物业管理服务,-,辽宁,1,二手房,1992
中山区武昌街武昌公寓6号公建,大连,无开发商,中山,20190608,38.912280913445784,121.64921130527547,同福新居,5,13542,无物业管理服务,-,辽宁,1,二手房,2003
金州区先进街道渤海街1-4号1-2层,大连,无开发商,金州,20190608,39.09512910553563,121.74578812616167,金州东山路小区,27,7117,无物业管理服务,0.1,辽宁,1,二手房,1993
西岗区新田巷27号1-2,大连,无开发商,西岗,20190608,38.893215932589385,121.64103065169111,新环巷,4,11250,无物业管理服务,-,辽宁,1,二手房,1990
