address,city,developer,district,index_date,lat,lng,name,osv,price,property,property_fee,province,tv,type,year
大连经济技术开发区东城天下98-14,大连,大连乾豪集团有限公司,开发区,20190603,39.069195091289004,121.8502099927954,东城天下,338,8601,大连远洋基业物业管理有限公司,0.9,辽宁,46,二手房,2005
沙河口区新生路万客园3-7,大连,大连绿波房屋开发集团有限公司,沙河口,20190603,38.94412875710208,121.57006756704837,绿波小区,142,10813,大连绿波建设发展有限公司,0.2,辽宁,25,二手房,1998
沙河口区沙能街101号1单元1层1号,大连,大连新型房地产开发有限公司,沙河口,20190603,38.9366316275348,121.59031205759763,侯二小区,176,11073,街道办事处（居委会）代管物业,0.1,辽宁,32,二手房,1985
甘井子区祥溢园4号1单元1层9号公建,大连,大连长鹭房屋开发有限公司,甘井子,20190603,38.92981664067587,121.54940314023253,亲亲家园,73,15170,渤海吉祥物业管理有限公司,0.5,辽宁,26,二手房,2004
开发区湾里南12栋-16-17-18号,大连,大连金湾实业有限公司,开发区,20190603,39.070782084451,121.8506739675913,湾里南小区,370,8671,大连金湾物业管理有限公司,0.3,辽宁,37,二手房,2003
甘井子区榆林街37号-12公建,大连,大连新型房地产开发有限公司,甘井子,20190603,38.980133141940186,121.52779506952932,泡崖美林园,252,11502,大连新型物业管理有限公司,0.6,辽宁,57,二手房,2003
甘井子区宜居园10-1号房屋,大连,大连万科房地产开发有限公司,甘井子,20190603,38.99913094587405,121.52084969112292,万科魅力之城,204,14628,大连万科物业服务有限公司,1.5,辽宁,32,二手房,2012
甘井子区玉湖街25号2单元1层3号,大连,大连新型房地产开发有限公司,甘井子,20190603,38.97626265183615,121.54617349027997,泡崖四区,171,10532,大连新型物业管理有限公司,0.5,辽宁,26,二手房,2002
大连开发区金马路169-2-8号,大连,大连亿锋房地产实业有限公司,开发区,20190603,39.057398235688176,121.78261137849105,亿锋现代城,159,9958,亿锋豪景物业管理有限公司,1.1,辽宁,27,二手房,2006
沙河口区华新苑10号楼4号公建,大连,大连新型房地产开发有限公司,沙河口,20190603,38.94033750532864,121.58990295130229,侯一小区,142,11183,大连新兴物业管理有限公司,0.3,辽宁,28,二手房,1989
金州区金润花园B区47号1单元1层1号2号,大连,大连辽大房地产开发有限公司,金州,20190603,39.10434716151341,121.74517862677146,金润小区B区,192,8195,大连新兴物业管理有限公司,0.4,辽宁,28,二手房,2005
甘井子区泉水D1区37-7号,大连,大连运腾房地产开发有限公司,甘井子,20190603,39.013992871679214,121.61921940045104,锦泉源D2区,224,13226,大连嘉毅物业管理有限公司,0.5,辽宁,29,二手房,2005
沙河口区富民路120号4-1-1,大连,大连渤海红旗集团有限公司,沙河口,20190603,38.930937859528605,121.5647274237578,马栏小学北,88,10466,街道办事处（居委会）代管物业,0.2,辽宁,20,二手房,1994
金州新区先进街道渤海街7-4号1-2层、7-3号1-2层,大连,原金州纺织厂房地产公司,金州,20190603,39.09342713035472,121.74590886291374,金纺小区,178,6937,街道办事处（居委会）代管物业,0.5,辽宁,20,二手房,1985
沙河口区华北路448号楼1-4公建,大连,无开发商,沙河口,20190603,38.903224944733765,121.56809734950556,刘家桥,98,10771,街道办事处（居委会）代管物业,0.1,辽宁,21,二手房,1981
甘井子区玉丽街2号楼1单元4号公建,大连,大连新型房地产开发总公司,甘井子,20190603,38.98705071699301,121.55513043130172,泡崖康顺园,135,10976,大连新兴物业管理有限公司,0.5,辽宁,21,二手房,2007
甘井子区玉丽街2号楼1单元4号公建,大连,大连新型房地产开发有限公司,甘井子,20190603,38.98705071699301,121.55513043130172,泡崖七区,124,10705,大连新兴物业管理有限公司,0.3,辽宁,19,二手房,1999
甘井子区汇仁街22号,大连,远洋地产有限公司,甘井子,20190603,38.99712640764999,121.58834420439493,远洋广场,184,17551,大连远洋基业物业管理有限公司,1.4,辽宁,19,二手房,2010
沙河口区数码路北段18—20号,大连,大连软景房地产开发有限公司,高新园区,20190603,38.892000603999115,121.5494486394066,软景E居,92,27148,亿达物业管理有限公司,2.6,辽宁,18,二手房,2011
西岗区香炉礁24号1-1,大连,无开发商,西岗,20190603,38.92047268927287,121.61862512554262,香炉礁,192,10927,街道办事处（居委会）代管物业,0.1,辽宁,19,二手房,1979
甘井子区红旗花园23号楼19-24轴公建,大连,大连红旗兴达房地产开发有限公司,甘井子,20190603,38.93108029984587,121.54902145022133,兴达花园,87,12679,大连万泰物业管理有限公司,0.3,辽宁,20,二手房,2000
甘井子区宜居园10-1号房屋,大连,大连万科房地产开发有限公司,甘井子,20190603,38.99913094587405,121.52084969112292,万科朗润园,107,14884,大连万科物业服务有限公司,1.5,辽宁,19,二手房,2010
开发区正恒园1-16,大连,大连华宇房地产开发有限公司,开发区,20190603,39.04823944344617,121.76165468797754,左岸经典,252,9028,大连豪之英物业管理有限公司,1.8,辽宁,20,二手房,2009
大连市甘井子区柳林园8-7号,大连,大连万科置业有限公司,甘井子,20190603,38.91290525308349,121.47673750074993,万科溪之谷,203,14558,大连万科物业服务有限公司,0.6,辽宁,20,二手房,2007
金州区鹏程家园53#-8,大连,大连光伸房地产开发有限公司,开发区,20190603,39.03523987258615,121.80826248065051,绿洲半岛北岸,128,9244,大连经济技术开发区光伸物业服务有限公司,1.2,辽宁,20,二手房,2007
开发区东北三街94号1层,大连,大连欣达房地产开发有限公司,开发区,20190603,39.05723508011585,121.80570768630555,倚山里小区,236,7462,大连经济技术开发区聚盛达物业管理有限公司,0.2,辽宁,20,二手房,1996
沙河口区五一路177-1-1-1,大连,无开发商,沙河口,20190603,38.913544290955585,121.59450670056631,台山,87,11772,街道办事处（居委会）代管物业,0.5,辽宁,20,二手房,1987
大连经济技术开发区时代城4-3号1-2号,大连,远洋地产有限公司,开发区,20190603,39.0992481321252,121.83007860699459,远洋时代城一期,172,9204,大连远洋基业物业管理有限公司,1.5,辽宁,23,二手房,2012
开发区湾里南12栋-16-17-18号,大连,大连金湾实业有限公司,开发区,20190603,39.070782084451,121.8506739675913,湾里东,199,8128,大连金湾物业管理有限公司,0.5,辽宁,23,二手房,2004
大连市金州区站前街道生辉第一城14-3号1-2层,大连,大连新希望家园房地产有限公司,金州,20190603,39.0569681786798,121.74773530665969,新希望家园,195,8705,大连新希望物业服务有限公司,1.2,辽宁,23,二手房,2009
甘井子区华北路花锦园28号23-3-1-2建筑物,大连,大连东特房地产开发有限公司,甘井子,20190603,38.951627958411166,121.5739439799003,东特新天地,50,16490,大连瑞祥物业管理有限公司,0.5,辽宁,18,二手房,2003
甘井子区祥龙街2号楼1单元1楼1号,大连,大连恒新房地产开发有限公司,甘井子,20190603,38.988045874482445,121.60439401971377,华东人家,41,14409,大连福佳物业管理有限公司,1,辽宁,16,二手房,2007
沙河口区马栏北街186号,大连,大连渤海红旗集团有限公司,甘井子,20190603,38.913544290955585,121.59450670056631,马栏北街,41,11426,大连辽南物业管理有限公司,0.2,辽宁,16,二手房,1993
沙河口区前程街46号4—1—2号,大连,大连银地置业发展有限公司,沙河口,20190603,38.913544290955585,121.59450670056631,观山满庭芳,97,18223,大连新展物业管理有限公司,1,辽宁,13,二手房,2008
开发区润海园中区62-9,大连,华润（大连）房地产有限公司,开发区,20190603,39.04047273176333,121.76392358042445,华润海中国四期,118,14054,华润物业（大连）有限公司,3.1,辽宁,14,二手房,2014
天河路173-2号 华润考拉22号公建,大连,华润置地（大连）开发有限公司,甘井子,20190603,23.14720645345518,113.3277414923158,华润考拉住区,88,15161,华润物业（大连）有限公司,2.5,辽宁,13,二手房,2015
甘井子区泉水D6区51号,大连,大连锦丰和源祥房地产开发有限公司,甘井子,20190603,39.00897610161069,121.61789300655198,泉水人家幸福里,129,13840,大连泽霖物业管理有限公司,0.9,辽宁,13,二手房,2009
金州新区先进街道五一路350-1号1-2层,大连,暂无信息,金州,20190603,39.078667146419825,121.77094423323935,聚鑫小区三期,68,6879,大连新生活物业管理有限公司,0.5,辽宁,13,二手房,2008
沙河口区新生路万客园3-7,大连,大连鹏生房地产开发有限公司,沙河口,20190603,38.94412875710208,121.57006756704837,枫林绿洲,37,13994,大连鹏辉物业管理有限公司,0.3,辽宁,13,二手房,2008
甘井子区泉水D6区51号,大连,大连锦丰和源祥房地产开发有限公司,甘井子,20190603,39.00897610161069,121.61789300655198,泉水家年华,103,13435,街道办事处（居委会）代管物业,0.9,辽宁,13,二手房,2009
沙河口区星海广场B3区20—3号,大连,大连飞通房地产开发有限公司,沙河口,20190603,38.88782715536473,121.5869168319735,东方星海,123,17850,大连兆恒物业管理有限公司,2.9,辽宁,13,二手房,2009
沙河口区敦煌路357号10-11轴公建,大连,无开发商,沙河口,20190603,38.93891619583455,121.59150694046835,车家村,34,10197,街道办事处（居委会）代管物业,0.5,辽宁,13,二手房,1989
沙河口区西南路643号,大连,无开发商,沙河口,20190603,38.943483429804665,121.5833555851182,北甸街,39,11493,无物业管理服务,-,辽宁,14,二手房,1983
开发区黄海西路54号,大连,开发区城建局,开发区,20190603,39.047714586087785,121.76688238228269,青松北里,53,8169,大连经济技术开发区中强物业管理有限公司,0.2,辽宁,14,二手房,1996
开发区景和园1-7,大连,大连市政府工程建设指挥部,开发区,20190603,30.41892168817929,120.30896459202738,小孤山中里,110,7679,大连广谊物业管理有限公司,0.4,辽宁,14,二手房,1999
甘井子区泉水A2区10-3号,大连,源祥房地产开发有限公司,甘井子,20190603,39.00419463553784,121.61128690376383,美域盛景,143,12592,大连新华物业管理有限公司,0.8,辽宁,14,二手房,2008
沙河口区富国街14号1-1-2,大连,大连浩江房地产开发有限公司,沙河口,20190603,38.901027106600836,121.59047734850638,和平现代城,92,16372,大连万科物业服务有限公司,1,辽宁,15,二手房,2005
金州区金润小区B区861单元102,大连,大连辽大房地产开发有限公司,金州,20190603,39.10615165380565,121.74639264534615,金润小区A区,152,8509,大连新兴物业管理有限公司,0.4,辽宁,15,二手房,2005
甘井子区红凌路109号,大连,大连锦联地产集团有限公司,甘井子,20190603,38.923388478439314,121.54860212120927,锦绣暖山,71,14949,大连锦明物业服务有限公司,1.2,辽宁,15,二手房,2007
无门店信息,大连,大连一方生态城房地产开发有限公司,开发区,20190603,34.52713835999158,118.76812980670795,一方天鹅湖,190,8007,大连一方物业管理有限公司,2,辽宁,15,二手房,2010
沙河口区西南路40号楼,大连,无开发商,沙河口,20190603,38.94143337232082,121.58616557598133,星海公园,56,12621,无物业管理服务,0.5,辽宁,15,二手房,1990
开发区兴城路29-81层,大连,大连亿锋房地产实业有限公司,开发区,20190603,39.050214252167194,121.75835946441768,亿锋广场一期,81,14500,大连广恒物业管理有限公司,2.5,辽宁,15,二手房,2013
甘井子区静林街34号4单元1层2,大连,大连祥盛房屋开发有限公司,甘井子,20190603,38.98321485010885,121.58185179833856,千山心城,120,14414,大连百特物业管理有限公司,0.5,辽宁,15,二手房,2003
经济技术开发区城润万家62-8公建,大连,大连海汇房地产开发有限公司,开发区,20190603,39.06883436780937,117.72669530355309,城润万家,111,9287,大连正源物业服务有限公司,0.5,辽宁,16,二手房,2007
大连市开发区左岸经典正恒园1-17,大连,大连神洲众益集团有限公司,开发区,20190603,39.049057070649155,121.76187404250511,万国宫馆一期,124,13193,加拿大高力国际物业服务有限公司,2.4,辽宁,13,二手房,2009
甘井子区千山路66号楼2单元1楼2号,大连,大连宜和房地产开发有限公司,甘井子,20190603,38.985716774397915,121.58287796391829,盛世闲庭,55,15126,大连衡德物业管理有限公司,0.5,辽宁,10,二手房,2003
沙河口区富民路120号4-1-1,大连,大连渤海红旗集团有限公司,沙河口,20190603,38.930937859528605,121.5647274237578,马栏小学南,60,10891,大连辽南物业管理有限公司,0.2,辽宁,11,二手房,1995
金州新区站前街道生辉第一城5号楼1-2层4号,大连,大连新希望家园房地产有限公司,金州,20190603,39.05819721414208,121.74650438736514,新希望乐城,64,10216,大连新希望物业服务有限公司,1.6,辽宁,10,二手房,2013
沙河口区锦霞南园13号4单元1层3号,大连,大连锦绣房地产开发有限公司,沙河口,20190603,38.947634390493555,121.5510543155904,锦华中园,57,12151,大连锦绣物业管理有限公司,0.5,辽宁,11,二手房,2001
沙河口区兰田街33号,大连,无开发商,沙河口,20190603,38.926138912221084,121.56486022834609,辽师,43,11977,无物业管理服务,-,辽宁,11,二手房,1970
金州区凤翔路220号,大连,大连润景房地产开发有限公司,金州,20190603,39.08410553937731,121.77700083356399,恒盛阳光美麓,162,9586,沈阳阳光鑫地物业管理有限公司大连分公司,1.6,辽宁,11,二手房,2011
甘井子区泉水D1区37-7号,大连,大连运腾房地产开发有限公司,甘井子,20190603,39.013992871679214,121.61921940045104,锦泉源D3区,65,12378,大连南虹物业管理有限公司,0.5,辽宁,11,二手房,2007
西岗区平等街21号1层2号,大连,暂无信息,西岗,20190603,38.92251066253164,121.63236845125735,实验小学英华街,92,21301,无物业管理服务,0.6,辽宁,11,二手房,1989
沙河口区锦石路8号,大连,大连锦绣房地产开发有限公司,沙河口,20190603,38.94771288948481,121.56110903658733,锦泉南园,53,11412,大连锦绣物业管理有限公司,0.3,辽宁,11,二手房,1996
甘井子区泉水H3区15号3单元1层2号,大连,大连新型房地产开发有限公司,甘井子,20190603,39.00158439075201,121.62616882572375,龙畔金泉四期,70,13131,大连新型物业管理有限公司,0.4,辽宁,11,二手房,2005
沙河口区五一路219-1,大连,大连亿达房地产股份有限公司,沙河口,20190603,38.913544290955585,121.59450670056631,桃山小区,75,9878,街道办事处（居委会）代管物业,0.5,辽宁,11,二手房,1998
无门店信息,大连,大连聚达房地产开发有限公司,旅顺口,20190603,34.52713835999158,118.76812980670795,海尚明珠,159,9903,大连合生物业管理有限公司,1.5,辽宁,11,二手房,2012
大连市甘井子区七贤路8-3号,大连,大连万达商业地产有限公司,高新园区,20190603,38.86602612116956,121.53842265737707,万达海景公寓,122,11953,大连万达物业管理有限公司,2.9,辽宁,12,二手房,2013
沙河口区西南路851号3单元1层3号,大连,无开发商,沙河口,20190603,38.94344210837944,121.58246796944378,李家街,23,11382,无物业管理服务,0.1,辽宁,11,二手房,1985
甘井子区绿洲园60号,大连,大连新华房屋开发有限公司,甘井子,20190603,38.95390300214936,121.59409785747448,新华绿洲,82,18240,大连新华物业管理有限公司,0.6,辽宁,12,二手房,2003
沙河口区南沙街36号台二2号1-1-37,大连,无开发商,沙河口,20190603,38.90741410359388,121.57685699961822,南沙,80,11120,无物业管理服务,1,辽宁,12,二手房,1995
开发区润海园中区30-1,大连,华润（大连）房地产有限公司,开发区,20190603,39.04047273176333,121.76392358042445,华润海中国三期,164,14345,华润物业（大连）有限公司,3.1,辽宁,12,二手房,2011
开发区杏树里10栋-14,大连,无开发商,开发区,20190603,39.08113818354046,121.78505742127606,松苑山庄,79,5789,大连市金州区先进物业管理中心,0.5,辽宁,9,二手房,1999
沙河口区五一路326号,大连,大连亿达房地产股份有限公司,高新园区,20190603,38.913544290955585,121.59450670056631,亿达学清园,27,23255,大连软件园物业管理有限公司,0.5,辽宁,9,二手房,2001
经济技术开发区城润万家4-5号公建,大连,大连山河永好置业有限公司,开发区,20190603,39.05716325096989,121.75946281983826,山河秀景,54,9805,大连山河物业管理有限公司,1.5,辽宁,9,二手房,2010
金州区金润花园B区47号1单元1层1号2号,大连,暂无信息,金州,20190603,39.10434716151341,121.74517862677146,民馨小区,76,7038,无物业管理服务,0.3,辽宁,9,二手房,2008
大连市高新园区软件园路1A-3号,大连,亿达房地产开发有限公司,高新园区,20190603,38.89360013642285,121.54653763548625,软件园小区,58,14778,业主自筹物业,0.2,辽宁,9,二手房,1995
开发区松苑街23号,大连,大连盛和房地产开发有限公司,开发区,20190603,22.52087435807652,113.40156105086167,北欧假日,125,11769,大连鸿达物业管理有限公司,1.1,辽宁,9,二手房,2005
大连市开发区左岸经典正恒园1-17,大连,大连神洲众益集团有限公司,开发区,20190603,39.049057070649155,121.76187404250511,万国宫馆二期,127,14026,加拿大高力国际物业服务有限公司,2.4,辽宁,9,二手房,2009
沙河口区中山路417A-4号,大连,大连海孚房地产开发有限公司,沙河口,20190603,38.90740323140171,121.59484801084653,华业玫瑰东方,78,26610,深圳华业物业管理有限公司大连分公司,3.5,辽宁,9,二手房,2011
金州区金润小区B区861单元102,大连,大连中连房地产开发有限公司,金州,20190603,39.10615165380565,121.74639264534615,自然天城B区,69,7197,大连新生活物业管理有限公司,0.4,辽宁,9,二手房,2010
无门店信息,大连,大连乐启房地产开发有限公司,甘井子,20190603,34.52713835999158,118.76812980670795,三寰融创城南园,75,13073,融创物业,2.2,辽宁,9,二手房,2015
高新园区硅谷假日小区25号楼地下室,大连,大连鑫亿房屋开发有限公司,高新园区,20190603,38.86467854992112,121.53720784613759,硅谷假日,56,19731,大连斌弘物业管理有限公司,0.8,辽宁,9,二手房,2005
开发区鹏程家园66#-6、66#-7公建,大连,大连海富花园开发有限公司,开发区,20190603,37.92440451755906,112.59861436589645,海富经典,125,9961,大连银帆物业管理有限公司,1.2,辽宁,9,二手房,2009
开发区红梅小区19栋-2-1-1号,大连,香港北海集团,开发区,20190603,29.906498897603264,121.5913630631805,君悦豪庭,68,11064,街道办事处（居委会）代管物业,1.2,辽宁,9,二手房,2004
甘井子区红旗中路143号1层4号,大连,大连红旗兴达房地产开发有限公司,甘井子,20190603,38.93169566676921,121.5426632438217,兴达依山居,31,13902,大连金诚物业管理有限公司,0.3,辽宁,9,二手房,2004
沙河口区红凌路137号,大连,大连大实企业集团房屋开发有限公司,甘井子,20190603,38.922699288974506,121.54713601744747,叠翠山庄,36,10996,大连弘实物业管理有限公司,0.4,辽宁,10,二手房,2000
甘井子区山东路315号14栋1单元1跃2层13号,大连,华润置地（大连）开发有限公司,甘井子,20190603,39.00206212579579,121.59357231641214,华润置地广场一期,53,19902,华润物业（大连）有限公司,2.8,辽宁,10,二手房,2013
开发区安盛里5栋-4,大连,大连汽贸房屋开发有限公司,开发区,20190603,23.112106678834838,113.27801046214822,东北明珠,62,12217,大连汽贸物业管理有限公司,1.5,辽宁,10,二手房,2007
沙河口区西南路161号,大连,无开发商,沙河口,20190603,38.89269676588945,121.56639953951542,孙家沟,84,12187,无物业管理服务,-,辽宁,8,二手房,1990
无门店信息,大连,无开发商,甘井子,20190603,34.52713835999158,118.76812980670795,五二三厂,44,8430,无物业管理服务,0.5,辽宁,10,二手房,1950
甘井子区红南东街7-7号,大连,大连均卫达房地产开发有限公司,甘井子,20190603,38.92880462247992,121.54144910207062,亲亲阳光,12,12930,大连万泰物业管理有限公司,0.5,辽宁,8,二手房,2004
沙河口区绿清街12号,大连,大连绿波房屋开发集团有限公司,沙河口,20190603,38.93851335419565,121.57334844377094,绿波花园,32,13099,大连绿波建设发展有限公司,0.6,辽宁,8,二手房,2001
金州区胜利西小区44号楼,大连,大连金宸集团,金州,20190603,39.10507689383061,121.71536524220103,连大文润金宸一二期,53,10330,大连四通物业管理有限公司,0.9,辽宁,8,二手房,2010
中山区华乐街107-115号,大连,大连华顺房地产开发公司,中山,20190603,38.92093821499401,121.68879267531725,海景园,75,15694,大连华富物业管理有限公司,0.3,辽宁,8,二手房,1997
甘井子区泉水K2区1号-7,大连,大连新型房地产开发有限公司,甘井子,20190603,39.01148211821007,121.63131997900962,龙畔金泉五期K4区,134,12363,大连新兴物业管理有限公司,0.5,辽宁,8,二手房,2008
沙河口区南沙街36号台二2号1-1-37,大连,大连康加立置业有限公司,沙河口,20190603,38.90741410359388,121.57685699961822,台四小区,39,13067,大连弘达物业管理有限公司,-,辽宁,8,二手房,1996
甘井子区虹韵路114号,大连,大连亿达美加房地产开发有限公司,甘井子,20190603,38.95653310483457,121.5329869995972,第五郡五号地,85,27478,亿达物业管理有限公司,2,辽宁,8,二手房,2009
甘井子区泉水D1区37-7号,大连,大连运腾房地产开发有限公司,甘井子,20190603,39.013992871679214,121.61921940045104,锦泉源D1区,77,14052,大连嘉合物业管理有限公司,0.5,辽宁,8,二手房,2005
开发区黄海西路54号,大连,中国铁路十三局,开发区,20190603,39.047714586087785,121.76688238228269,翠竹小区,118,7773,大连经济技术开发区中强物业管理有限公司,0.3,辽宁,8,二手房,1996
西岗区黄河路90号公建部分,大连,暂无信息,西岗,20190603,38.92234529815978,121.62829331825485,实验小学市场街,56,22136,无物业管理服务,-,辽宁,8,二手房,1990
中山区碧浪园4号-3号,大连,大连万达房地产开发有限公司,中山,20190603,38.89147289460474,121.69329560326236,虎滩路,49,12626,大连虎滩置业物业管理有限公司,0.2,辽宁,8,二手房,1995
无门店信息,大连,大连益宁房地产开发有限公司,开发区,20190603,34.52713835999158,118.76812980670795,岭湾峰尚二期,78,9779,大连鸿达物业管理有限公司,0.6,辽宁,8,二手房,2010
中山区共建巷61号,大连,无开发商,中山,20190603,38.91828093658718,121.66259221532148,39中共建巷,24,26864,街道办事处（居委会）代管物业,0.5,辽宁,8,二手房,1990
金州区先进街道陶然居公建2-2号1层,大连,大连金信集团房地产有限公司,金州,20190603,39.08283372756215,121.76170982507143,金信陶然居,70,9340,北京瑞思特物业管理有限公司,0.5,辽宁,9,二手房,2007
甘井子区红旗中路143号1层4号,大连,大连保利红旗房地产开发有限公司,甘井子,20190603,38.93169566676921,121.5426632438217,保利西山林语,85,20270,保利物业服务有限公司,1.5,辽宁,9,二手房,2014
沙河口区锦江园30号1层公建,大连,大连锦绣房地产开发有限公司,沙河口,20190603,38.949985113183935,121.56560955976859,锦江园,91,10428,大连锦绣物业管理有限公司,0.3,辽宁,9,二手房,1983
甘井子区山东路商业街D区12号公建,大连,无开发商,甘井子,20190603,39.001060021502965,121.58883960371418,兴华路,53,12433,街道办事处（居委会）代管物业,0.5,辽宁,9,二手房,1989
甘井子区新兴路36号3-1-3,大连,大连新型房地产开发有限公司,甘井子,20190603,38.95800216293212,121.53151895549547,泡崖一区,107,10722,大连新兴物业管理有限公司,0.5,辽宁,9,二手房,1992
沙河口区兰田街33号,大连,无开发商,沙河口,20190603,38.926138912221084,121.56486022834609,马栏广场东,20,11080,大连辽南物业管理有限公司,0.2,辽宁,7,二手房,1995
西岗区黄河路90号公建部分,大连,大连鼎森房地产开发有限公司,西岗,20190603,38.92234529815978,121.62829331825485,金宸国际,48,17284,英联华（香港）物业管理顾问有限公司,2.2,辽宁,8,二手房,2004
甘井子区千山路26号,大连,大连市大钢集团,甘井子,20190603,38.985697948031984,121.58768860037272,山东路,81,12663,街道办事处（居委会）代管物业,0.2,辽宁,9,二手房,1986
开发区黄海西路54号,大连,大连凯伦房地产开发股份有限公司,开发区,20190603,39.047714586087785,121.76688238228269,凯伦凯悦,106,8695,大连凯悦物业管理有限公司,3.1,辽宁,7,二手房,2008
中山区碧浪园4号-3号,大连,大连三寰房地产开发有限公司,中山,20190603,38.89147289460474,121.69329560326236,碧浪园一期,42,13809,大连峰霖物业管理有限公司,0.3,辽宁,7,二手房,1999
甘井子区泡崖六小区6号楼1单元1层2号,大连,大连新型房地产开发有限公司,甘井子,20190603,38.98033159306754,121.55920598894072,泡崖六区,37,11504,大连新兴物业管理有限公司,0.3,辽宁,7,二手房,1999
大连市甘井子区辛如街35号1单元1层1号,大连,大连新星房地产开发有限公司,甘井子,20190603,38.96862607066881,121.52294869064194,新星绿城五期,68,13965,大连生生物业有限公司,0.8,辽宁,7,二手房,2009
甘井子区虹城路503号1-1号,大连,大连新星房地产开发有限公司,甘井子,20190603,38.981193588625004,121.49964051837122,艾维尼小城,88,15488,大连生生物业有限公司,1.8,辽宁,8,二手房,2010
甘井子区玉湖街18号1单元1-1,大连,大连新型房地产开发有限公司,甘井子,20190603,38.97554522550266,121.54552721066896,书香府第二期,24,11307,大连新型物业管理有限公司,0.5,辽宁,7,二手房,2002
沙河口区富国街14号1-1-2,大连,大连永辉房地产开发有限公司,沙河口,20190603,38.901027106600836,121.59047734850638,百年汇,117,18524,大连百年城物业管理有限公司,2.8,辽宁,8,二手房,2007
开发区兴城路29-81层,大连,大连兆佳房地产开发有限公司,开发区,20190603,39.050214252167194,121.75835946441768,自由向,57,13977,大连华安物业管理有限公司,2.4,辽宁,8,二手房,2008
沙河口区绿波路34号楼5单元1楼3号,大连,大连东北房屋开发有限公司,沙河口,20190603,38.94049893962156,121.57316620632874,帝欧花园,30,17402,大连绿波建设发展有限公司,0.6,辽宁,8,二手房,2005
金州新区站前街道生辉第一城5号楼1-2层4号,大连,大连公路工程集团生辉房地产开发有限公司,金州,20190603,39.05819721414208,121.74650438736514,生辉第一城,131,10902,大连生辉物业管理有限公司,1.2,辽宁,8,二手房,2007
开发区红星海-B区89-1号,大连,远洋地产有限公司,开发区,20190603,39.027851194371685,121.80327394132297,红星海五期青屿蓝,218,14832,大连远洋基业物业管理有限公司,2.2,辽宁,8,二手房,2012
沙河口区锦石路8号,大连,大连锦绣房地产开发有限公司,沙河口,20190603,38.94771288948481,121.56110903658733,锦云中园,63,10608,大连锦绣物业管理有限公司,0.3,辽宁,8,二手房,1996
沙河口区富静街26号1单元1层5号,大连,大连正源房地产开发有限公司,沙河口,20190603,38.908727606250466,121.58667844684369,幸福e家五期,189,37935,大连正源物业服务有限公司,1.8,辽宁,8,二手房,2008
金州新区先进街道五一路350-1号1-2层,大连,大连市金州区育才房地产开发有限公司,金州,20190603,39.078667146419825,121.77094423323935,康居小区,55,7625,街道办事处（居委会）代管物业,-,辽宁,8,二手房,1998
金州区南棉路310号,大连,无开发商,金州,20190603,39.09939229372624,121.72414976100345,南棉小区,160,7139,街道办事处（居委会）代管物业,0.5,辽宁,8,二手房,1990
开发区润海园中区18#2号,大连,大连布鲁科房地产开发有限公司,开发区,20190603,39.04047273176333,121.76392358042445,热岛黄金海岸,185,11013,大连戴德梁行物业管理有限公司,1.6,辽宁,8,二手房,2010
金州区先进街道渤海街1-4号1-2层,大连,无开发商,金州,20190603,39.09512910553563,121.74578812616167,金元小区,64,7084,街道办事处（居委会）代管物业,0.1,辽宁,8,二手房,1993
大连市金州新区中长街道碧海尚城5-4号1-2层,大连,大连集品置业有限公司,金州,20190603,39.100290954587514,121.7304796052032,东林世家,43,14972,大连百安物业管理有限公司,1,辽宁,8,二手房,2008
无门店信息,大连,大连航逸房地产开发有限公司,甘井子,20190603,34.52713835999158,118.76812980670795,中航华府,47,14486,中航物业管理有限公司大连分公司,2.5,辽宁,8,二手房,2016
甘井子区柳树南街45-10号,大连,中体产业集团大连乐百年置业有限公司,甘井子,20190603,38.92567666296449,121.4841330254372,中体奥林匹克花园,71,13547,广东中奥物业有限公司大连分公司,1.9,辽宁,8,二手房,2010
开发区润海园中区65-7号1-2号,大连,华润（大连）房地产有限公司,开发区,20190603,39.04047273176333,121.76392358042445,华润海中国五期,104,14651,华润物业（大连）有限公司,3.1,辽宁,7,二手房,2015
甘井子区甘井子路32号楼1单元1楼9号,大连,无开发商,甘井子,20190603,38.982488275116516,121.63345389253514,松江小区,36,10070,街道办事处（居委会）代管物业,0.5,辽宁,7,二手房,1990
沙河口区红旗东路18-22号2单元1楼3号,大连,大连渤海红旗集团有限公司,甘井子,20190603,38.913544290955585,121.59450670056631,红旗东路,47,11912,渤海吉祥物业管理有限公司,0.4,辽宁,7,二手房,1992
开发区高新里6栋-8,大连,无开发商,开发区,20190603,39.0710895068195,121.82860134358343,高民里,62,6624,街道办事处（居委会）代管物业,0.2,辽宁,7,二手房,1996
中山区山屏街116号1-1,大连,大连中信海港投资有限公司,中山,20190603,38.90729438486833,121.68598159980013,山屏街,39,11727,暂无信息,-,辽宁,7,二手房,1988
中山区杏林街66—5号,大连,嘉和房地产集团有限公司,中山,20190603,38.92572771377599,121.66490555592502,嘉和花样年华三期,53,24356,大连嘉和物业管理有限公司,3.5,辽宁,7,二手房,2007
沙河口区锦石园24-7号第A2-13幢1单元1层1号,大连,大连鼎新房地产开发有限公司,甘井子,20190603,38.913544290955585,121.59450670056631,鼎新鼎润府,29,19919,大连中原物业代理有限公司,0.6,辽宁,7,二手房,2006
大连市沙河口区黄河路729号,大连,无开发商,沙河口,20190603,38.91710565765228,121.58954758972729,南昌平小区,56,12807,街道办事处（居委会）代管物业,0.8,辽宁,7,二手房,1986
甘井子区华龙南园12-4-3-1-3,大连,大连长鹭房屋开发有限公司,甘井子,20190603,38.98528794231248,121.61028969481718,晶品枫林,47,13685,北京房修一物业管理有限公司,0.5,辽宁,7,二手房,2008
甘井子区金家街17-7号,大连,暂无信息,甘井子,20190603,38.97493697764367,121.60110987128529,金二街,43,19548,无物业管理服务,-,辽宁,7,二手房,1970
沙河口区红旗东路18-22号2单元1楼3号,大连,大连益嘉房屋开发有限公司,沙河口,20190603,38.913544290955585,121.59450670056631,益嘉广场,47,17003,大连益嘉物业管理有限公司,1.8,辽宁,7,二手房,2012
甘井子区虹城路503号1-1号,大连,大连易和房地产集团有限公司,甘井子,20190603,38.981193588625004,121.49964051837122,岭秀滨城悦和东园,69,15187,大连易兴物业服务有限公司,1.3,辽宁,7,二手房,2010
开发区鹏程家园66#-6、66#-7公建,大连,大连新天润企业集团有限公司,开发区,20190603,37.92440451755906,112.59861436589645,水御兰庭,37,9820,大连港力物业管理有限公司,1.1,辽宁,7,二手房,2007
高新园区硅谷假日小区25号楼地下室,大连,大连志恒房地产开发有限公司,高新园区,20190603,38.86467854992112,121.53720784613759,菁英汇,60,15605,大连海创物业管理有限公司,1.2,辽宁,7,二手房,2007
金州区站前街道盛滨花园B区13号楼2号公建,大连,大连和嘉房地产开发有限公司,金州,20190603,39.09609011892329,121.7335816409767,和嘉佳园,80,6960,街道办事处（居委会）代管物业,0.5,辽宁,7,二手房,2009
沙河口区西南路643号,大连,大连泰安房地产开发有限公司,沙河口,20190603,38.943483429804665,121.5833555851182,幸福小区(沙河口),30,12302,大连三宝物业发展有限公司,0.3,辽宁,7,二手房,1998
沙河口区恒利园42号-8,大连,大连新型房地产开发有限公司,沙河口,20190603,38.93357562498634,121.57914091532649,中铁十三局,14,13191,大连新兴物业管理有限公司,0.3,辽宁,7,二手房,1993
甘井子区芳韵街31号,大连,大连亿达房地产股份有限公司,甘井子,20190603,38.95628814568166,121.59125586946814,唯美品格,98,30061,亿达物业管理有限公司,1.5,辽宁,7,二手房,2009
甘井子区虹城路503号1-1号,大连,大连易和房地产集团有限公司,甘井子,20190603,38.981193588625004,121.49964051837122,岭秀滨城悦和中园,32,15679,大连易兴物业服务有限公司,1.3,辽宁,7,二手房,2009
无门店信息,大连,大连唐银盛兴置业有限公司,开发区,20190603,34.52713835999158,118.76812980670795,钻石9座,47,9954,大连佳家物业管理有限公司,1.5,辽宁,7,二手房,2014
开发区润海园中区18#2号,大连,华润（大连）房地产有限公司,开发区,20190603,39.04047273176333,121.76392358042445,华润海中国六期,65,14561,华润物业（大连）有限公司,3.1,辽宁,7,二手房,2016
甘井子区红旗西路104-7,大连,大连盛达基业房地产开发有限公司,甘井子,20190603,38.940335495502666,121.52722586363274,依山云水,23,14572,大连盛新物业管理有限公司,0.4,辽宁,7,二手房,2004
甘井子区千山路26号,大连,大连市大钢集团,甘井子,20190603,38.985697948031984,121.58768860037272,华中街,29,12136,街道办事处（居委会）代管物业,0.1,辽宁,6,二手房,1986
沙河口区绿清街12号,大连,大连中海新城置业有限公司,沙河口,20190603,38.93851335419565,121.57334844377094,中海英伦观邸,56,23080,大连中海物业管理有限公司,1.8,辽宁,6,二手房,2009
中山区武昌街武昌公寓6号公建,大连,无开发商,中山,20190603,38.912280913445784,121.64921130527547,宪立巷,21,9850,无物业管理服务,-,辽宁,6,二手房,1988
沙河口区华北路448号楼1-4公建,大连,无开发商,甘井子,20190603,38.903224944733765,121.56809734950556,周山街,23,16382,街道办事处（居委会）代管物业,0.5,辽宁,6,二手房,1989
甘井子区山东路315号14栋1单元1跃2层13号,大连,华润置地（大连）有限公司,甘井子,20190603,39.00206212579579,121.59357231641214,华润置地广场二期,49,20474,华润物业（大连）有限公司,2.9,辽宁,6,二手房,2013
开发区高新里6栋-8,大连,无开发商,开发区,20190603,39.0710895068195,121.82860134358343,高志里小区,41,6564,街道办事处（居委会）代管物业,0.3,辽宁,6,二手房,1993
经济技术开发区城润万家62-8公建,大连,大连海汇房地产开发有限公司,开发区,20190603,39.06883436780937,117.72669530355309,正源吉祥e家祥福园,57,11399,大连正源物业服务有限公司,1.5,辽宁,6,二手房,2015
沙河口区华新苑10号楼4号公建,大连,大连祥盛房屋开发有限公司,沙河口,20190603,38.94033750532864,121.58990295130229,香洲心城,27,18681,大连百特物业管理有限公司,1,辽宁,6,二手房,2011
西岗区八一路196号1-3,大连,大连三环置业有限公司,西岗,20190603,38.92047268927287,121.61862512554262,桃花源小区,49,10212,大连三寰物业管理有限公司,0.5,辽宁,6,二手房,1996
甘井子区泉水B5区27-9,大连,大连运达房地产集团有限公司,甘井子,20190603,39.01477152073682,121.60970286326823,锦泉源B5区,70,12733,政治物业管理有限公司,0.1,辽宁,6,二手房,1999
大连市金州新区中长街道碧海尚城5-4号1-2层,大连,无开发商,金州,20190603,39.100290954587514,121.7304796052032,体育场小区,67,7232,街道办事处（居委会）代管物业,2,辽宁,6,二手房,1995
高新园敬贤街23-11号,大连,中海东丰地产（大连）有限公司,高新园区,20190603,38.869456648212356,121.53023725049893,中海华庭,66,20293,大连中海物业管理有限公司,2,辽宁,6,二手房,2009
金州区同济路44号,大连,大连阿尔滨中辰置业有限公司,金州,20190603,39.10476859984152,121.71234684495865,瀛海金洲,97,8444,大连阿尔滨汇城物业服务有限公司,0.5,辽宁,6,二手房,2011
甘井子区山东路398号,大连,大连盛铭资产管理有限公司,甘井子,20190603,38.99821826443242,121.59274974973462,亿合城,73,18418,大连盛安物业管理有限公司,1.5,辽宁,6,二手房,2013
中山区解放路471-22号,大连,大连圣北开发有限公司,中山,20190603,38.901309943567504,121.65419095766659,亿达云集,100,19912,亿达物业管理有限公司,1.9,辽宁,6,二手房,2015
金州新区润海园中区18#2号,大连,华润置地（大连）有限公司,开发区,20190603,39.04047273176333,121.76392358042445,华润海中国二期,158,14297,华润物业（大连）有限公司,2.8,辽宁,6,二手房,2011
"西岗区泰公街20号2层7号 西岗区久寿街22号1层14号""",大连,大连润德君城房地产开发有限公司,西岗,20190603,38.92600196862723,121.62141976476381,北京公园,40,23949,大连润德物业管理有限公司,2.2,辽宁,6,二手房,2010
无门店信息,大连,大连环宇置业有限公司,开发区,20190603,34.52713835999158,118.76812980670795,环宇品阁,83,6265,大连环宇物业管理有限公司,1.5,辽宁,6,二手房,2010
大连市甘井子区丰收路3-5号,大连,大连万鼎置业有限公司,甘井子,20190603,38.965377255081755,121.58288415324094,万科蓝山,24,26098,大连万科物业服务有限公司,2.9,辽宁,6,二手房,2015
西岗区长红街4号1号公建,大连,无开发商,西岗,20190603,38.91377414665191,121.6302525225721,34中林荫巷,13,26532,无物业管理服务,-,辽宁,6,二手房,1997
无门店信息,大连,大连航宇房屋开发有限公司,甘井子,20190603,34.52713835999158,118.76812980670795,西郊棠梨园,11,11598,渤海吉祥物业管理有限公司,0.5,辽宁,5,二手房,2007
甘井子区哲林北园17-6号,大连,大连恒德房屋开发有限公司,甘井子,20190603,38.9600267109581,121.53876726228256,恒德橄榄季,60,21809,大连恒德物业服务有限公司,1.4,辽宁,6,二手房,2009
沙河口区绿清街12号,大连,无开发商,沙河口,20190603,38.93851335419565,121.57334844377094,绿波B区,21,9225,街道办事处（居委会）代管物业,0.1,辽宁,5,二手房,1992
大连市甘井子区张前路620-18号（第19幢1单元1跃2层14号）,大连,无开发商,甘井子,20190603,38.98764207496216,121.52409526893047,嘉安边防家园,14,12174,大连新型物业管理有限公司,1,辽宁,5,二手房,2009
开发区兴城路29-81层,大连,大连华宇房地产开发有限公司,开发区,20190603,39.050214252167194,121.75835946441768,华宇梧桐苑,19,12938,大连永嘉物业管理公司,1.9,辽宁,5,二手房,2013
开发区湾里南12栋-16-17-18号,大连,无开发商,开发区,20190603,39.070782084451,121.8506739675913,东城国际,45,8626,大连乾豪物业管理有限公司,1,辽宁,6,二手房,2006
无门店信息,大连,大连海脉房地产开发有限公司,金州,20190603,34.52713835999158,118.76812980670795,海脉未来城,29,8164,大连豪斯威物业管理有限公司,1,辽宁,6,二手房,2013
无门店信息,大连,大连龙湖西城置业有限公司,甘井子,20190603,34.52713835999158,118.76812980670795,龙湖滟澜山,55,20362,大连龙湖物业服务有限公司,6.6,辽宁,6,二手房,2015
无门店信息,大连,大连君悦房地产开发有限公司,甘井子,20190603,34.52713835999158,118.76812980670795,君悦晟景,22,12414,大连弘实物业有限公司,1.2,辽宁,6,二手房,2011
金州区金湾路132-2号,大连,大连金新房地产开发有限公司,金州,20190603,39.10269111644727,121.72221060686516,金州福佳新天地广场,102,8360,大连福佳物业管理有限公司,1.8,辽宁,6,二手房,2011
无门店信息,大连,大连世茂嘉年华置业有限公司,金州,20190603,34.52713835999158,118.76812980670795,世茂御龙海湾,251,11475,经纬物业(中国)有限公司,2,辽宁,6,二手房,2014
莲花山路89-3号,大连,大连胜利路拓宽改造工程建设有限公司,沙河口,20190603,38.902848261803356,121.6041720815823,星海融汇,104,21828,大连星海湾商务区物业管理有限公司,1.5,辽宁,6,二手房,2014
无门店信息,大连,大连宏港房地产开发有限公司,开发区,20190603,34.52713835999158,118.76812980670795,港湾观海,71,8653,大连宏港物业管理有限公司,0.5,辽宁,6,二手房,2013
中山区清溪南街11号,大连,无开发商,中山,20190603,38.88919604283904,121.66466481004835,秀月小区,35,17241,无物业管理服务,0.5,辽宁,6,二手房,1982
开发区红梅小区19栋-2-1-1号,大连,开发区城建局,开发区,20190603,29.906498897603264,121.5913630631805,红梅小区,47,11890,街道办事处（居委会）代管物业,0.3,辽宁,6,二手房,1995
无门店信息,大连,大连经开万达广场投资有限公司,开发区,20190603,34.52713835999158,118.76812980670795,大连开发区万达广场,128,9209,大连万达物业管理有限公司,2.5,辽宁,6,二手房,2015
甘井子区华龙南园34-5号34-库4号34-5号,大连,大连钧卫达房地产开发有限公司,甘井子,20190603,38.98270467597865,121.6117222765123,亲亲美境,24,12159,大连三和住邦物业管理有限公司,0.9,辽宁,6,二手房,2008
甘井子区西南路979-7号公建,大连,大连祥盛房屋开发有限公司,甘井子,20190603,38.96275592929325,121.5958698791777,金盛家园,50,17078,大连宏华物业管理有限公司,0.5,辽宁,6,二手房,2001
开发区安盛里5栋-4,大连,大连华宇房地产开发有限公司,开发区,20190603,23.112106678834838,113.27801046214822,叠翠花香,30,9225,大连经济技术开发区永嘉物业管理有限公司,0.5,辽宁,6,二手房,2000
甘井子区虹港路16号楼1层公建,大连,无开发商,甘井子,20190603,38.9645939333502,121.553851837474,迎客路（机场商圈）,30,11845,街道办事处（居委会）代管物业,0.2,辽宁,6,二手房,1990
甘井子区柳树南街45-10号,大连,大连都源置业有限公司,甘井子,20190603,38.92567666296449,121.4841330254372,依云溪谷,64,15378,大连远洋物业管理有限公司,1.2,辽宁,6,二手房,2008
开发区红星海B区212-1,大连,远洋地产有限公司,开发区,20190603,39.027851194371685,121.80327394132297,红星海时光的岸,70,13549,大连远洋基业物业管理有限公司,2.2,辽宁,6,二手房,2015
沙河口区恒利园42号-8,大连,大连天河房地产开发集团有限公司,沙河口,20190603,38.93357562498634,121.57914091532649,天河新苑,42,13013,大连天河物业管理有限公司,0.4,辽宁,6,二手房,2000
沙河口区富国街34-3,大连,大连万达房地产开发有限公司,沙河口,20190603,38.90159716600704,121.58930603357904,星海人家,66,26973,大连万景物业管理有限公司,1.2,辽宁,6,二手房,2001
高新园区火炬路18号,大连,大连嘉创房地产开发有限公司,高新园区,20190603,38.937738080520404,117.39340752036043,嘉创E人国际,70,15718,大连紫金物业管理有限公司,2,辽宁,6,二手房,2011
无门店信息,大连,暂无信息,甘井子,20190603,34.52713835999158,118.76812980670795,亿达春田蝶园,60,17058,亿达物业管理有限公司,2.2,辽宁,5,二手房,2014
中山区中南路店212号门头房,大连,无开发商,中山,20190603,38.91149759691359,121.67700561077149,中南路,61,12822,街道办事处（居委会）代管物业,-,辽宁,5,二手房,1989
沙河口区展望街29,大连,大连嘉源置业发展有限公司,沙河口,20190603,38.93473052900021,121.57390298303343,御园,41,18039,大连御博物业,2,辽宁,5,二手房,2015
无门店信息,大连,大连运达房地产集团有限公司,甘井子,20190603,34.52713835999158,118.76812980670795,运达诺维溪谷一期,44,16531,大连运达物业有限公司,1.8,辽宁,5,二手房,2010
西岗区华北路100号1层5号,大连,大连万达房地产开发有限公司,西岗,20190603,38.92047268927287,121.61862512554262,香海花园,20,16295,大连万达物业管理有限公司,0.8,辽宁,5,二手房,1999
甘井子区虹港路16号楼1层公建,大连,亿达房地产开发有限公司,甘井子,20190603,38.9645939333502,121.553851837474,虹港路（机场商圈）,37,12264,亿达物业管理有限公司,0.2,辽宁,5,二手房,1996
甘井子区红旗西路104-7,大连,大连盛华房地产开发有限公司,甘井子,20190603,38.940335495502666,121.52722586363274,水映西山,51,16312,大连长青物业管理中心,0.9,辽宁,5,二手房,2007
无门店信息,大连,无开发商,甘井子,20190603,34.52713835999158,118.76812980670795,七星广场,17,8945,街道办事处（居委会）代管物业,0.2,辽宁,5,二手房,1995
甘井子区哲林北园17-6号,大连,大连科宏房屋开发有限公司,甘井子,20190603,38.9600267109581,121.53876726228256,虹港新居,27,13454,大连空港物业管理有限公司,0.4,辽宁,5,二手房,1996
甘井子区甘井子街3号公建,大连,无开发商,甘井子,20190603,38.982086281836246,121.63426694995971,北山小区,22,8620,无物业管理服务,0.2,辽宁,5,二手房,1988
中山区爱华街13号,大连,无开发商,中山,20190603,38.92541607518685,121.6535728031028,39中安阳街,29,26051,无物业管理服务,-,辽宁,5,二手房,1990
开发区东北三街94号1层,大连,大连港连房地产开发有限公司,开发区,20190603,39.05723508011585,121.80570768630555,海航YOHO湾,38,10328,海航物业管理有限公司大连分公司,1.8,辽宁,5,二手房,2014
金州新区先进街道五一路350-1号1-2层,大连,大连中连房地产开发有限公司,金州,20190603,39.078667146419825,121.77094423323935,聚鑫小区二期,33,7755,大连新生活物业管理有限公司,0.5,辽宁,5,二手房,2008
沙河口区长江路738号,大连,无开发商,西岗,20190603,38.913544290955585,121.59450670056631,21中五一广场,27,20578,无物业管理服务,-,辽宁,5,二手房,1976
大连市开发区裕民新苑42-7,大连,无开发商,开发区,20190603,39.070771020021674,121.85093056856022,澳东世纪,29,11476,街道办事处（居委会）代管物业,0.5,辽宁,5,二手房,2002
西岗区长春路334号,大连,大连新型房地产开发总公司,西岗,20190603,38.89807766522607,121.63221082858387,林茂小区,36,10237,大连新型物业管理有限公司,0.2,辽宁,5,二手房,1995
甘井子区西南路979-7号公建,大连,暂无信息,甘井子,20190603,38.96275592929325,121.5958698791777,八十中红咀街,134,15707,街道办事处（居委会）代管物业,0.2,辽宁,5,二手房,1988
甘井子区华龙南园12-4-3-1-3,大连,大连瑞祥房地产开发有限公司,甘井子,20190603,38.98528794231248,121.61028969481718,今都小区,50,12006,大连泰安物业管理有限公司,0.2,辽宁,5,二手房,1996
沙河口区前程街46号4—1—2号,大连,大连渤海红旗集团有限公司,甘井子,20190603,38.913544290955585,121.59450670056631,前程街,43,11821,渤海吉祥物业管理有限公司,0.4,辽宁,5,二手房,2000
沙河口区锦霞南园1号1层公建,大连,大连锦绣房地产开发有限公司,沙河口,20190603,38.947367114450536,121.55342584213675,锦虹北园,17,11925,大连锦绣物业管理有限公司,0.3,辽宁,5,二手房,1998
大连市金州新区友谊街道和平路59-10号1-2层公建,大连,无开发商,金州,20190603,39.112168401852266,121.72006917947859,和平小区,27,8266,街道办事处（居委会）代管物业,0.1,辽宁,5,二手房,1996
金州新区先进街道渤海街7-4号1-2层、7-3号1-2层,大连,无开发商,金州,20190603,39.09342713035472,121.74590886291374,金色阳光,20,8142,大连金广物业有限公司,0.5,辽宁,5,二手房,2005
开发区兴城路29-81层,大连,大连亿锋房地产实业有限公司,开发区,20190603,39.050214252167194,121.75835946441768,亿锋广场二期,50,14812,大连广恒物业管理有限公司,2.5,辽宁,5,二手房,2015
中山区碧浪园4号-3号,大连,无开发商,中山,20190603,38.89147289460474,121.69329560326236,碧海园,22,17921,大连远洋基业物业管理有限公司,0.5,辽宁,5,二手房,2000
甘井子区锦城东园1号3单元1层2号,大连,大连锦绣房地产开发有限公司,沙河口,20190603,38.952805477462775,121.55656194973994,锦城东园,42,17897,大连锦绣物业管理有限公司,0.6,辽宁,5,二手房,2006
无门店信息,大连,大连鹏玥房地产开发有限公司,开发区,20190603,34.52713835999158,118.76812980670795,中环城市广场,23,9092,大连鹏玥物业公司,1.5,辽宁,5,二手房,2015
开发区小孤山西里3栋-11号,大连,大连开建房地产开发有限公司,开发区,20190603,39.02715282297674,121.80682183666346,瑞仕尚城,53,11125,大连阿尔滨汇城物业服务有限公司,1.1,辽宁,5,二手房,2008
"西岗区泰公街20号2层7号 西岗区久寿街22号1层14号""",大连,无开发商,西岗,20190603,38.92600196862723,121.62141976476381,北京街南,54,14139,大连长青物业管理中心,0.2,辽宁,5,二手房,1975
金州区同济路44号,大连,大连金宸集团,金州,20190603,39.10476859984152,121.71234684495865,连大文润金宸三期,58,11155,大连四通物业管理有限公司,1,辽宁,5,二手房,2010
中山区北斗街53号1层1号,大连,大连运达房地产集团有限公司,中山,20190603,38.92727355733075,121.67002970974048,运达嘉洲阳光,32,18898,大连运达物业有限公司,1.8,辽宁,5,二手房,2007
开发区东北三街94号1层,大连,大连同济房地产开发有限公司,开发区,20190603,39.05723508011585,121.80570768630555,新东方公寓三期,87,6623,大连同济物业管理有限公司,1.5,辽宁,5,二手房,2007
大连市甘井子区丰收路3-5号,大连,大连铁路房地产开发有限责任公司,甘井子,20190603,38.965377255081755,121.58288415324094,王家桥小区,25,12762,大连铁路物业管理有限公司,0.1,辽宁,5,二手房,1989
沙河口区西南路161号,大连,无开发商,沙河口,20190603,38.89269676588945,121.56639953951542,大医物业,7,13028,街道办事处（居委会）代管物业,0.5,辽宁,5,二手房,1990
甘井子区泉水B2区19-1号,大连,大连运达房地产集团有限公司,甘井子,20190603,39.0101309886317,121.60812584213187,锦泉源B1区,66,13264,大连佳泰物业管理有限公司,0.5,辽宁,5,二手房,2001
无门店信息,大连,大连亿达房地产股份有限公司,旅顺口,20190603,34.52713835999158,118.76812980670795,亿达玉龙湾,49,9347,亿达物业管理有限公司,1.5,辽宁,5,二手房,2013
金州区南棉路310号,大连,大连金连房地产开发有限公司,金州,20190603,39.09939229372624,121.72414976100345,金连福地,30,7900,街道办事处（居委会）代管物业,0.5,辽宁,5,二手房,2010
无门店信息,大连,大连乾豪集团有限公司,开发区,20190603,34.52713835999158,118.76812980670795,格林小镇,181,8093,沈阳瑞码阁物业管理有限公司大连分公司,0.6,辽宁,5,二手房,2002
甘井子区华北路花锦园28号23-3-1-2建筑物,大连,大连东特房地产开发有限公司,甘井子,20190603,38.951627958411166,121.5739439799003,东特爱俪舍,43,15937,大连东特祥禾物业管理有限公司,0.6,辽宁,5,二手房,2004
无门店信息,大连,大连宏鼎房地产开发有限公司,旅顺口,20190603,34.52713835999158,118.76812980670795,国宝星月湾,57,11761,大连星海国宝物业管理有限公司,2.5,辽宁,5,二手房,2015
中山区同心街72号1楼公建,大连,大连泰宸房地产开发有限责任公司,中山,20190603,38.91979245940674,121.64769198230202,伊景华园,65,26006,街道办事处（居委会）代管物业,2.2,辽宁,5,二手房,2006
甘井子区惠泽南园3-4号,大连,大连全统房地产开发有限公司,甘井子,20190603,38.939326611323615,121.52337842113351,全统西山丽水,15,14729,大连新华物业管理有限公司,0.5,辽宁,5,二手房,2008
沙河口区锦石路8号,大连,大连运腾房地产开发有限公司,沙河口,20190603,38.94771288948481,121.56110903658733,锦云南园,59,9998,大连锦绣物业管理有限公司,0.3,辽宁,5,二手房,1996
中山区爱华街13号,大连,大连锦联地产集团有限公司,中山,20190603,38.92541607518685,121.6535728031028,经典生活,34,8268,大连锦联物业管理有限公司,2.2,辽宁,5,二手房,2003
沙河口区黑石礁街3号1层1-1号,大连,无开发商,沙河口,20190603,38.880058010307856,121.56313403908827,浪花街,40,11307,无物业管理服务,-,辽宁,5,二手房,1991
无门店信息,大连,大连天启房地产开发有限公司,高新园区,20190603,34.52713835999158,118.76812980670795,百合IT家园,39,12648,大连亮泰安邦物业有限公司,0.6,辽宁,5,二手房,2008
甘井子区红旗西路104-23,大连,大连鹏德房屋开发有限公司,甘井子,20190603,38.94013845868325,121.5282577714263,逸林派,28,14772,大连三和住邦物业管理有限公司,1.6,辽宁,5,二手房,2011
甘井子区促进路30号2-1-1,大连,福佳集团有限公司,甘井子,20190603,38.954133128707575,121.58355746311207,府佳名都,44,17948,大连富佳物业管理有限公司,0.5,辽宁,5,二手房,2002
开发区金源南里14栋-11号一层部分，14号-12号一层部分,大连,无开发商,开发区,20190603,39.06148862675436,121.82503941311765,金源南里,80,8724,嘉兴物业管理有限公司,0.3,辽宁,5,二手房,2001
沙河口区知心园10号公建,大连,大连软件园开发有限公司,高新园区,20190603,38.893977135945136,121.55667141994431,亿达国际新城,44,22510,亿达物业管理有限公司,1,辽宁,5,二手房,2004
沙河口区黄河路535号,大连,大连首星房地产开发有限公司,沙河口,20190603,38.91773777159567,121.60217159922856,金色年华公馆,42,25982,大连首星物业管理有限公司,2.8,辽宁,5,二手房,2011
甘井子区汇达园26号,大连,北亚实业集团股份有限公司大连开发区分公司,甘井子,20190603,38.99704654604941,121.59758808878767,北府花园,73,17132,大连优豪斯物业管理有限公司,0.5,辽宁,5,二手房,2006
无门店信息,大连,开发区城建局,开发区,20190603,34.52713835999158,118.76812980670795,东居里,131,6904,大连经济技术开发区海青物业有限公司,0.2,辽宁,5,二手房,1996
沙河口区红旗东路18-22号2单元1楼3号,大连,无开发商,甘井子,20190603,38.913544290955585,121.59450670056631,天泉山庄,16,12634,大连铁龙安居物业管理有限公司,0.5,辽宁,5,二手房,2000
甘井子区红旗花园23号楼19-24轴公建,大连,大连科宏房屋开发有限公司,甘井子,20190603,38.93108029984587,121.54902145022133,海港楼,20,8829,大连科海物业有限公司,0.2,辽宁,5,二手房,1996
金州区同济路44号,大连,大连峰景房地产开发有限公司,金州,20190603,39.10476859984152,121.71234684495865,峰景西海岸,51,9073,大连峰景物业有限公司,0.8,辽宁,5,二手房,2009
沙河口区联合路133号,大连,大连万达房地产开发有限公司,沙河口,20190603,38.91608561262676,121.60480987310456,79中万泰花园,36,26748,大连万泰物业管理有限公司,0.8,辽宁,5,二手房,1998
甘井子区圣林南园3-3号,大连,大连广泰房屋开发有限公司,甘井子,20190603,38.95191781681833,121.54394961192217,美树日记,77,22384,大连华安物业管理有限公司,1.6,辽宁,5,二手房,2009
金州区小平岛B组团4号楼3号商铺,大连,大连圣岛房地产开发有限公司,高新园区,20190603,39.05643299166072,121.78943558267059,小平岛海角七号,47,21278,大连凯尔富物业管理有限公司,1.7,辽宁,5,二手房,2011
"西岗区泰公街20号2层7号 西岗区久寿街22号1层14号""",大连,大连万达房地产开发有限公司,西岗,20190603,38.92600196862723,121.62141976476381,万达高层,14,11609,大连白云物业管理公司,0.3,辽宁,4,二手房,1995
开发区安盛里5栋-4,大连,中房集团大连房地产有限公司,开发区,20190603,23.112106678834838,113.27801046214822,盛德嘉洲,12,13824,大连中鸣物业服务有限公司,1.8,辽宁,4,二手房,2009
中山区职工街96号1-3层公建,大连,大连泛华房屋开发有限公司,中山,20190603,38.92565613737007,121.66193575790903,泛华领城,34,13510,无物业管理服务,3.2,辽宁,4,二手房,2012
中山区高尚路28-1号,大连,无开发商,中山,20190603,38.892673425111305,121.67148833870213,高洁巷,29,11217,街道办事处（居委会）代管物业,0.5,辽宁,4,二手房,1993
甘井子区玉丽街39号楼3号公建,大连,大连新型房地产开发有限公司,甘井子,20190603,38.98706755029984,121.55605471197089,玉浓街,49,10211,大连新兴物业管理有限公司,0.2,辽宁,4,二手房,2002
中山区民运巷 47号1层2号,大连,无开发商,中山,20190603,38.905955122300846,121.64798148011702,西山巷,30,10514,无物业管理服务,0.3,辽宁,4,二手房,1992
无门店信息,大连,大连亚联房地产开发有限公司,甘井子,20190603,34.52713835999158,118.76812980670795,翡翠春城,78,14611,大连亚联物业管理有限公司,1.6,辽宁,4,二手房,2012
沙河口区富国街14号1-1-2,大连,无开发商,沙河口,20190603,38.901027106600836,121.59047734850638,星云街,19,11219,无物业管理服务,-,辽宁,4,二手房,1995
甘井子区虹港路16号楼1层公建,大连,大连鑫奇房地产开发有限公司,甘井子,20190603,38.9645939333502,121.553851837474,鑫境界,96,11898,大连鑫境界物业管理有限公司,1.3,辽宁,4,二手房,2009
大连经济技术开发区时代城4-3号1-2号,大连,远洋地产有限公司,开发区,20190603,39.0992481321252,121.83007860699459,远洋时代城四期,52,8738,大连远洋基业物业管理有限公司,1.5,辽宁,4,二手房,2012
沙河口区红凌路137号,大连,大连大实企业集团房屋开发有限公司,甘井子,20190603,38.922699288974506,121.54713601744747,泊林阳光A区,13,13503,大连弘实物业管理有限公司,0.6,辽宁,4,二手房,2007
大连市开发区湾里东5-6号,大连,大连明和房地产开发有限公司,开发区,20190603,39.07275772231556,121.85888789351343,青国青城,57,11277,大连豪斯沃克物业有限公司,1.5,辽宁,4,二手房,2014
甘井子区鹏辉新世纪1幢1单元1-3号房屋（海口路99号）,大连,暂无信息,甘井子,20190603,38.96077365187575,121.60514653016222,鹏辉新世纪一期,10,17411,大连鹏辉物业管理有限公司,0.6,辽宁,4,二手房,2003
沙河口区前程街46号4—1—2号,大连,大连渤海红旗集团有限公司,甘井子,20190603,38.913544290955585,121.59450670056631,里程巷,18,9152,大连台安物业管理中心,0.4,辽宁,4,二手房,1990
甘井子区玉丽街2号楼1单元4号公建,大连,大连新型房地产开发有限公司,甘井子,20190603,38.98705071699301,121.55513043130172,泡崖康馨园,37,10342,大连新兴物业管理有限公司,0.2,辽宁,4,二手房,2004
甘井子区美域盛景A2区10-6,大连,大连时代房地产开发有限公司,甘井子,20190603,39.006221362805846,121.61022278003976,泉水友好园,39,13439,大连爱静物业服务有限公司,0.5,辽宁,4,二手房,1998
金州区站前街道盛滨花园B区13号楼2号公建,大连,大连建兴房屋开发有限公司,金州,20190603,39.09609011892329,121.7335816409767,建兴花园,40,7313,街道办事处（居委会）代管物业,0.5,辽宁,4,二手房,1999
甘井子区泉水D1区37-7号,大连,大连运腾房地产开发有限公司,甘井子,20190603,39.013992871679214,121.61921940045104,锦泉源D4区,30,14081,大连嘉和物业管理有限公司,0.5,辽宁,4,二手房,2007
高新园区硅谷假日小区25号楼地下室,大连,暂无信息,高新园区,20190603,38.86467854992112,121.53720784613759,硅谷假日公寓,18,14701,大连斌弘物业管理有限公司,1.5,辽宁,4,二手房,2005
甘井子区虹港路391号第五幢1单元1跃2层3号,大连,大连加尔伦房地产开发有限公司,甘井子,20190603,38.96606635942528,121.53201387432493,万科金域华府,29,22048,大连万科物业服务有限公司,3,辽宁,4,二手房,2016
西岗区八一路196号1-3,大连,无开发商,西岗,20190603,38.92047268927287,121.61862512554262,新泉巷,17,9391,无物业管理服务,-,辽宁,4,二手房,1990
沙河口区黄埔路427号,大连,大连名仕房地产开发有限公司,高新园区,20190603,38.913544290955585,121.59450670056631,名仕乐居,19,20411,大连万祥物业管理有限公司,1.3,辽宁,4,二手房,2008
无门店信息,大连,大连安邦房地产开发有限公司,甘井子,20190603,34.52713835999158,118.76812980670795,安邦阳光润城,37,13061,无物业管理服务,-,辽宁,4,二手房,2011
甘井子区山东路商业街D区12号公建,大连,无开发商,甘井子,20190603,39.001060021502965,121.58883960371418,七绣路,20,11550,街道办事处（居委会）代管物业,0.5,辽宁,4,二手房,1996
甘井子区美域盛景A2区10-6,大连,大连泉水园房屋开发有限公司,甘井子,20190603,39.006221362805846,121.61022278003976,骏腾名苑,72,13993,大连衡德物业管理有限公司,0.5,辽宁,4,二手房,2006
甘井子区红南东街7-7号,大连,大连大实企业集团房屋开发有限公司,甘井子,20190603,38.92880462247992,121.54144910207062,泊林和山,33,11576,大连弘实物业管理有限公司,0.6,辽宁,4,二手房,2007
沙河口区民权街324号,大连,大连天河房地产开发集团有限公司,沙河口,20190603,38.92064616208148,121.59777611850379,民权小区,39,12599,大连福港物业管理有限公司,0.2,辽宁,4,二手房,1992
开发区黄海西路201号107公建,大连,开发区城建局,开发区,20190603,39.04942604506828,121.80126318235419,东阁里,54,6923,大连经济技术开发区海青物业有限公司,0.4,辽宁,4,二手房,1994
甘井子区山东路127-2号,大连,大连市大钢集团,甘井子,20190603,38.99065559549029,121.59126483545545,苍山路,45,12709,街道办事处（居委会）代管物业,0.4,辽宁,4,二手房,1989
开发区红梅小区19栋-2-1-1号,大连,大连开发区世元房地产开发有限公司,开发区,20190603,29.906498897603264,121.5913630631805,世元国际公寓,31,11023,大连世元物业管理有限公司,2,辽宁,4,二手房,2009
大连经济技术开发区同和里7栋-9号,大连,无开发商,开发区,20190603,39.04901984220615,121.7885236929847,新星里,41,7947,大连广谊物业管理有限公司,0.3,辽宁,4,二手房,2003
开发区湾里南12栋-16-17-18号,大连,大连金湾实业有限公司,开发区,20190603,39.070782084451,121.8506739675913,湾里西,65,7629,广宜物业有限公司,0.2,辽宁,4,二手房,2003
金州区同济路44号,大连,大连金州金山房地产开发有限公司,金州,20190603,39.10476859984152,121.71234684495865,金山小区,95,7189,大连金山物业管理有限公司,-,辽宁,4,二手房,1999
金州区金湾路132-2号,大连,无开发商,金州,20190603,39.10269111644727,121.72221060686516,胜利西小区,104,7583,街道办事处（居委会）代管物业,0.5,辽宁,4,二手房,1992
金州新区先进街道渤海街7-4号1-2层、7-3号1-2层,大连,大连金连房地产开发有限公司,金州,20190603,39.09342713035472,121.74590886291374,金纺馨公寓,21,6663,金州区物业管理有限公司,-,辽宁,4,二手房,2006
开发区鹏程家园66#-6、66#-7公建,大连,大连神洲众益集团有限公司,开发区,20190603,37.92440451755906,112.59861436589645,众益阳光海岸,91,10539,大连万佳物业管理有限公司,1.2,辽宁,4,二手房,2005
高新园区海苑街36号1单元2号公建,大连,大连海苑房屋开发有限公司,高新园区,20190603,20.06392317589085,110.32302599457326,海苑花园,26,14298,大连家园物业有限公司,0.3,辽宁,4,二手房,2000
大连市甘井子区燕南园50号,大连,大连软件园发展有限公司,高新园区,20190603,38.90172480153224,121.5363466289672,东方圣克拉二期,54,27406,亿达物业管理有限公司,2.6,辽宁,4,二手房,2011
开发区杏树里10栋-14,大连,大连华宇房地产开发有限公司,开发区,20190603,39.08113818354046,121.78505742127606,华宇凤凰城,73,8368,大连华宇物业管理有限公司,1,辽宁,4,二手房,2007
甘井子区新兴路36号3-1-3,大连,大连新型房地产开发有限公司,甘井子,20190603,38.95800216293212,121.53151895549547,泡崖二区,85,10385,大连新兴物业管理有限公司,0.5,辽宁,4,二手房,1997
沙河口区黑石礁街5号1层1号,大连,无开发商,沙河口,20190603,38.879813345473714,121.56313742300513,黑石礁广场,31,13498,无物业管理服务,-,辽宁,4,二手房,1992
开发区黄海西路201号107公建,大连,无开发商,开发区,20190603,39.04942604506828,121.80126318235419,自由港,47,6889,大连安洁物业管理服务有限公司,0.5,辽宁,4,二手房,2006
中山区东港龙湖水晶郦湾7-102,大连,大连金广地产集团有限公司,中山,20190603,38.924700620463895,121.70344398518496,金广东海岸,82,23506,大连金广物业有限公司,2.2,辽宁,4,二手房,2009
中山区中南路店212号门头房,大连,无开发商,中山,20190603,38.91149759691359,121.67700561077149,转山小区,19,12941,大连怡和物业服务有限公司,0.3,辽宁,4,二手房,1990
中山区东港龙湖水晶郦湾7-102,大连,大连龙湖东港房地产有限公司,中山,20190603,38.924700620463895,121.70344398518496,龙湖水晶郦湾,69,28202,大连龙湖物业服务有限公司,4.5,辽宁,4,二手房,2015
沙河口区黑石礁街5号1层1号,大连,无开发商,沙河口,20190603,38.879813345473714,121.56313742300513,黑石礁,9,11868,无物业管理服务,-,辽宁,4,二手房,1990
天河路173-2号 华润考拉22号公建,大连,大连世隆房地产开发有限公司,甘井子,20190603,23.14720645345518,113.3277414923158,桑尼小镇,25,15185,大连大家物业管理有限公司,1.9,辽宁,4,二手房,2014
中山区民建街10号1单元1号,大连,无开发商,中山,20190603,38.925444479476894,121.66915026954452,39中顺阳街,39,20230,无物业管理服务,-,辽宁,4,二手房,1995
西岗区黄河路362号公建,大连,大连万达商业地产有限公司,西岗,20190603,38.91819905243802,121.61365779430986,万达华府二期,46,23233,大连万景物业管理有限公司,1.6,辽宁,4,二手房,2006
大连市甘井子区丰收路3-5号,大连,大连邦德房屋开发有限公司,甘井子,20190603,38.965377255081755,121.58288415324094,芙蓉人家,65,16469,大连广丰物业管理有限公司,0.5,辽宁,4,二手房,2002
中山区高尚路28-1号,大连,无开发商,中山,20190603,38.892673425111305,121.67148833870213,高原街,25,10555,街道办事处（居委会）代管物业,0.5,辽宁,4,二手房,1996
大连市甘井子区椒房街24号楼2-104链家地产,大连,中铁建（大连）置业有限公司,甘井子,20190603,38.985363789837166,121.61034055597686,青秀蓝湾一期,29,20097,中国铁建地产集团物业公司,1.5,辽宁,4,二手房,2016
甘井子区亿家缘虹韵路205,大连,大连亿达美加房地产开发有限公司,甘井子,20190603,38.95647848453699,121.53130152244339,第五郡四号地,46,28007,亿达物业管理有限公司,2,辽宁,4,二手房,2010
沙河口区中山路417A-4号,大连,大连宝嘉房地产有限公司,沙河口,20190603,38.90740323140171,121.59484801084653,德源筑座,20,21897,大连乐尔居物业服务有限公司,2.5,辽宁,4,二手房,2009
金州区凤翔路220号,大连,大连德泰控股有限公司,金州,20190603,39.08410553937731,121.77700083356399,德泰岭秀逸城B区,76,10830,大连德泰物业管理有限公司,1.9,辽宁,4,二手房,2013
甘井子区汇仁街22号,大连,大连永高房屋开发有限公司,甘井子,20190603,38.99712640764999,121.58834420439493,加州洋房,78,15544,大连怡和物业服务有限公司,0.9,辽宁,4,二手房,2008
沙河口区西南路643号,大连,大连海昌房屋开发有限公司,沙河口,20190603,38.943483429804665,121.5833555851182,兴港花园,6,11628,大连永佳物业管理有限公司,0.3,辽宁,3,二手房,1999
沙河口区兰田街33号,大连,大连万合房地产开发有限公司,沙河口,20190603,38.926138912221084,121.56486022834609,万合新家园,7,17255,大连佳宜物业管理有限公司,0.6,辽宁,3,二手房,2004
甘井子区泉水D1区10-2#1-1-7,大连,大连春达房屋开发有限公司,甘井子,20190603,39.01504676175047,121.61751269364314,景富铭苑,17,12687,庄河金城物业管理有限公司,0.5,辽宁,3,二手房,2004
大连市沙河口区西南路875号1层21号,大连,无开发商,沙河口,20190603,38.94485969061231,121.58418648447764,西南路（春柳商圈）,12,10751,大连三宝物业有限公司,0.5,辽宁,3,二手房,1990
金州区先进街道渤海街1-4号1-2层,大连,无开发商,金州,20190603,39.09512910553563,121.74578812616167,金星小区,24,7679,街道办事处（居委会）代管物业,0.1,辽宁,3,二手房,1993
西岗区康平街2号（5号楼3-1-3号）,大连,无开发商,西岗,20190603,38.91044414697888,121.61980769264477,长太巷,7,11267,无物业管理服务,-,辽宁,3,二手房,1990
大连市沙河口区西南路875号1层21号,大连,暂无信息,沙河口,20190603,38.94485969061231,121.58418648447764,凌云街,3,10944,无物业管理服务,-,辽宁,3,二手房,1999
中山区杏林街66—5号,大连,无开发商,中山,20190603,38.92572771377599,121.66490555592502,39中民生里,11,28226,街道办事处（居委会）代管物业,0.5,辽宁,3,二手房,1990
中山区北斗街53号1层1号,大连,无开发商,中山,20190603,38.92727355733075,121.67002970974048,勤俭街（二七商圈）,3,11613,无物业管理服务,-,辽宁,3,二手房,1985
大连市沙河口区知邻街50号,大连,大连软件园开发有限公司,沙河口,20190603,38.913544290955585,121.59450670056631,宅语原,59,20249,亿达物业管理有限公司,2,辽宁,4,二手房,2008
西岗区九三街64号,大连,润德集团有限公司,西岗,20190603,38.92047268927287,121.61862512554262,润德广场,60,15442,大连润德物业管理有限公司,3.8,辽宁,4,二手房,2011
沙河口区锦石园24-7号第A2-13幢1单元1层1号,大连,大连鼎新美地置业有限公司,甘井子,20190603,38.913544290955585,121.59450670056631,鼎新鼎润四季,27,20225,大连中原物业代理有限公司,1.2,辽宁,4,二手房,2010
中山区武昌街武昌公寓6号公建,大连,无开发商,中山,20190603,38.912280913445784,121.64921130527547,气象街,19,22004,街道办事处（居委会）代管物业,0.5,辽宁,4,二手房,1989
沙河口区连山街10号2-1-2,大连,大连城市建设集团有限公司,沙河口,20190603,38.89637522563413,121.57143690983219,莱州街,33,10972,无物业管理服务,-,辽宁,4,二手房,1990
大连市金州区友谊街道南金华城25号1-2层1号,大连,大连友谊合升房地产开发有限公司,金州,20190603,39.128677228885614,121.71356109978767,恒达花园,72,7970,街道办事处（居委会）代管物业,0.5,辽宁,4,二手房,2004
西岗区八一路102号,大连,无开发商,西岗,20190603,38.92047268927287,121.61862512554262,杏环街,16,9699,无物业管理服务,-,辽宁,4,二手房,1994
沙河口区民权街324号,大连,大连城市建设集团有限公司,沙河口,20190603,38.92064616208148,121.59777611850379,天兴新家园,14,28481,大连天兴物业管理有限公司,0.5,辽宁,4,二手房,1999
中山区职工街96号1-3层公建,大连,大连嘉和房地产开发有限公司,中山,20190603,38.92565613737007,121.66193575790903,嘉和花样年华一期,73,20245,大连嘉和物业管理有限公司,3,辽宁,4,二手房,2003
开发区大开高吉里33栋6号,大连,无开发商,开发区,20190603,39.07355836059941,121.8280439450145,高泰里,15,6022,无物业管理服务,-,辽宁,4,二手房,1998
西岗区三元街73号3单元1层2,大连,暂无信息,西岗,20190603,38.91459734722941,121.63112153703432,34中三元街,51,27679,无物业管理服务,-,辽宁,3,二手房,1990
西岗区长春路334号,大连,无开发商,西岗,20190603,38.89807766522607,121.63221082858387,石峰街,16,11266,大连大众物业管理有限公司,0.3,辽宁,3,二手房,1995
开发区小孤山西里3栋-11号,大连,大连广隆房地产开发有限公司,开发区,20190603,39.02715282297674,121.80682183666346,文华园,43,10321,大连广隆物业管理有限公司,1.1,辽宁,3,二手房,2007
甘井子区泉水H3区15号3单元1层2号,大连,大连新型房地产开发有限公司,甘井子,20190603,39.00158439075201,121.62616882572375,龙畔金泉三期,52,13276,大连新型物业管理有限公司,0.5,辽宁,3,二手房,2004
大连市甘井子区辛如街35号1单元1层1号,大连,大连新星房地产开发有限公司,甘井子,20190603,38.96862607066881,121.52294869064194,新星绿城六期,39,14708,大连生生物业管理有限公司,1,辽宁,3,二手房,2008
甘井子区促进路30号2-1-1,大连,大连谷和房屋开发有限公司,甘井子,20190603,38.954133128707575,121.58355746311207,谷和温馨苑,30,17627,大连谷和物业管理有限公司,0.6,辽宁,3,二手房,2002
高新园区海苑街36号1单元2号公建,大连,大连鸿越房地产开发有限公司,高新园区,20190603,20.06392317589085,110.32302599457326,康桥小镇,23,20121,大连长青物业管理中心,1.3,辽宁,3,二手房,2010
沙河口区锦霞南园1号1层公建,大连,大连锦绣房地产开发有限公司,沙河口,20190603,38.947367114450536,121.55342584213675,锦虹南园,15,10765,大连锦绣物业管理有限公司,0.3,辽宁,3,二手房,1998
沙河口区恒利园42号-8,大连,无开发商,沙河口,20190603,38.93357562498634,121.57914091532649,新建小区,5,11006,无物业管理服务,-,辽宁,3,二手房,1980
无门店信息,大连,大连金宸集团,金州,20190603,34.52713835999158,118.76812980670795,金宸联郡,30,8722,大连四通物业管理有限公司,1.4,辽宁,3,二手房,2015
金州新区先进街道渤海街7-4号1-2层、7-3号1-2层,大连,大连海洋房地产开发有限公司,金州,20190603,39.09342713035472,121.74590886291374,金海嘉园,21,8191,大连辽渔物业管理有限公司,0.8,辽宁,3,二手房,2007
沙河口区沙能街101号1单元1层1号,大连,大连政府城区改造办公室,沙河口,20190603,38.9366316275348,121.59031205759763,新居佳园,8,13019,大连大力物业管理有限公司,1.5,辽宁,3,二手房,2012
甘井子区红旗中路143号1层4号,大连,大连红旗兴达房地产开发有限公司,甘井子,20190603,38.93169566676921,121.5426632438217,吉祥街,5,11169,大连金诚物业管理有限公司,0.2,辽宁,3,二手房,1996
沙河口区锦云北园9号2单元1层2号,大连,大连锦绣房地产开发有限公司,沙河口,20190603,38.94836395772248,121.55744845421044,锦云北园,22,10291,大连锦绣物业管理有限公司,0.3,辽宁,3,二手房,1996
无门店信息,大连,大连百年港湾商业开发有限公司,西岗,20190603,34.52713835999158,118.76812980670795,百年港湾,59,18098,大连百年城物业管理有限公司,3.5,辽宁,3,二手房,2014
大连市沙河口区西南路875号1层21号,大连,大连新型房地产开发有限公司,沙河口,20190603,38.94485969061231,121.58418648447764,春晖巷,3,10376,无物业管理服务,-,辽宁,3,二手房,1990
金州区拥政街道733号-8号1-2层,大连,无开发商,金州,20190603,39.11690610445662,121.73030803603723,花园小区,17,8054,大连四通物业管理有限公司,0.1,辽宁,3,二手房,1993
甘井子区哲林北园17-6号,大连,大连大力房屋开发有限公司,甘井子,20190603,38.9600267109581,121.53876726228256,圆梦园,8,19949,大连嘉禾物业管理服务有限公司,1.6,辽宁,3,二手房,2015
西岗区黄河路362号公建,大连,大连万佳房地产开发有限公司,西岗,20190603,38.91819905243802,121.61365779430986,优豪斯,12,25712,大连万佳物业管理有限公司,1.6,辽宁,3,二手房,2003
西岗区黄河路82号,大连,大连民兴房地产开发有限公司,西岗,20190603,38.92243503020161,121.6287927913896,前城国际二期,32,23318,大连前城花园物业管理有限公司,1.5,辽宁,3,二手房,2000
高新园区海苑街36号1单元2号公建,大连,大连金华兴房地产开发有限公司,高新园区,20190603,20.06392317589085,110.32302599457326,华兴山庄,14,14954,大连华兴物业管理有限公司,0.5,辽宁,3,二手房,2004
开发区高新里6栋-8,大连,无开发商,开发区,20190603,39.0710895068195,121.82860134358343,怡海花园一期,23,7395,街道办事处（居委会）代管物业,0.2,辽宁,3,二手房,2001
大连市甘井子区银田北园14号,大连,暂无信息,甘井子,20190603,38.9742441034389,121.47189841879823,亿达春田银杏园,64,18755,亿达物业管理有限公司,2.2,辽宁,3,二手房,2011
中山区益民街16号1层1号,大连,无开发商,中山,20190603,38.93092761298906,121.66470740073377,兴盛里（三八广场）,12,13283,无物业管理服务,-,辽宁,3,二手房,1993
西岗区鞍山路65-5号,大连,大连万达房地产开发有限公司,沙河口,20190603,38.926971569913064,121.60260230348328,79中广电中心,60,28514,无物业管理服务,-,辽宁,3,二手房,1988
甘井子区泉水B2区19-1号,大连,北方沿海房地产开发（大连）有限公司,甘井子,20190603,39.0101309886317,121.60812584213187,沿海鉴筑,36,16949,美佳物业管理（深圳）有限公司大连分公司,1.8,辽宁,3,二手房,2013
中山区高尚路28-1号,大连,大连锦绣房地产开发有限公司,中山,20190603,38.892673425111305,121.67148833870213,高云街,15,9216,街道办事处（居委会）代管物业,0.3,辽宁,3,二手房,1994
甘井子辛吉街150号-7号,大连,大连新星房地产开发有限公司,甘井子,20190603,38.96368508446978,121.52671221254214,新星绿城三期,70,12889,大连生生物业管理有限公司,0.5,辽宁,3,二手房,2006
沙河口区黄河路535号,大连,大连城市建设集团有限公司,沙河口,20190603,38.91773777159567,121.60217159922856,79中金光小区,44,25736,无物业管理服务,-,辽宁,3,二手房,1993
西岗区绕山路31号公建一层东侧,大连,无开发商,西岗,20190603,38.90257514466717,121.61412736644739,康庄街,5,9463,无物业管理服务,-,辽宁,3,二手房,1991
甘井子区玉丽街39号楼3号公建,大连,大连润置房地产有限公司,甘井子,20190603,38.98706755029984,121.55605471197089,华润二十四城,22,18690,华润物业（大连）有限公司,3.1,辽宁,3,二手房,2018
甘井子区惠泽南园3-4号,大连,大连九衡房地产开发有限公司,甘井子,20190603,38.939326611323615,121.52337842113351,易和熙园,26,20723,大连易兴物业服务有限公司,2.3,辽宁,3,二手房,2013
开发区兴城路29-81层,大连,大连亿锋集团有限公司,开发区,20190603,39.050214252167194,121.75835946441768,亿锋广场三期,62,15127,大连广恒物业管理有限公司,2.8,辽宁,3,二手房,2015
中山区碧浪园4号-3号,大连,大连三寰房地产开发有限公司,中山,20190603,38.89147289460474,121.69329560326236,碧浪园二期,15,16444,大连峰霖物业管理有限公司,0.3,辽宁,3,二手房,2002
西岗区胜利路33号,大连,暂无信息,西岗,20190603,38.91309771954841,121.62500886627636,34中纪念街,63,24815,无物业管理服务,-,辽宁,3,二手房,1990
甘井子区知音园20号3单元1层1号,大连,大连诚信万奕房地产开发有限公司,高新园区,20190603,38.95800216293212,121.53151895549547,万奕学院派,22,27186,大连空港物业管理有限公司,1.2,辽宁,3,二手房,2010
大连市甘井子区软件园路122号,大连,大连理工科技城建设开发有限公司,高新园区,20190603,38.89286578891647,121.53266600180116,理工园,16,13825,街道办事处（居委会）代管物业,1,辽宁,3,二手房,2000
大连市高新园区七贤中路63号,大连,大连招宇房地产有限公司,高新园区,20190603,38.86053006357667,121.53273606963094,招商兰溪谷,29,22338,招商局物业管理有限公司大连分公司,2.6,辽宁,3,二手房,2015
西岗区绕山路31号公建一层东侧,大连,无开发商,西岗,20190603,38.90257514466717,121.61412736644739,和云巷,20,10322,无物业管理服务,-,辽宁,3,二手房,1990
中山区岭前街53-5,大连,暂无信息,中山,20190603,38.89487069426055,121.65795959631497,胜鼎桃源,24,20737,暂无信息,1.8,辽宁,3,二手房,2015
甘井子区金北路17号,大连,暂无信息,甘井子,20190603,38.97553393692831,121.59969720502335,金二小学南,43,20101,无物业管理服务,-,辽宁,3,二手房,1976
甘井子区小平岛路66-4号,大连,大连软件园瑞安发展有限公司,高新园区,20190603,38.84623138470555,121.51516818634872,悦丽海湾,55,19810,上海丰城物业管理有限公司,2.8,辽宁,3,二手房,2014
大连经济技术开发区时代城4-3号1-2号,大连,暂无信息,开发区,20190603,39.0992481321252,121.83007860699459,摩宿公寓,67,7621,大连远洋基业物业管理有限公司,1.5,辽宁,3,二手房,2012
沙河口区五一路270-274号,大连,无开发商,高新园区,20190603,38.913544290955585,121.59450670056631,由家村,25,12477,无物业管理服务,-,辽宁,3,二手房,1990
甘井子区辛寨子街道中冶蓝城辛虹园39-7号公建,大连,大连中冶京诚置业有限公司,甘井子,20190603,38.98155611421408,121.49259383356096,中冶蓝城E区,39,14916,大连添翼物业服务有限公司,2,辽宁,3,二手房,2010
沙河口区成仁街91号,大连,大连万达房地产开发有限公司,沙河口,20190603,38.91539947107844,121.59585638842556,龙祥花园,22,24064,大连万达物业管理有限公司,0.8,辽宁,3,二手房,2001
中山区中青街43号,大连,大连亿达房地产股份有限公司,中山,20190603,38.90150598268117,121.65711014604845,青云映山,20,26588,亿达物业管理有限公司,1.3,辽宁,3,二手房,2005
无门店信息,大连,大连中连房地产开发有限公司,金州,20190603,34.52713835999158,118.76812980670795,憬园河畔,60,7814,大连新生活物业管理有限公司,0.5,辽宁,3,二手房,2000
无门店信息,大连,大连新兴海韵房地产开发有限公司,开发区,20190603,34.52713835999158,118.76812980670795,山海家园,20,14878,大连经济技术开发区通讯物业有限公司,0.5,辽宁,3,二手房,2004
开发区松苑街23号,大连,大连天安房地产开发有限公司,开发区,20190603,22.52087435807652,113.40156105086167,天安海景花园,17,13763,大连港力物业管理有限公司,1.2,辽宁,3,二手房,2006
甘井子区泉水H1区54号3单元1层1号,大连,暂无信息,甘井子,20190603,39.0074937564393,121.62382856020916,龙畔金泉五期K1区,30,12866,大连新兴物业管理有限公司,0.5,辽宁,3,二手房,2008
中山区南山路59号1层4号,大连,大连铁路房地产开发有限责任公司,中山,20190603,38.91992239075882,121.6479206962747,延安小区,19,21095,大连铁路物业管理有限公司,0.5,辽宁,3,二手房,1995
甘井子区玉云路27-3-1-3,大连,暂无信息,甘井子,20190603,38.97896234099927,121.55865563488358,泡崖新六区,41,10957,大连新型物业管理有限公司,0.3,辽宁,3,二手房,2003
甘井子区红韵路114号,大连,大连亿达美加房地产开发有限公司,甘井子,20190603,38.95800216293212,121.53151895549547,第五郡六号地,41,30617,亿达物业管理有限公司,3,辽宁,3,二手房,2009
红星海A区126-4,大连,大连光伸房地产开发有限公司,开发区,20190603,39.027851194371685,121.80327394132297,绿洲半岛三期,40,10026,大连经济技术开发区光伸物业服务有限公司,0.6,辽宁,3,二手房,2005
沙河口区黄河路535号,大连,大连城市建设集团有限公司,沙河口,20190603,38.91773777159567,121.60217159922856,79中至诚小区,37,27700,大连天河物业管理有限公司,0.1,辽宁,3,二手房,1958
大连市甘井子区丰收路3-5号,大连,无开发商,甘井子,20190603,38.965377255081755,121.58288415324094,顺发路,22,12886,街道办事处（居委会）代管物业,0.2,辽宁,3,二手房,1993
中山区高尚路28-1号,大连,无开发商,中山,20190603,38.892673425111305,121.67148833870213,宪卫里,17,10097,无物业管理服务,0.5,辽宁,3,二手房,1994
沙河口区昌黎街22号,大连,大连城市建设集团有限公司,沙河口,20190603,38.91975785098891,121.59109628369768,天兴罗斯福,55,15870,大连天兴物业管理有限公司,1.6,辽宁,3,二手房,2004
无门店信息,大连,大连众仕房地产开发有限公司,开发区,20190603,34.52713835999158,118.76812980670795,山河御景,17,8157,大连山河物业管理有限公司,1.5,辽宁,3,二手房,2015
中山区职工街96号1-3层公建,大连,大连名仕房地产开发有限公司,中山,20190603,38.92565613737007,121.66193575790903,名仕国际公寓,24,10639,大连名流物业有限公司,3.8,辽宁,3,二手房,2004
经济技术开发区城润万家4-5号公建,大连,无开发商,开发区,20190603,39.05716325096989,121.75946281983826,西山小区,4,7992,街道办事处（居委会）代管物业,0.5,辽宁,3,二手房,1996
金州新区八一路金都嘉园1号楼1号公建,大连,大连锦阳房地产开发有限公司,金州,20190603,39.05525210261778,121.74865634199398,古城天下,8,7201,大连锦阳房地产开发有限公司,1,辽宁,3,二手房,2004
无门店信息,大连,大连软件园恒荣开发有限公司,高新园区,20190603,34.52713835999158,118.76812980670795,亿达普罗旺斯三期,28,20734,亿达物业管理有限公司,2.6,辽宁,3,二手房,2017
开发区翠竹小区33栋4-1-1号,大连,暂无信息,开发区,20190603,30.635492106460237,119.69169575745704,翠竹中区,26,9770,嘉兴物业管理有限公司,0.3,辽宁,3,二手房,1996
大连市甘井子区丰收路3-5号,大连,大连智和房地产开发有限公司,甘井子,20190603,38.965377255081755,121.58288415324094,华锦铭苑,47,18723,大连东昌物业管理有限公司,1.3,辽宁,3,二手房,2009
金州区小平岛B组团4号楼3号商铺,大连,大连圣岛房地产开发有限公司,高新园区,20190603,39.05643299166072,121.78943558267059,小平岛邻海园,25,17367,大连凯尔富物业管理有限公司,1.3,辽宁,3,二手房,2007
沙河口区杨树街4-4号公建,大连,大连金弘基房地产开发有限公司,高新园区,20190603,38.88444587249751,121.55130620045541,弘基二期,34,22565,大连金弘基物业管理有限公司,0.6,辽宁,3,二手房,2003
金州区同济路44号,大连,大连金开信都房地产开发有限公司,金州,20190603,39.10476859984152,121.71234684495865,海天新界,52,8213,大连西海岸物业管理有限公司,1,辽宁,3,二手房,2011
中山区民建街10号1单元1号,大连,大连港连房地产开发有限公司,中山,20190603,38.925444479476894,121.66915026954452,海港公寓（三八广场）,28,21602,大连海港物业管理有限公司,0.2,辽宁,3,二手房,1996
开发区红梅小区19栋-2-1-1号,大连,大开中和祥房地产开发有限公司,开发区,20190603,29.906498897603264,121.5913630631805,金丰大厦,53,9889,新加坡物业管理有限公司,1.9,辽宁,3,二手房,2012
中山区民建街10号1单元1号,大连,无开发商,中山,20190603,38.925444479476894,121.66915026954452,39中明阳街,37,19595,无物业管理服务,-,辽宁,3,二手房,1993
甘井子区鹏辉新世纪1幢1单元1-3号房屋（海口路99号）,大连,暂无信息,甘井子,20190603,38.96077365187575,121.60514653016222,鹏辉新世纪三期,22,17148,大连鹏辉物业管理有限公司,0.6,辽宁,3,二手房,2003
金州区拥政街道733号-8号1-2层,大连,暂无信息,金州,20190603,39.11690610445662,121.73030803603723,中长小区,40,7261,街道办事处（居委会）代管物业,-,辽宁,3,二手房,1990
高新园区火炬路18号,大连,大连奥泰房地产开发有限公司,高新园区,20190603,38.937738080520404,117.39340752036043,因特摩尔,58,17932,大连奥泰物业服务有限公司,2.6,辽宁,3,二手房,2011
开发区安盛里5栋-4,大连,大连万晟房地产开发有限公司,开发区,20190603,23.112106678834838,113.27801046214822,宜家大院,18,8741,大连万晟置业有限公司,0.8,辽宁,3,二手房,2002
大连市甘井子区泉水N2区3-13号,大连,大连半岛集团有限公司,甘井子,20190603,39.021116079001885,121.64659997607325,半岛泉水欣座,34,14853,大连半岛物业管理有限公司,1.5,辽宁,3,二手房,2010
金州区同济路44号,大连,大连永乐房地产开发有限公司,金州,20190603,39.10476859984152,121.71234684495865,永乐金庭,41,9547,大连天河物业管理有限公司,0.8,辽宁,3,二手房,2006
高新园区红凌路732-4号,大连,大华集团大连置业有限公司,高新园区,20190603,38.90204708664442,121.53244406374695,大华锦绣华城一期,50,25244,大连大华物业管理有限公司,2.5,辽宁,3,二手房,2010
甘井子区柳树南街45-10号,大连,中体产业集团大连乐百年置业有限公司,甘井子,20190603,38.92567666296449,121.4841330254372,水木清华,31,13279,大连辰谊物业管理有限公司,1.2,辽宁,3,二手房,2009
甘井子辛吉街150号-7号,大连,大连新星房地产开发有限公司,甘井子,20190603,38.96368508446978,121.52671221254214,新星绿城一期,28,11958,大连生生物业管理有限公司,0.5,辽宁,3,二手房,2003
中山区中青街87号一单元107,大连,大连亿达房地产股份有限公司,中山,20190603,38.90213494248529,121.65806522267005,青云林海,46,20971,亿达物业管理有限公司,1,辽宁,3,二手房,2001
甘井子区汇达园26号,大连,大连红星美凯龙投资发展有限公司,甘井子,20190603,38.99704654604941,121.59758808878767,红星国际广场,140,14799,红星物业管理有限公司,1.5,辽宁,3,二手房,2014
高新园区海苑街36号1单元2号公建,大连,大连大有房屋开发有限公司,高新园区,20190603,20.06392317589085,110.32302599457326,大有恬园,42,17668,大连家园物业有限公司,0.5,辽宁,3,二手房,2003
无门店信息,大连,暂无信息,开发区,20190603,34.52713835999158,118.76812980670795,十里岗小区,61,5842,大连经济技术开发区盛辉物业服务有限公司,0.5,辽宁,3,二手房,1996
沙河口区西南路161号,大连,无开发商,沙河口,20190603,38.89269676588945,121.56639953951542,西沟小区,33,12196,无物业管理服务,-,辽宁,3,二手房,1990
无门店信息,大连,大连新跃房地产开发有限公司,金州,20190603,34.52713835999158,118.76812980670795,金海国际花园,235,7957,盘锦瀚新物业管理有限公司,1,辽宁,3,二手房,2010
大连市甘井子区椒房街24号楼2-104链家地产,大连,大连港置地有限公司,甘井子,20190603,38.985363789837166,121.61034055597686,大连港天下粮仓,30,20006,大连万科物业服务有限公司,2.2,辽宁,3,二手房,2017
甘井子区红南东街7-7号,大连,大连良运房地产开发有限公司,甘井子,20190603,38.92880462247992,121.54144910207062,山居笔记,22,16332,大连良运物业管理有限公司,1.5,辽宁,3,二手房,2009
甘井子区佳林北园2-7号,大连,大连瑞泰祥房地产开发有限公司,甘井子,20190603,38.96331610956877,121.52802328494242,缇香漫城,57,20536,大连瑞泰祥物业服务有限公司,2,辽宁,3,二手房,2013
甘井子区祥龙街2号楼1单元1楼1号,大连,大连市大钢集团,甘井子,20190603,38.988045874482445,121.60439401971377,华南沃尔玛六一路,26,10905,街道办事处（居委会）代管物业,0.5,辽宁,3,二手房,1990
高新园敬贤街23-11号,大连,大连晟远房地产开发有限公司,高新园区,20190603,38.869456648212356,121.53023725049893,恒瑞坦城,65,17872,大连恒德物业服务有限公司,2.4,辽宁,3,二手房,2015
西岗区新田巷27号1-2,大连,无开发商,西岗,20190603,38.893215932589385,121.64103065169111,新河街,11,10524,无物业管理服务,-,辽宁,3,二手房,1995
大连市金州区站前街道生辉第一城14-3号1-2层,大连,大连新天润企业集团有限公司,开发区,20190603,39.0569681786798,121.74773530665969,凯旋国际,110,7046,第一东方(大连)物业服务有限公司,2.3,辽宁,3,二手房,2008
大连市甘井子区七贤路8-3号,大连,大连瑞恒置业有限公司,高新园区,20190603,38.86602612116956,121.53842265737707,未名山,51,25610,大连龙湖物业服务有限公司,3,辽宁,3,二手房,2015
甘井子区祥龙街2号楼1单元1楼1号,大连,大连宏孚房屋开发有限公司,甘井子,20190603,38.988045874482445,121.60439401971377,宏孚小区,30,10856,无物业管理服务,-,辽宁,3,二手房,1995
沙河口区长江路738号,大连,勋业（大连）置业有限公司,西岗,20190603,38.913544290955585,121.59450670056631,远洋风景,60,23541,大连远洋风景物业服务中心,1.9,辽宁,3,二手房,2007
甘井子区甘井子路32号楼1单元1楼9号,大连,大连市建设控股有限公司,甘井子,20190603,38.982488275116516,121.63345389253514,胜景家园,13,12420,街道办事处（居委会）代管物业,0.9,辽宁,3,二手房,2009
金州区南棉路310号,大连,暂无信息,金州,20190603,39.09939229372624,121.72414976100345,光明现代城,6,7168,无物业管理服务,1,辽宁,2,二手房,2004
中山区共建巷61号,大连,无开发商,中山,20190603,38.91828093658718,121.66259221532148,39中中化街,1,22836,街道办事处（居委会）代管物业,0.5,辽宁,2,二手房,1995
沙河口区华北路404号,大连,无开发商,沙河口,20190603,38.8862815932937,121.59082948696123,园丁巷,5,9698,街道办事处（居委会）代管物业,0.3,辽宁,2,二手房,1990
沙河口区连山街10号2-1-2,大连,大连宝嘉房地产有限公司,沙河口,20190603,38.89637522563413,121.57143690983219,星海名庭,8,22688,大连斌宏物业管理有限公司,0.6,辽宁,2,二手房,2005
金州区光明街道育才街42-6号1-2层,大连,无开发商,金州,20190603,39.109080894078986,121.7182584929096,光明小区(金州),12,8747,无物业管理服务,0.5,辽宁,2,二手房,1995
中山区民建街10号1单元1号,大连,无开发商,中山,20190603,38.925444479476894,121.66915026954452,39中鲁迅路（三八广场）,1,20060,无物业管理服务,-,辽宁,2,二手房,1995
开发区红梅小区19栋-2-1-1号,大连,无开发商,开发区,20190603,29.906498897603264,121.5913630631805,金玛海景,6,11686,街道办事处（居委会）代管物业,1,辽宁,2,二手房,2007
中山区民建街10号1单元1号,大连,无开发商,中山,20190603,38.925444479476894,121.66915026954452,39中金域朝阳,5,17811,无物业管理服务,-,辽宁,2,二手房,2000
甘井子区西南路979-7号公建,大连,无开发商,甘井子,20190603,38.96275592929325,121.5958698791777,八十中,0,14351,街道办事处（居委会）代管物业,0.9,辽宁,2,二手房,1999
大连市沙河口区西南路875号1层21号,大连,大连泰安房地产开发有限公司,沙河口,20190603,38.94485969061231,121.58418648447764,春柳河小区,15,11232,大连三宝物业有限公司,0.5,辽宁,3,二手房,2001
甘井子区红旗花园23号楼19-24轴公建,大连,大连银泰房地产有限公司,甘井子,20190603,38.93108029984587,121.54902145022133,祥和园,21,14400,无物业管理服务,0.5,辽宁,3,二手房,2002
开发区黄海西路201号107公建,大连,大连开建房地产开发有限公司,开发区,20190603,39.04942604506828,121.80126318235419,芙蓉花园(开发区),42,6896,嘉兴物业管理有限公司,0.4,辽宁,3,二手房,2001
开发区黄海西路201号107公建,大连,无开发商,开发区,20190603,39.04942604506828,121.80126318235419,岗松里小区,106,7143,大连经济技术开发区海青物业有限公司,0.5,辽宁,3,二手房,1999
甘井子区山东路398号,大连,华润置地（大连）开发有限公司,甘井子,20190603,38.99821826443242,121.59274974973462,华润置地广场三期,54,22600,华润物业（大连）有限公司,2.9,辽宁,3,二手房,2016
西岗区中山路158号唐山街市场外14号,大连,暂无信息,西岗,20190603,38.91688106727098,121.63201298398174,34中松花街,15,26795,无物业管理服务,-,辽宁,3,二手房,1980
甘井子区金北路17号,大连,暂无信息,甘井子,20190603,38.97553393692831,121.59969720502335,76中学桥南,77,16136,大连新华物业管理有限公司,0.2,辽宁,3,二手房,1970
中山区杏林街66—5号,大连,大连开建集团有限公司,中山,20190603,38.92572771377599,121.66490555592502,花香维也纳,50,23922,大连开利物业管理有限公司,0.5,辽宁,3,二手房,2003
甘井子区鹏辉新世纪1幢1单元1-3号房屋（海口路99号）,大连,暂无信息,甘井子,20190603,38.96077365187575,121.60514653016222,鹏辉新世纪三期北园,28,16505,大连鹏辉物业管理有限公司,0.6,辽宁,3,二手房,2003
经济技术开发区城润万家4-5号公建,大连,大连海汇房地产开发有限公司,开发区,20190603,39.05716325096989,121.75946281983826,正源吉祥e家,56,12112,大连正源物业服务有限公司,1,辽宁,3,二手房,2013
沙河口区敦煌路357号10-11轴公建,大连,大连银泰房地产有限公司,沙河口,20190603,38.93891619583455,121.59150694046835,敦煌大厦,5,9761,大连银泰物业管理有限公司,0.5,辽宁,2,二手房,1999
甘井子区山东路商业街D区12号公建,大连,大连市大钢集团,甘井子,20190603,39.001060021502965,121.58883960371418,梅山路,9,12821,街道办事处（居委会）代管物业,0.5,辽宁,2,二手房,1982
无门店信息,大连,大连融昇房地产开发有限公司,甘井子,20190603,34.52713835999158,118.76812980670795,鹿港小镇,10,10847,大连三和住邦物业管理有限公司,1.3,辽宁,2,二手房,2015
甘井子区金家街17-7号,大连,暂无信息,甘井子,20190603,38.97493697764367,121.60110987128529,金源花园,9,18959,无物业管理服务,-,辽宁,2,二手房,2000
开发区松苑街23号,大连,无开发商,开发区,20190603,22.52087435807652,113.40156105086167,松峪里一期,17,12166,大连中信物业管理有限公司,0.5,辽宁,2,二手房,2000
西岗区八一路102号,大连,无开发商,西岗,20190603,38.92047268927287,121.61862512554262,智勇西二巷,11,9824,无物业管理服务,-,辽宁,2,二手房,1993
甘井子区甘井子路32号楼1单元1楼9号,大连,无开发商,甘井子,20190603,38.982488275116516,121.63345389253514,杨柳街,12,10448,街道办事处（居委会）代管物业,0.5,辽宁,2,二手房,1990
大连市沙河口区西南路875号1层21号,大连,无开发商,沙河口,20190603,38.94485969061231,121.58418648447764,春风巷,5,11305,街道办事处（居委会）代管物业,0.5,辽宁,2,二手房,1993
中山区解放路471-22号,大连,无开发商,中山,20190603,38.901309943567504,121.65419095766659,友爱街,10,13016,无物业管理服务,-,辽宁,2,二手房,1990
沙河口区华北路404号,大连,大连元泰房屋开发有限公司,沙河口,20190603,38.8862815932937,121.59082948696123,福居家园,6,13183,渤海吉祥物业管理有限公司,0.5,辽宁,2,二手房,2003
沙河口区西南路851号3单元1层3号,大连,暂无信息,沙河口,20190603,38.94344210837944,121.58246796944378,学工街,2,9175,大连新兴物业管理有限公司,0.3,辽宁,2,二手房,1993
中山区中青街87号一单元107,大连,无开发商,中山,20190603,38.90213494248529,121.65806522267005,文明巷,3,11539,无物业管理服务,-,辽宁,2,二手房,1990
西岗区中山路158号唐山街市场外14号,大连,暂无信息,西岗,20190603,38.91688106727098,121.63201298398174,34中畅通街,3,28503,无物业管理服务,-,辽宁,2,二手房,1980
开发区松苑街23号,大连,无开发商,开发区,20190603,22.52087435807652,113.40156105086167,松林里小区,5,12896,街道办事处（居委会）代管物业,0.5,辽宁,2,二手房,1996
无门店信息,大连,大连新兴海韵房地产开发有限公司,开发区,20190603,34.52713835999158,118.76812980670795,白石湾小区,13,9369,大连海韵物业管理有限公司,0.8,辽宁,2,二手房,2006
沙河口区联合路133号,大连,大连新型房地产开发有限公司,沙河口,20190603,38.91608561262676,121.60480987310456,21中联德小区,7,21504,大连新型物业管理有限公司,0.5,辽宁,2,二手房,1998
甘井子区华北路花锦园28号23-3-1-2建筑物,大连,暂无信息,甘井子,20190603,38.951627958411166,121.5739439799003,周水子广场,1,14731,无物业管理服务,0.5,辽宁,2,二手房,1990
甘井子区甘井子街3号公建,大连,无开发商,甘井子,20190603,38.982086281836246,121.63426694995971,新街,18,9720,无物业管理服务,-,辽宁,2,二手房,1988
西岗区华北路100号1层5号,大连,大连双振房屋开发有限公司,沙河口,20190603,38.92047268927287,121.61862512554262,香茗苑,5,15957,大连双振物业有限公司,0.5,辽宁,2,二手房,2003
西岗区八一路102号,大连,无开发商,西岗,20190603,38.92047268927287,121.61862512554262,河沿巷,14,12204,无物业管理服务,-,辽宁,2,二手房,1996
无门店信息,大连,大连海华房地产开发有限公司,甘井子,20190603,34.52713835999158,118.76812980670795,丽湾海景,27,11966,大连海华房地产开发有限公司,0.5,辽宁,2,二手房,2010
甘井子区华北路花锦园28号23-3-1-2建筑物,大连,大连东特房地产开发有限公司,沙河口,20190603,38.951627958411166,121.5739439799003,东特新居,16,12064,大连东特祥禾物业管理有限公司,0.5,辽宁,2,二手房,2000
中山区北斗街53号1层1号,大连,大连大森房地产开发有限公司,中山,20190603,38.92727355733075,121.67002970974048,东港林苑,22,17467,大连美心物业管理有限公司,2.8,辽宁,2,二手房,2013
西岗区鞍山路65-5号,大连,大连晟大房地产开发有限公司,沙河口,20190603,38.926971569913064,121.60260230348328,亿鑫大厦,3,13569,大连德一物业管理有限公司,1,辽宁,2,二手房,2003
甘井子区祥龙街2号楼1单元1楼1号,大连,大连源隆房地产开发有限公司,甘井子,20190603,38.988045874482445,121.60439401971377,鑫汇茗苑,11,16599,大连佳和物业管理有限公司,1.6,辽宁,2,二手房,2011
开发区杏树里10栋-14,大连,大连经济技术开发区城市建设开发有限公司,开发区,20190603,39.08113818354046,121.78505742127606,颐馨园,14,9084,大连经济技术开发区杏林物业管理有限公司,0.8,辽宁,2,二手房,2005
沙河口区新生路万客园3-7,大连,大连中海兴业房地产开发有限公司,沙河口,20190603,38.94412875710208,121.57006756704837,中海天赋山一期,25,22383,大连中海物业管理有限公司,2.8,辽宁,2,二手房,2016
中山区民建街10号1单元1号,大连,暂无信息,中山,20190603,38.925444479476894,121.66915026954452,39中港湾街,2,19498,无物业管理服务,-,辽宁,2,二手房,1995
西岗区长春路334号,大连,大连源通房地产开发有限公司,西岗,20190603,38.89807766522607,121.63221082858387,南石源居,3,16606,大连源通物业管理有限公司,1.3,辽宁,2,二手房,2009
中山区中南路店212号门头房,大连,峰尚房屋开发有限公司,中山,20190603,38.91149759691359,121.67700561077149,峰尚中南,13,16220,大连银洲物业管理有限公司,2.2,辽宁,2,二手房,2011
沙河口区西南路851号3单元1层3号,大连,无开发商,沙河口,20190603,38.94344210837944,121.58246796944378,凌山二街,8,11076,无物业管理服务,-,辽宁,2,二手房,1985
甘井子区迎客路郭东街一品蓝天公建14号,大连,大连福田房屋开发有限公司,甘井子,20190603,38.958456949708726,121.556756277476,隽佳欣苑,33,14764,大连安洁物业管理服务有限公司,0.5,辽宁,2,二手房,2007
中山区爱华街13号,大连,大连银河房地产开发有限公司,中山,20190603,38.92541607518685,121.6535728031028,银河公寓,7,9620,街道办事处（居委会）代管物业,-,辽宁,2,二手房,1996
西岗区胜利路33号,大连,暂无信息,西岗,20190603,38.91309771954841,121.62500886627636,34中胜利路,24,26752,无物业管理服务,0.5,辽宁,2,二手房,1985
甘井子区柳树南街45-11号,大连,大连顺达房屋开发有限公司,甘井子,20190603,38.92567666296449,121.4841330254372,顺达温泉花园一期,11,11402,大连顺达物业服务有限公司,0.6,辽宁,2,二手房,2003
无门店信息,大连,大连中政房地产开发有限公司,中山,20190603,34.52713835999158,118.76812980670795,中政小区,18,12238,大连中政物业管理有限公司,0.3,辽宁,2,二手房,1996
沙河口区绿清街12号,大连,大连绿波房屋开发集团有限公司,沙河口,20190603,38.93851335419565,121.57334844377094,绿波公寓,5,9116,大连绿波建设发展有限公司,0.5,辽宁,2,二手房,1999
无门店信息,大连,大连长鹭房屋开发有限公司,甘井子,20190603,34.52713835999158,118.76812980670795,晶品森岚,14,15568,大连旺宇物业有限公司,1.3,辽宁,2,二手房,2009
甘井子区红旗西路104-7,大连,大连安邦房地产开发有限公司,甘井子,20190603,38.940335495502666,121.52722586363274,水畔香谷,13,14938,大连万科绿色家园物业有限公司,1,辽宁,2,二手房,2007
中山区华乐街71号公建,大连,暂无信息,中山,20190603,38.923187679200566,121.6843197903016,东港印象DE区,15,14285,大连众和物业管理有限公司,1.2,辽宁,2,二手房,2008
无门店信息,大连,无开发商,金州,20190603,34.52713835999158,118.76812980670795,金山名苑,18,9833,大连金山物业管理有限公司,0.5,辽宁,2,二手房,2009
甘井子区甘井子路32号楼1单元1楼9号,大连,大连和华房地产开发有限公司,甘井子,20190603,38.982488275116516,121.63345389253514,万成御园,13,14302,大连银力物业管理有限公司,1.3,辽宁,2,二手房,2015
无门店信息,大连,大连鹏辉房地产开发有限公司,甘井子,20190603,34.52713835999158,118.76812980670795,鹏辉新天居三期,47,14028,大连鹏辉物业管理有限公司,0.8,辽宁,2,二手房,2009
中山区高尚路28-1号,大连,无开发商,中山,20190603,38.892673425111305,121.67148833870213,高尚路,21,10356,无物业管理服务,0.5,辽宁,2,二手房,1993
甘井子区华龙南园34-5号34-库4号34-5号,大连,大连运达房地产集团有限公司,甘井子,20190603,38.98270467597865,121.6117222765123,泊岭紫郡,28,13148,大连怡和物业服务有限公司,0.9,辽宁,2,二手房,2009
开发区东北三街94号1层,大连,宏基公司,开发区,20190603,39.05723508011585,121.80570768630555,新领地公寓,44,6137,街道办事处（居委会）代管物业,1.3,辽宁,2,二手房,2010
中山区民建街10号1单元1号,大连,无开发商,中山,20190603,38.925444479476894,121.66915026954452,39中民建街,11,20207,无物业管理服务,-,辽宁,2,二手房,1995
莲花山路89-3号,大连,大连安邦房屋开发公司,沙河口,20190603,38.902848261803356,121.6041720815823,金地海景,16,13462,无物业管理服务,-,辽宁,2,二手房,2005
高新园区火炬路18号,大连,大连联合柏立置业有限公司,高新园区,20190603,38.937738080520404,117.39340752036043,柏悦国际公寓,42,17883,大连柏悦国际公寓管理有限公司,3.5,辽宁,2,二手房,2012
甘井子区玉丽街2号楼1单元4号公建,大连,暂无信息,甘井子,20190603,38.98705071699301,121.55513043130172,玉意街,48,10247,大连新兴物业管理有限公司,0.3,辽宁,2,二手房,2002
无门店信息,大连,大连振富房屋开发有限公司,西岗,20190603,34.52713835999158,118.76812980670795,振富公寓（胜利桥北商圈）,39,8919,大连中海振富物业管理有限公司,1.1,辽宁,2,二手房,2002
中山区爱华街13号,大连,大连长荣房屋开发有限公司,中山,20190603,38.92541607518685,121.6535728031028,休斯顿公寓,40,13314,大连长荣物业管理有限公司,2.6,辽宁,2,二手房,2003
天河路173-2号 华润考拉22号公建,大连,大连华南房地产开发有限公司,甘井子,20190603,23.14720645345518,113.3277414923158,名贵山庄华丽园,16,13413,大连弘益达物业管理有限公司,0.5,辽宁,2,二手房,2002
开发区黄海西路201号107公建,大连,开发区城建局,开发区,20190603,39.04942604506828,121.80126318235419,金湖里,59,6839,大连中信物业管理有限公司,0.1,辽宁,2,二手房,1998
甘井子区华东路22号公建,大连,大连凯祥房地产开发有限公司,甘井子,20190603,38.97736184953593,121.5935814234334,环馨山庄,22,12661,大连凯祥物业管理有限公司,0.5,辽宁,2,二手房,2000
大连市高新园区七贤中路63号,大连,大连宏都房地产开发有限公司,高新园区,20190603,38.86053006357667,121.53273606963094,宏都峰景,31,20355,大连东方百瑞物业管理有限公司,1.9,辽宁,2,二手房,2012
甘井子区亿家缘虹韵路205,大连,大连耕海置业有限公司,甘井子,20190603,38.95647848453699,121.53130152244339,国民院子,32,20968,大连耕海物业管理有限公司,2,辽宁,2,二手房,2012
沙河口区昌黎街77号楼第1层公建,大连,大连城市建设集团有限公司,沙河口,20190603,38.91974518366595,121.5902918379551,79中君安公寓,9,17721,大连广安物业有限公司,1.2,辽宁,2,二手房,1998
甘井子区汇仁街19号12号楼1单元102室,大连,大连华南房地产开发有限公司,甘井子,20190603,38.99746297497168,121.58917714380617,名贵山庄华彩园,9,13658,大连弘益达物业管理有限公司,0.5,辽宁,2,二手房,2004
中山区山屏街116号1-1,大连,无开发商,中山,20190603,38.90729438486833,121.68598159980013,山屏东街,18,12089,无物业管理服务,-,辽宁,2,二手房,1990
沙河口区黄浦路18号—5号公建,大连,大连高新技术产业园区建设开发总公司,高新园区,20190603,38.8771225143479,121.54427480390662,学府1+1公寓,9,15879,街道办事处（居委会）代管物业,0.6,辽宁,2,二手房,2007
开发区润海园中区62-9,大连,暂无信息,开发区,20190603,39.04047273176333,121.76392358042445,大连海湾城三期,23,12053,大连金广物业服务有限公司,3,辽宁,2,二手房,2017
甘井子区海口路77—5号,大连,大连圣韬房地产开发有限公司,甘井子,20190603,38.960286398428124,121.60305183172997,万福居,54,18685,大连圣韬物业管理有限公司,0.5,辽宁,2,二手房,2006
无门店信息,大连,大连盈丰置业有限公司,金州,20190603,34.52713835999158,118.76812980670795,尚海华庭,32,9101,大连盈丰置业有限公司,1.3,辽宁,2,二手房,2014
沙河口区昌黎街77号楼第1层公建,大连,大连高新园区建设开发总公司,沙河口,20190603,38.91974518366595,121.5902918379551,79中昌隆大厦,13,18758,无物业管理服务,-,辽宁,2,二手房,1998
沙河口区西南路358号1—2号,大连,大连东兴置业有限公司,沙河口,20190603,38.90839654326566,121.56908246905662,西山园中园,33,22510,大连东昌物业管理有限公司,1.2,辽宁,2,二手房,2007
甘井子区金家街17-7号,大连,暂无信息,甘井子,20190603,38.97493697764367,121.60110987128529,金一街,17,19618,无物业管理服务,-,辽宁,2,二手房,1970
开发区金源南里14栋-11号一层部分，14号-12号一层部分,大连,大连开建房地产开发有限公司,开发区,20190603,39.06148862675436,121.82503941311765,金源北里安居小区,63,7970,嘉兴物业管理有限公司,0.3,辽宁,2,二手房,1999
开发区东北三街94号1层,大连,鑫鸿房地产开发公司,开发区,20190603,39.05723508011585,121.80570768630555,雍景国际,37,6404,街道办事处（居委会）代管物业,1.2,辽宁,2,二手房,2002
金州区拥政街道733号-8号1-2层,大连,大连盛铭资产管理有限公司,金州,20190603,39.11690610445662,121.73030803603723,安盛花园（金州）,18,10535,大连经济技术开发区海青物业有限公司,1,辽宁,2,二手房,2000
沙河口区五四路207-1-9号,大连,大连华邦房地产开发有限公司,沙河口,20190603,38.913544290955585,121.59450670056631,华邦上都,19,18902,大连华邦物业有限公司,1.7,辽宁,2,二手房,2006
沙河口区富国街14号1-1-2,大连,无开发商,沙河口,20190603,38.901027106600836,121.59047734850638,星月街,8,11617,街道办事处（居委会）代管物业,0.5,辽宁,2,二手房,-
无门店信息,大连,大连新型企业集团,甘井子,20190603,34.52713835999158,118.76812980670795,南岭花园,29,12396,大连新型物业管理有限公司,0.4,辽宁,2,二手房,2006
沙河口区富国街34-3,大连,大连万达房地产开发有限公司,沙河口,20190603,38.90159716600704,121.58930603357904,星海自由港,19,20608,大连万景物业管理有限公司,1.2,辽宁,2,二手房,2003
西岗区鞍山路65-5号,大连,无开发商,沙河口,20190603,38.926971569913064,121.60260230348328,美辰臻品,9,17998,大连众和物业管理有限公司,1,辽宁,2,二手房,2007
沙河口区锦霞南园13号3-1-1,大连,大连锦绣房地产开发有限公司,沙河口,20190603,38.94761264366187,121.55126272246873,锦华南园,16,10407,大连锦绣物业管理有限公司,0.3,辽宁,2,二手房,2002
大连市金州区友谊街道南金华城25号1-2层1号,大连,大连金华房地产开发有限公司,金州,20190603,39.128677228885614,121.71356109978767,金华小区二期,39,8134,大连金华兴物业有限公司,0.5,辽宁,2,二手房,2006
西岗区平等街21号1层2号,大连,辽宁宁安房地产开发有限公司,西岗,20190603,38.92251066253164,121.63236845125735,良玖国际,34,15950,大连良玖物业管理有限责任公司,3.7,辽宁,2,二手房,2005
沙河口区黑石礁街3号1层1-1号,大连,无开发商,沙河口,20190603,38.880058010307856,121.56313403908827,东财烛光园,8,17462,无物业管理服务,-,辽宁,2,二手房,1988
金州区光明街道育才街42-6号1-2层,大连,无开发商,金州,20190603,39.109080894078986,121.7182584929096,职高西小区,22,8488,街道办事处（居委会）代管物业,0.5,辽宁,2,二手房,1989
大连市甘井子区泉水N2区3-13号,大连,大连金广地产集团有限公司,甘井子,20190603,39.021116079001885,121.64659997607325,泉水N3区,79,10883,无物业管理服务,0.7,辽宁,2,二手房,2000
开发区大开高吉里33栋6号,大连,大连联富地产有限公司,开发区,20190603,39.07355836059941,121.8280439450145,城宁家园,5,9324,大连联富物业有限公司,1.5,辽宁,2,二手房,2015
沙河口区沙能街101号1单元1层1号,大连,大连大力置业有限公司,沙河口,20190603,38.9366316275348,121.59031205759763,机车佳苑,7,15642,大连大力物业管理有限公司,1.5,辽宁,2,二手房,2009
西岗区康平街2号（5号楼3-1-3号）,大连,暂无信息,西岗,20190603,38.91044414697888,121.61980769264477,34中民众街,20,28892,无物业管理服务,-,辽宁,2,二手房,1990
无门店信息,大连,无开发商,西岗,20190603,34.52713835999158,118.76812980670795,付家庄街,18,11468,无物业管理服务,-,辽宁,2,二手房,1990
中山区山屏街116号1-1,大连,无开发商,中山,20190603,38.90729438486833,121.68598159980013,山峦北巷,3,12692,无物业管理服务,-,辽宁,2,二手房,1985
无门店信息,大连,大连中瀛房地产开发有限公司,旅顺口,20190603,34.52713835999158,118.76812980670795,中瀛臻堡,45,9559,大连中瀛物业管理服务有限公司,1,辽宁,2,二手房,2010
金州区拥政街道733号-8号1-2层,大连,无开发商,金州,20190603,39.11690610445662,121.73030803603723,414小区,87,7305,街道办事处（居委会）代管物业,0.5,辽宁,2,二手房,1989
沙河口区西南路851号3单元1层3号,大连,无开发商,沙河口,20190603,38.94344210837944,121.58246796944378,春柳街,12,11526,街道办事处（居委会）代管物业,0.1,辽宁,2,二手房,1985
开发区小孤山西里3栋-11号,大连,大连开发区世元房地产开发有限公司,开发区,20190603,39.02715282297674,121.80682183666346,东庭印象,29,10105,大连经济技术开发区鹏达物业管理有限公司,1.2,辽宁,2,二手房,2007
大连市甘井子中华路街道汇畅街48号,大连,大连嘉盈置业有限公司,甘井子,20190603,39.0059299196697,121.59621871231741,宏都熙景,32,22584,大连宏都物业管理有限公司,2.3,辽宁,2,二手房,2016
甘井子区泉水B2区19-1号,大连,大连金广集团,甘井子,20190603,39.0101309886317,121.60812584213187,金色阳光家园,56,14023,大连金广物业服务有限公司,0.5,辽宁,2,二手房,2002
甘井子区迎客路郭东街一品蓝天公建14号,大连,沈阳军区后勤部,甘井子,20190603,38.958456949708726,121.556756277476,虹桥干休所,9,13267,大连虹桥物业管理中心,0.1,辽宁,2,二手房,2000
金州新区八一路金都嘉园1号楼1号公建,大连,无开发商,金州,20190603,39.05525210261778,121.74865634199398,老街坊小区,14,8822,街道办事处（居委会）代管物业,0.5,辽宁,2,二手房,1997
西岗区鞍山路29号龙畔锦城东门,大连,无开发商,西岗,20190603,38.92763470697088,121.61498923399098,双兴北巷（大菜市商圈）,10,10846,街道办事处（居委会）代管物业,0.5,辽宁,2,二手房,1995
沙河口区五四路207-1-9号,大连,无开发商,沙河口,20190603,38.913544290955585,121.59450670056631,五四路,15,12324,无物业管理服务,-,辽宁,2,二手房,1992
西岗区长红街4号1号公建,大连,暂无信息,西岗,20190603,38.91377414665191,121.6302525225721,34中长红街,27,24330,无物业管理服务,-,辽宁,2,二手房,1990
沙河口区五四路207-1-9号,大连,无开发商,沙河口,20190603,38.913544290955585,121.59450670056631,集贤街,12,13655,无物业管理服务,-,辽宁,2,二手房,1990
沙河口区黄浦路18号—5号公建,大连,大连良运房地产开发有限公司,高新园区,20190603,38.8771225143479,121.54427480390662,翰林观海,26,22699,大连良运物业管理有限公司,0.8,辽宁,2,二手房,2003
大连市经济技术开发区东城园98-14,大连,大连聚美房地产开发有限公司,开发区,20190603,39.06925526014871,121.8505146710752,聚美东湾,66,12135,大连聚美房地产开发有限公司,1.6,辽宁,2,二手房,2016
大连市甘井子区椒房街24号楼2-104链家地产,大连,大连圣韬房地产开发有限公司,甘井子,20190603,38.985363789837166,121.61034055597686,万福山庄,24,14582,大连海旭物业管理有限公司,0.5,辽宁,2,二手房,2005
西岗区中山路158号唐山街市场外14号,大连,大连胜利路拓宽改造工程建设有限公司,西岗,20190603,38.91688106727098,121.63201298398174,星海绿山城,34,30178,无物业管理服务,1.5,辽宁,2,二手房,2015
中山区金城街26号一楼,大连,辽宁远大房屋开发有限公司,中山,20190603,38.922282529515634,121.65214466263014,远大大厦,43,9796,街道办事处（居委会）代管物业,2.5,辽宁,2,二手房,2000
沙河口区前程街15号1层E-C轴36-44轴公建,大连,大连安邦房地产开发有限公司,甘井子,20190603,38.91588050824643,121.60099647548584,阳光百合,11,17257,渤海吉祥物业管理有限公司,0.8,辽宁,2,二手房,2004
西岗区平等街21号1层2号,大连,裕景兴业（大连）有限公司,西岗,20190603,38.92251066253164,121.63236845125735,中心裕景,91,21176,第一太平戴维斯物业顾问（北京）有限公司大连分公司,3.8,辽宁,2,二手房,2012
无门店信息,大连,大连新兴海韵房地产开发有限公司,金州,20190603,34.52713835999158,118.76812980670795,通用阳光丽景,84,7038,街道办事处（居委会）代管物业,1.4,辽宁,2,二手房,2013
无门店信息,大连,大连光洋龙驰置业有限公司,开发区,20190603,34.52713835999158,118.76812980670795,泽林苑,16,11800,大连光洋龙驰置业物业有限公司,1.6,辽宁,2,二手房,2015
中山区鲁迅路184号1层B—A,大连,无开发商,中山,20190603,38.92590875965419,121.67594393403164,海滨住宅小区（寺儿沟商圈）,7,11732,无物业管理服务,-,辽宁,2,二手房,1995
中山区金城街26号一楼,大连,无开发商,中山,20190603,38.922282529515634,121.65214466263014,九中白兰街,21,36247,无物业管理服务,-,辽宁,2,二手房,1995
西岗区新田巷11号三单元103,大连,无开发商,西岗,20190603,38.89276612016956,121.64190731791966,新船巷,31,9419,无物业管理服务,-,辽宁,2,二手房,1992
西岗区黄河路82号,大连,大连富泰房地产开发有限公司,西岗,20190603,38.92243503020161,121.6287927913896,悦泰福里,27,21744,大连百安物业管理有限公司,2.8,辽宁,2,二手房,2014
开发区湾里南12栋-16-17-18号,大连,开发区城建局,开发区,20190603,39.070782084451,121.8506739675913,宜宁里,52,5812,大连宏港物业管理有限公司,0.2,辽宁,2,二手房,1992
甘井子区华东路33-5号,大连,大连凯祥房地产开发有限公司,甘井子,20190603,38.97497080220593,121.59479866243332,商城花园,16,11982,大连凯祥物业管理有限公司,0.5,辽宁,2,二手房,2000
无门店信息,大连,大连乾豪集团有限公司,开发区,20190603,34.52713835999158,118.76812980670795,乾豪海岸花园,10,14275,大连乾豪物业管理有限公司,2,辽宁,2,二手房,2003
无门店信息,大连,大连宝泰华置业发展有限公司,金州,20190603,34.52713835999158,118.76812980670795,海天富地,34,12840,大连戴德梁行物业管理有限公司,1.6,辽宁,2,二手房,2012
中山区碧浪园4号-3号,大连,大连三寰房地产开发有限公司,中山,20190603,38.89147289460474,121.69329560326236,碧浪园三期,16,16396,大连峰霖物业管理有限公司,0.3,辽宁,2,二手房,2002
甘井子区华北路花锦园28号23-3-1-2建筑物,大连,大连东特房地产开发有限公司,甘井子,20190603,38.951627958411166,121.5739439799003,星加坡花园,25,17738,大连东特祥禾物业管理有限公司,0.6,辽宁,2,二手房,2004
西岗区八一路196号2-1-12号,大连,大连欧美亚房地产开发有限公司,西岗,20190603,38.92047268927287,121.61862512554262,名城国际公馆,12,15728,无物业管理服务,-,辽宁,2,二手房,2007
无门店信息,大连,北方沿海房地产开发（大连）有限公司,沙河口,20190603,34.52713835999158,118.76812980670795,星海大观,213,17341,北京世邦魏理仕物业管理服务有限公司大连分公司,4.4,辽宁,2,二手房,2008
大连市甘井子区融田西园52-11,大连,亿达集团大连科技城发展有限公司,甘井子,20190603,38.95800216293212,121.53151895549547,亿达春田馥园,65,20152,亿达物业管理有限公司,1.5,辽宁,2,二手房,2011
金州区光明街道育才街42-6号1-2层,大连,暂无信息,金州,20190603,39.109080894078986,121.7182584929096,芙蓉花园（金州）,28,9721,大连金州新区建房物业管理中心,0.6,辽宁,2,二手房,2007
中山区爱华街13号,大连,大连新世界广场国际有限公司,中山,20190603,38.92541607518685,121.6535728031028,曼哈顿大厦,44,14269,大连侨乐物业服务有限公司,3.5,辽宁,2,二手房,2005
西岗区长春路334号,大连,无开发商,西岗,20190603,38.89807766522607,121.63221082858387,曙光巷,15,11118,无物业管理服务,-,辽宁,2,二手房,1990
中山区武昌街武昌公寓6号公建,大连,大连武昌房地产开发有限公司,中山,20190603,38.912280913445784,121.64921130527547,部居逸阁,25,13339,大连宜佳物业管理有限公司,1,辽宁,2,二手房,2005
中山区民建街10号1单元1号,大连,无开发商,中山,20190603,38.925444479476894,121.66915026954452,39中爱阳街,23,19855,无物业管理服务,-,辽宁,2,二手房,1993
经济技术开发区红星海-A区81-2号1层,大连,远洋地产有限公司,开发区,20190603,39.027851194371685,121.80327394132297,红星海三期境界,91,13874,大连远洋基业物业管理有限公司,2.2,辽宁,2,二手房,2012
金州区光明街道育才街42-6号1-2层,大连,无开发商,金州,20190603,39.109080894078986,121.7182584929096,味食小区,23,7908,大连大众物业管理有限公司,0.5,辽宁,2,二手房,1988
中山区中南路226号,大连,大连澳南房屋开发有限公司,中山,20190603,38.90029610333926,121.68178899957817,伊顿山庄,10,24059,大连澳南物业管理有限公司,0.8,辽宁,2,二手房,2005
无门店信息,大连,无开发商,金州,20190603,34.52713835999158,118.76812980670795,香山翌景,20,7290,街道办事处（居委会）代管物业,0.5,辽宁,2,二手房,2010
无门店信息,大连,大连顺迈房地产开发有限公司,沙河口,20190603,34.52713835999158,118.76812980670795,星海国宝,59,20049,长城物业集团股份有限大连分公司,3,辽宁,2,二手房,2003
沙河口区鞍山路65号美都园7号1单元1层4号公建,大连,大连良运房地产开发有限公司,沙河口,20190603,38.92755211283745,121.60306664748275,良运缤纷四季,37,21662,大连良运物业管理有限公司,0.8,辽宁,2,二手房,2006
沙河口区恒利园42号-8,大连,无开发商,沙河口,20190603,38.93357562498634,121.57914091532649,大庆街,3,12153,无物业管理服务,-,辽宁,2,二手房,1982
大连市甘井子区逸林南园1-1号,大连,暂无信息,甘井子,20190603,38.95800216293212,121.53151895549547,三鼎春天A区,24,24121,瑞联德（大连）物业管理有限公司,3.2,辽宁,2,二手房,2015
沙河口区中山路417A-4号,大连,无开发商,沙河口,20190603,38.90740323140171,121.59484801084653,同泰街,21,12936,无物业管理服务,0.5,辽宁,2,二手房,1999
金州区先进街道渤海街1-4号1-2层,大连,无开发商,金州,20190603,39.09512910553563,121.74578812616167,百畅园,21,6908,街道办事处（居委会）代管物业,0.5,辽宁,2,二手房,2000
沙河口区连山街44-2号半地下一层（地上一层部分）,大连,大连宏都房地产开发有限公司,沙河口,20190603,38.892991456958086,121.57299542767161,宏都筑景Ⅱ期,10,25896,东方百瑞物业有限公司,1.8,辽宁,2,二手房,2012
中山区解放路604号,大连,无开发商,中山,20190603,38.89026319122045,121.66407876092346,鸣鹤街,8,14865,街道办事处（居委会）代管物业,0.5,辽宁,2,二手房,1998
甘井子区华北路花锦园28号23-3-1-2建筑物,大连,无开发商,甘井子,20190603,38.951627958411166,121.5739439799003,迎客石广场（锦绣商圈）,12,13540,街道办事处（居委会）代管物业,0.5,辽宁,2,二手房,2000
甘井子区祥龙街2号楼1单元1楼1号,大连,大连市大钢集团,甘井子,20190603,38.988045874482445,121.60439401971377,文星街,14,12073,街道办事处（居委会）代管物业,1,辽宁,2,二手房,1982
甘井子区金家街17-7号,大连,暂无信息,甘井子,20190603,38.97493697764367,121.60110987128529,金四街,51,19692,无物业管理服务,-,辽宁,2,二手房,1960
甘井子区芳韵街31号,大连,亿达集团大连房地产开发有限公司,甘井子,20190603,38.95628814568166,121.59125586946814,亿达世纪城,54,24471,亿达物业管理有限公司,0.9,辽宁,2,二手房,2002
沙河口区黄河路535号,大连,大连建园房地产开发有限公司,沙河口,20190603,38.91773777159567,121.60217159922856,79中城市公元,50,28060,大连斌弘物业管理有限公司,2.6,辽宁,2,二手房,2009
西岗区九三街64号,大连,大连金福星房地产开发有限公司,西岗,20190603,38.92047268927287,121.61862512554262,金福星大厦,8,8623,大连金星物业管理中心,2.2,辽宁,2,二手房,2001
金州区凤翔路220号,大连,大连鸿玮置业有限公司,金州,20190603,39.08410553937731,121.77700083356399,鸿玮澜山一期,29,15550,大连鸿玮物业服务有限公司,1.8,辽宁,2,二手房,2009
大连市甘井子区椒房街24号楼2-104链家地产,大连,大连凯祥房地产开发有限公司,甘井子,20190603,38.985363789837166,121.61034055597686,椒金山庄,21,16710,大连凯祥物业管理有限公司,0.5,辽宁,2,二手房,2000
沙河口区知心园10号公建,大连,亿达房地产开发有限公司,高新园区,20190603,38.893977135945136,121.55667141994431,亿达康派,7,18640,亿达物业管理有限公司,1.5,辽宁,2,二手房,2006
无门店信息,大连,大连光伸房地产开发有限公司,开发区,20190603,34.52713835999158,118.76812980670795,光伸卧龙港湾,19,8952,大连经济技术开发区光伸物业服务有限公司,1.5,辽宁,2,二手房,2015
开发区黄海西路201号107公建,大连,无开发商,开发区,20190603,39.04942604506828,121.80126318235419,倚平里,38,8104,街道办事处（居委会）代管物业,0.5,辽宁,2,二手房,2000
大连市甘井子区丰收路3-5号,大连,大连壹高房地产发展有限公司,甘井子,20190603,38.965377255081755,121.58288415324094,朗香小镇,17,21661,大连顶点物业管理有限公司,1.3,辽宁,2,二手房,2011
沙河口区新生路万客园3-7,大连,暂无信息,沙河口,20190603,38.94412875710208,121.57006756704837,中海天赋山二期,22,19562,大连中海物业管理有限公司,2.8,辽宁,2,二手房,2017
中山区益民街16号1层1号,大连,大连三鑫房地产开发有限公司,中山,20190603,38.93092761298906,121.66470740073377,金和苑,16,22212,大连报业物业管理有限公司三鑫分公司,3.5,辽宁,2,二手房,2004
无门店信息,大连,大连万科房地产开发有限公司,旅顺口,20190603,34.52713835999158,118.76812980670795,万科樱花园三期,33,12881,大连万科物业服务有限公司,2.4,辽宁,2,二手房,2014
中山区华乐街71号公建,大连,无开发商,中山,20190603,38.923187679200566,121.6843197903016,春园里,27,12234,无物业管理服务,-,辽宁,2,二手房,1990
金州新区八一路金都嘉园1号楼1号公建,大连,大连友谊合升房地产开发有限公司,金州,20190603,39.05525210261778,121.74865634199398,龙祥嘉园,72,7961,大连天河物业管理有限公司,0.5,辽宁,2,二手房,1999
高新园敬贤街23-11号,大连,暂无信息,高新园区,20190603,38.869456648212356,121.53023725049893,中海紫御观邸四期,7,20209,大连中海物业管理有限公司,2.6,辽宁,2,二手房,2013
甘井子区金北街17号,大连,暂无信息,甘井子,20190603,38.95800216293212,121.53151895549547,山宝花园,20,20862,无物业管理服务,-,辽宁,2,二手房,1970
无门店信息,大连,大连润泰房地产开发有限公司,中山,20190603,34.52713835999158,118.76812980670795,明秀庄园二期,17,41983,大连澳邦致和物业服务有限公司,3.2,辽宁,2,二手房,2015
西岗区新田巷27号1-2,大连,大连海苑房屋开发有限公司,西岗,20190603,38.893215932589385,121.64103065169111,半岛故乡,5,16222,大连半岛物业管理有限公司,0.8,辽宁,2,二手房,2002
大连市高新园区桃峪园4-2号第31幢-2层8号,大连,大连软件园安博开发有限公司,高新园区,20190603,38.9189536667856,121.62163148459285,亿达普罗旺斯,76,22001,亿达物业管理有限公司,2.6,辽宁,2,二手房,2014
金州区凤翔路220号,大连,大连鸿玮置业有限公司,金州,20190603,39.08410553937731,121.77700083356399,鸿玮澜山二期,51,13901,大连鸿玮物业服务有限公司,1.8,辽宁,2,二手房,2015
中山区杏林街66—5号,大连,无开发商,中山,20190603,38.92572771377599,121.66490555592502,39中丰阳巷,5,28975,街道办事处（居委会）代管物业,0.5,辽宁,2,二手房,1995
中山区山屏街116号1-1,大连,无开发商,中山,20190603,38.90729438486833,121.68598159980013,怡和街,33,12142,街道办事处（居委会）代管物业,0.5,辽宁,2,二手房,1990
甘井子区泉水B5区27-9,大连,大连华智房地产开发有限公司,甘井子,20190603,39.01477152073682,121.60970286326823,华远新都汇广场,33,12245,街道办事处（居委会）代管物业,1,辽宁,2,二手房,2010
甘井子区玉丽街39号楼3号公建,大连,暂无信息,甘井子,20190603,38.98706755029984,121.55605471197089,泡崖康祥园,25,11381,大连新兴物业管理有限公司,0.5,辽宁,2,二手房,2005
甘井子区华北路花锦园28号23-3-1-2建筑物,大连,大连谷和房屋开发有限公司,甘井子,20190603,38.951627958411166,121.5739439799003,大连门小区,25,16224,大连谷和物业管理有限公司,0.4,辽宁,2,二手房,2000
甘井子区华东路33-5号,大连,暂无信息,甘井子,20190603,38.97497080220593,121.59479866243332,松江路（80中）,30,13197,大连新华物业管理有限公司,-,辽宁,2,二手房,1993
高新园敬贤街23-11号,大连,中海东丰地产（大连）有限公司,高新园区,20190603,38.869456648212356,121.53023725049893,中海紫御观邸三期,32,20611,大连中海物业管理有限公司,2.6,辽宁,2,二手房,2014
甘井子区玉丽街39号楼3号公建,大连,大连新型房地产开发有限公司,甘井子,20190603,38.98706755029984,121.55605471197089,玉丽街,75,9582,大连新兴物业管理有限公司,0.5,辽宁,2,二手房,2002
中山区同心街72号1楼公建,大连,大连振屹房屋开发有限公司,中山,20190603,38.91979245940674,121.64769198230202,城市广场,32,15376,大连振屹物业有限公司,3.5,辽宁,2,二手房,2006
中山区鲁迅路204号百盛新药特药商店一楼西侧部分,大连,暂无信息,中山,20190603,38.9258993614899,121.6768880001226,华山街,0,10100,无物业管理服务,-,辽宁,1,二手房,-
沙河口区星海广场B3区14-2号1层,大连,大连友谊合升房地产开发有限公司,沙河口,20190603,38.88693148294673,121.58735631267305,壹品星海公寓,32,18164,大连富丽华物业管理有限公司,2,辽宁,2,二手房,2003
西岗区八一路102号,大连,大连澳南房屋开发有限公司,中山,20190603,38.92047268927287,121.61862512554262,明秀山庄A区,56,34227,绿城物业服务集团有限公司大连分公司,1.9,辽宁,2,二手房,2008
金州新区先进街道五一路350-1号1-2层,大连,无开发商,金州,20190603,39.078667146419825,121.77094423323935,八里河小区,25,6899,街道办事处（居委会）代管物业,0.5,辽宁,2,二手房,2009
中山区共建巷61号,大连,无开发商,中山,20190603,38.91828093658718,121.66259221532148,39中明泽街,15,22698,无物业管理服务,-,辽宁,2,二手房,1993
开发区金源南里14栋-11号一层部分，14号-12号一层部分,大连,大连经济技术开发区金源实业有限公司,开发区,20190603,39.06148862675436,121.82503941311765,金源名府,26,10656,街道办事处（居委会）代管物业,1,辽宁,2,二手房,2009
中山区武昌街武昌公寓6号公建,大连,无开发商,中山,20190603,38.912280913445784,121.64921130527547,合力巷,4,10739,无物业管理服务,-,辽宁,2,二手房,1980
甘井子区泉水D6区51号,大连,大连时代房地产开发有限公司,甘井子,20190603,39.00897610161069,121.61789300655198,富士庄园,58,15888,大连佳泰物业管理有限公司,1.2,辽宁,2,二手房,2006
无门店信息,大连,大连腾达房地产开发有限公司,中山,20190603,34.52713835999158,118.76812980670795,紫竹轩,7,16027,大连市晟阳物业管理有限公司,1,辽宁,2,二手房,2003
中山区虎滩路176号4-1-2,大连,大连国泰房地产开发有限公司,中山,20190603,38.890884710033156,121.69257379232747,帝柏湾,17,21838,加拿大高力国际物业服务有限公司,2,辽宁,2,二手房,2007
莲花山路89-3号,大连,大连铁路房地产开发有限责任公司,西岗,20190603,38.902848261803356,121.6041720815823,新华小区(西岗),14,13363,大连铁路物业管理有限公司,0.3,辽宁,2,二手房,1998
沙河口区西南路40号楼,大连,大连金通房屋开发有限公司,沙河口,20190603,38.94143337232082,121.58616557598133,海韵花园,13,13735,大连金通物业管理有限公司,0.4,辽宁,2,二手房,2000
甘井子区锦城东园1号3单元1层2号,大连,大连鹏生房地产开发有限公司,甘井子,20190603,38.952805477462775,121.55656194973994,鹏辉新纪元,13,16422,大连鹏辉物业管理有限公司,0.5,辽宁,2,二手房,2006
开发区红星海-B区89-1号,大连,远洋地产有限公司,开发区,20190603,39.027851194371685,121.80327394132297,红星海五期鼎墅,31,25765,大连远洋基业物业管理有限公司,4.8,辽宁,2,二手房,2012
中山区华乐街93—1号,大连,大连鸿雁房地产开发公司,中山,20190603,38.921950924512124,121.68673151242629,海之恋花园,24,16680,大连鸿雁物业有限公司,0.8,辽宁,2,二手房,2001
沙河口区连山街10号2-1-2,大连,无开发商,沙河口,20190603,38.89637522563413,121.57143690983219,连山街,10,14205,街道办事处（居委会）代管物业,0.5,辽宁,2,二手房,1993
高新园区火炬路18号,大连,大连海创房地产开发有限公司,高新园区,20190603,38.937738080520404,117.39340752036043,芝麻街,58,14125,大连海创物业管理有限公司,2.4,辽宁,2,二手房,2010
高新园区火炬路18号,大连,大连千业房地产开发有限公司,高新园区,20190603,38.937738080520404,117.39340752036043,第8区,38,17645,大连大管家物业管理有限公司,1.9,辽宁,2,二手房,2012
红星海A区126-4,大连,暂无信息,开发区,20190603,39.027851194371685,121.80327394132297,红星海一期艺墅,52,16794,大连远洋基业物业管理有限公司,0.5,辽宁,2,二手房,2009
经济技术开发区城润万家4-5号公建,大连,诠盛置业（大连）有限公司,开发区,20190603,39.05716325096989,121.75946281983826,清都记忆,44,12303,金科物业服务集团有限公司,0.5,辽宁,2,二手房,2013
沙河口区西南路851号3单元1层3号,大连,暂无信息,沙河口,20190603,38.94344210837944,121.58246796944378,凌山四街,2,11781,暂无信息,-,辽宁,1,二手房,-
中山区华乐街71号公建,大连,无开发商,中山,20190603,38.923187679200566,121.6843197903016,港院街,1,9767,无物业管理服务,-,辽宁,1,二手房,1992
中山区爱华街13号,大连,无开发商,中山,20190603,38.92541607518685,121.6535728031028,长江路（中山友好商圈）,0,10681,无物业管理服务,-,辽宁,1,二手房,1990
无门店信息,大连,大连运达房地产集团有限公司,甘井子,20190603,34.52713835999158,118.76812980670795,运达诺维溪谷,1,12946,大连运达物业有限公司,2,辽宁,1,二手房,2015
中山区解放路471-22号,大连,无开发商,西岗,20190603,38.901309943567504,121.65419095766659,捷庆里,0,9012,街道办事处（居委会）代管物业,-,辽宁,1,二手房,1992
中山区南山路59号1层4号,大连,无开发商,中山,20190603,38.91992239075882,121.6479206962747,南山路（昆明街商圈）,0,18721,无物业管理服务,-,辽宁,1,二手房,1982
无门店信息,大连,暂无信息,西岗,20190603,34.52713835999158,118.76812980670795,群联巷（胜利桥北商圈）,0,10040,暂无信息,-,辽宁,1,二手房,1975
中山区解放路471-22号,大连,暂无信息,中山,20190603,38.901309943567504,121.65419095766659,青云街,0,11110,无物业管理服务,-,辽宁,1,二手房,1995
西岗区八一路196号1-3,大连,无开发商,西岗,20190603,38.92047268927287,121.61862512554262,靠山北巷（青云街商圈）,0,10125,无物业管理服务,-,辽宁,1,二手房,1993
中山区职工街96号1-3层公建,大连,暂无信息,中山,20190603,38.92565613737007,121.66193575790903,39中五五路,0,14418,无物业管理服务,-,辽宁,1,二手房,1995
沙河口区前程街15号1层E-C轴36-44轴公建,大连,无开发商,甘井子,20190603,38.91588050824643,121.60099647548584,顺河巷,0,12411,无物业管理服务,-,辽宁,1,二手房,1989
甘井子区华东路22号公建,大连,暂无信息,甘井子,20190603,38.97736184953593,121.5935814234334,经一街,0,11452,无物业管理服务,-,辽宁,1,二手房,1993
中山区爱华街13号,大连,暂无信息,中山,20190603,38.92541607518685,121.6535728031028,向前街（中山友好商圈）,0,12926,暂无信息,-,辽宁,1,二手房,-
大连市沙河口区西南路875号1层21号,大连,暂无信息,沙河口,20190603,38.94485969061231,121.58418648447764,凌云一街,0,9557,暂无信息,-,辽宁,1,二手房,-
沙河口区红旗东路18-22号2单元1楼3号,大连,无开发商,甘井子,20190603,38.913544290955585,121.59450670056631,兰兴巷,0,12616,大连辽南物业管理有限公司,0.2,辽宁,1,二手房,1992
甘井子区海口路77—5号,大连,暂无信息,甘井子,20190603,38.960286398428124,121.60305183172997,理想居,0,17854,大连伟恒物业服务有限公司,1.2,辽宁,1,二手房,2011
中山区岭前街53-5,大连,暂无信息,西岗,20190603,38.89487069426055,121.65795959631497,民主街（青云街商圈）,0,8189,无物业管理服务,-,辽宁,1,二手房,1991
沙河口区五四路207-1-9号,大连,无开发商,沙河口,20190603,38.913544290955585,121.59450670056631,动力花园,0,20650,无物业管理服务,-,辽宁,1,二手房,2004
沙河口区星海广场B3区20—3号,大连,无开发商,沙河口,20190603,38.88782715536473,121.5869168319735,星海二街,0,12531,街道办事处（居委会）代管物业,0.5,辽宁,1,二手房,-
甘井子区迎客路郭东街一品蓝天公建14号,大连,暂无信息,甘井子,20190603,38.958456949708726,121.556756277476,军休家园,0,11191,无物业管理服务,-,辽宁,1,二手房,1995
金州区南棉路310号,大连,暂无信息,金州,20190603,39.09939229372624,121.72414976100345,连胜小区,4,5948,无物业管理服务,0.5,辽宁,1,二手房,1995
无门店信息,大连,暂无信息,西岗,20190603,34.52713835999158,118.76812980670795,华良海景花园,8,22275,香港侨乐物业管理（中国）有限公司,1.5,辽宁,1,二手房,2004
无门店信息,大连,暂无信息,西岗,20190603,34.52713835999158,118.76812980670795,民航大连疗养院,1,15473,无物业管理服务,-,辽宁,1,二手房,1990
沙河口区西南路851号3单元1层3号,大连,大连振屹房屋开发有限公司,沙河口,20190603,38.94344210837944,121.58246796944378,柳馨家园,6,12268,街道办事处（居委会）代管物业,0.6,辽宁,1,二手房,2000
中山区中青街87号一单元107,大连,无开发商,中山,20190603,38.90213494248529,121.65806522267005,葵英街（青云街商圈）,2,10278,无物业管理服务,-,辽宁,1,二手房,1992
开发区杏花里13#楼-7号,大连,大连经济技术开发区城市建设开发有限公司,开发区,20190603,31.31075067906954,120.63127837058457,杏林山庄一期,10,9135,大连经济技术开发区杏林物业管理有限公司,0.8,辽宁,1,二手房,2005
甘井子区惠泽南园3-7号,大连,大连利丰房地产开发有限公司,甘井子,20190603,38.939326611323615,121.52337842113351,国安宜居,8,18798,大连易明物业服务有限公司,2,辽宁,1,二手房,2014
中山区益民街16号1层1号,大连,无开发商,中山,20190603,38.93092761298906,121.66470740073377,龙泉街（三八广场）,4,12795,无物业管理服务,-,辽宁,1,二手房,1994
中山区北斗街53号1层1号,大连,暂无信息,中山,20190603,38.92727355733075,121.67002970974048,温州城,0,8707,暂无信息,-,辽宁,1,二手房,-
中山区爱华街13号,大连,大连鸿霖房地产开发有限公司,中山,20190603,38.92541607518685,121.6535728031028,喜临门大厦,6,9563,大连凯立宏物业管理有限公司,3.2,辽宁,1,二手房,2007
沙河口区星海广场B3区14-9,大连,无开发商,沙河口,20190603,38.88708614275256,121.58732027085938,星海三街,3,12699,街道办事处（居委会）代管物业,0.5,辽宁,1,二手房,-
沙河口区连山街44-2号半地下一层（地上一层部分）,大连,无开发商,沙河口,20190603,38.892991456958086,121.57299542767161,星海嘉园,3,16428,街道办事处（居委会）代管物业,0.5,辽宁,1,二手房,2001
沙河口区西南路358号1—2号,大连,大连恒安房地产开发有限公司,沙河口,20190603,38.90839654326566,121.56908246905662,水芙山竹,9,21328,大连上达物业管理有限公司,0.6,辽宁,1,二手房,2005
甘井子区泉水H3区15号3单元1层2号,大连,大连新型房地产开发有限公司,甘井子,20190603,39.00158439075201,121.62616882572375,龙畔金泉一期,12,11136,大连新型物业管理有限公司,0.5,辽宁,1,二手房,2002
中山区鲁迅路184号1层B—A,大连,大连环海房地产开发有限公司,中山,20190603,38.92590875965419,121.67594393403164,北斗家园,0,15237,大连峰霖物业管理有限公司,0.9,辽宁,1,二手房,2000
中山区同心街72号1楼公建,大连,暂无信息,中山,20190603,38.91979245940674,121.64769198230202,恒元公寓,4,14616,暂无信息,0.8,辽宁,1,二手房,1999
沙河口区兰田街33号,大连,无开发商,沙河口,20190603,38.926138912221084,121.56486022834609,西苑新区,5,14334,街道办事处（居委会）代管物业,0.3,辽宁,1,二手房,2000
中山区鲁迅路204号百盛新药特药商店一楼西侧部分,大连,无开发商,中山,20190603,38.9258993614899,121.6768880001226,春德街,8,11068,无物业管理服务,-,辽宁,1,二手房,1995
沙河口区中山路417A-4号,大连,无开发商,沙河口,20190603,38.90740323140171,121.59484801084653,星海造船楼,14,12742,无物业管理服务,-,辽宁,1,二手房,1996
沙河口区五四路207-1-9号,大连,无开发商,沙河口,20190603,38.913544290955585,121.59450670056631,集贤北街,3,13425,无物业管理服务,0.5,辽宁,1,二手房,1995
甘井子区惠泽南园3-4号,大连,大连泓良房地产开发有限公司,甘井子,20190603,38.939326611323615,121.52337842113351,山水秀景,9,14689,大连三和住邦物业管理有限公司,1,辽宁,1,二手房,2007
金州区光明街道育才街42-6号1-2层,大连,大连庆久房地产开发有限公司,金州,20190603,39.109080894078986,121.7182584929096,怡心居,2,10872,大连怡心物业管理有限公司,0.9,辽宁,1,二手房,1999
西岗区平等街21号1层2号,大连,暂无信息,西岗,20190603,38.92251066253164,121.63236845125735,岐山街（大菜市商圈）,3,12217,无物业管理服务,-,辽宁,1,二手房,-
西岗区九三街64号,大连,暂无信息,西岗,20190603,38.92047268927287,121.61862512554262,珠江国际大厦,1,6535,街道办事处（居委会）代管物业,20,辽宁,1,二手房,2004
西岗区平等街21号1层2号,大连,无开发商,西岗,20190603,38.92251066253164,121.63236845125735,兴业街（大菜市商圈）,5,11547,无物业管理服务,0.5,辽宁,1,二手房,1996
中山区武昌街武昌公寓6号公建,大连,无开发商,中山,20190603,38.912280913445784,121.64921130527547,绿山巷,1,15353,无物业管理服务,-,辽宁,1,二手房,1986
西岗区绕山路31号公建一层东侧,大连,无开发商,西岗,20190603,38.90257514466717,121.61412736644739,槐花大厦,10,9859,无物业管理服务,-,辽宁,1,二手房,1997
大连市沙河口区黄河路729号,大连,暂无信息,沙河口,20190603,38.91710565765228,121.58954758972729,五一路 （太原街商圈）,2,13689,无物业管理服务,-,辽宁,1,二手房,-
中山区碧浪园4号-3号,大连,大连铁路房地产开发有限责任公司,中山,20190603,38.89147289460474,121.69329560326236,山水家园二期,2,19185,大连铁道物业管理有限责任公司,0.5,辽宁,1,二手房,2003
西岗区长春路334号,大连,无开发商,西岗,20190603,38.89807766522607,121.63221082858387,新金巷,0,9594,无物业管理服务,-,辽宁,1,二手房,1999
大连市沙河口区黄河路729号,大连,无开发商,沙河口,20190603,38.91710565765228,121.58954758972729,黄河路（西安路商圈）,2,9551,无物业管理服务,-,辽宁,1,二手房,1995
西岗区新田巷27号1-2,大连,无开发商,西岗,20190603,38.893215932589385,121.64103065169111,新联巷,3,11552,无物业管理服务,-,辽宁,1,二手房,1996
中山区南山路59号1层4号,大连,无开发商,中山,20190603,38.91992239075882,121.6479206962747,祝胜街（昆明街）,2,15889,无物业管理服务,-,辽宁,1,二手房,1988
西岗区八一路196号1-3,大连,暂无信息,西岗,20190603,38.92047268927287,121.61862512554262,晴明街,1,13007,暂无信息,-,辽宁,1,二手房,-
沙河口区鞍山路65号美都园7号1单元1层4号公建,大连,暂无信息,沙河口,20190603,38.92755211283745,121.60306664748275,鞍山路,3,9542,无物业管理服务,-,辽宁,1,二手房,1997
莲花山路89-3号,大连,无开发商,沙河口,20190603,38.902848261803356,121.6041720815823,美春巷,1,11521,无物业管理服务,-,辽宁,1,二手房,1995
沙河口区富国街14号1-1-2,大连,无开发商,沙河口,20190603,38.901027106600836,121.59047734850638,星光街,4,12925,街道办事处（居委会）代管物业,0.5,辽宁,1,二手房,-
中山区共建巷61号,大连,大连东帝房地产开发有限公司,中山,20190603,38.91828093658718,121.66259221532148,南山2009,1,30102,无物业管理服务,-,辽宁,1,二手房,2010
中山区爱华街13号,大连,无开发商,中山,20190603,38.92541607518685,121.6535728031028,邮电公寓,3,10507,无物业管理服务,-,辽宁,1,二手房,1999
开发区松苑街23号,大连,大连众益神州地产开发有限公司,开发区,20190603,22.52087435807652,113.40156105086167,松海庄园一期,2,12747,大连万佳物业管理有限公司,0.5,辽宁,1,二手房,2000
中山区爱华街13号,大连,暂无信息,中山,20190603,38.92541607518685,121.6535728031028,开明巷,1,12260,暂无信息,-,辽宁,1,二手房,-
西岗区平等街21号1层2号,大连,远洋地产有限公司,西岗,20190603,38.92251066253164,121.63236845125735,丽都花园,9,18148,无物业管理服务,1.5,辽宁,1,二手房,1997
"西岗区泰公街20号2层7号 西岗区久寿街22号1层14号""",大连,无开发商,西岗,20190603,38.92600196862723,121.62141976476381,银华双厦,6,11197,无物业管理服务,-,辽宁,1,二手房,1999
开发区松苑街23号,大连,大连众益神州地产开发有限公司,开发区,20190603,22.52087435807652,113.40156105086167,松海庄园二期,9,12058,大连万达物业管理有限公司,0.5,辽宁,1,二手房,2000
无门店信息,大连,暂无信息,开发区,20190603,34.52713835999158,118.76812980670795,山河嘉园,30,6584,无物业管理服务,-,辽宁,1,二手房,2000
中山区虎滩路176号4-1-2,大连,暂无信息,中山,20190603,38.890884710033156,121.69257379232747,渔人码头,2,22325,街道办事处（居委会）代管物业,-,辽宁,1,二手房,2008
中山区解放路471-22号,大连,无开发商,中山,20190603,38.901309943567504,121.65419095766659,望海巷,3,10581,街道办事处（居委会）代管物业,-,辽宁,1,二手房,1985
沙河口区昌黎街77号楼第1层公建,大连,暂无信息,沙河口,20190603,38.91974518366595,121.5902918379551,尚品天城,8,20495,大连永嘉物业管理公司,1.2,辽宁,1,二手房,1999
中山区金城街26号一楼,大连,暂无信息,中山,20190603,38.922282529515634,121.65214466263014,39中哈尔滨街,4,23835,无物业管理服务,-,辽宁,1,二手房,1990
中山区南山路59号1层4号,大连,暂无信息,中山,20190603,38.91992239075882,121.6479206962747,仁义街（昆明街）,2,15889,暂无信息,-,辽宁,1,二手房,1988
大连经济技术开发区同和里7栋-9号,大连,大连鑫地房地产开发有限公司,开发区,20190603,39.04901984220615,121.7885236929847,亿锋8号半山墅,9,23117,大连豪景酒店物业管理有限公司,5,辽宁,1,二手房,2010
大连市金州新区友谊街道和平路59-10号1-2层公建,大连,无开发商,金州,20190603,39.112168401852266,121.72006917947859,新金州大厦,1,6971,街道办事处（居委会）代管物业,0.5,辽宁,1,二手房,2006
中山区益民街16号1层1号,大连,无开发商,中山,20190603,38.93092761298906,121.66470740073377,丹东街（三八广场）,10,14597,无物业管理服务,-,辽宁,1,二手房,1998
中山区同心街72号1楼公建,大连,无开发商,中山,20190603,38.91979245940674,121.64769198230202,自卫街（昆明街）,4,15248,无物业管理服务,-,辽宁,1,二手房,1991
金州区站前街道盛滨花园B区13号楼2号公建,大连,大连阿尔滨集团房地产开发有限公司,金州,20190603,39.09609011892329,121.7335816409767,盛滨花园C区,20,7613,大连阿尔滨集团物业管理有限公司,0.4,辽宁,1,二手房,1999
大连市沙河口区黄河路729号,大连,无开发商,沙河口,20190603,38.91710565765228,121.58954758972729,好利高层,5,12048,无物业管理服务,-,辽宁,1,二手房,1995
甘井子区汇仁街19号12号楼1单元102室,大连,大连华南地产开发有限公司,甘井子,20190603,38.99746297497168,121.58917714380617,华南国际公寓,4,10638,大连顺达物业服务有限公司,1.7,辽宁,1,二手房,2005
中山区中南路226号,大连,大连恒祥房屋开发有限公司,中山,20190603,38.90029610333926,121.68178899957817,亿泰公寓,0,8496,大连远洋基业物业管理有限公司,1,辽宁,1,二手房,2005
甘井子区千山路66号楼2单元1楼2号,大连,暂无信息,甘井子,20190603,38.985716774397915,121.58287796391829,蓝天小区,6,12203,大连新华物业管理有限公司,-,辽宁,1,二手房,1993
西岗区长春路334号,大连,无开发商,西岗,20190603,38.89807766522607,121.63221082858387,连桥巷,5,11232,无物业管理服务,-,辽宁,1,二手房,1990
西岗区康平街2号（5号楼3-1-3号）,大连,暂无信息,西岗,20190603,38.91044414697888,121.61980769264477,胜利路（莲花白云商圈）,0,10844,无物业管理服务,-,辽宁,1,二手房,1999
西岗区绕山路31号公建一层东侧,大连,暂无信息,西岗,20190603,38.90257514466717,121.61412736644739,商都花园,7,12842,大连天河物业管理有限公司,0.3,辽宁,1,二手房,1993
金州区先进街道渤海街1-4号1-2层,大连,暂无信息,金州,20190603,39.09512910553563,121.74578812616167,书香苑小区,2,8785,暂无信息,0.5,辽宁,1,二手房,2006
沙河口区兰田街33号,大连,大连大力房地产开发有限公司,沙河口,20190603,38.926138912221084,121.56486022834609,电业逸彩园,6,17028,大连亿安物业管理有限公司,0.5,辽宁,1,二手房,2002
中山区职工街96号1-3层公建,大连,无开发商,中山,20190603,38.92565613737007,121.66193575790903,39中三八广场,3,19426,无物业管理服务,-,辽宁,1,二手房,1992
中山区解放路604号,大连,无开发商,中山,20190603,38.89026319122045,121.66407876092346,广智巷,1,14506,无物业管理服务,-,辽宁,1,二手房,1996
西岗区长春路334号,大连,无开发商,西岗,20190603,38.89807766522607,121.63221082858387,鹏程家园,6,15570,街道办事处（居委会）代管物业,0.5,辽宁,1,二手房,2002
大连经济技术开发区同和里7栋-9号,大连,大连众益神州地产开发有限公司,开发区,20190603,39.04901984220615,121.7885236929847,众益家园,3,11931,大连经济技术开发区白石物业管理有限公司,0.5,辽宁,1,二手房,2005
开发区松苑街23号,大连,大连神洲众益集团有限公司,开发区,20190603,22.52087435807652,113.40156105086167,松海里小区,3,11530,无物业管理服务,0.5,辽宁,1,二手房,2000
甘井子区华龙南园34-5号34-库4号34-5号,大连,大连台安房屋开发有限公司,甘井子,20190603,38.98270467597865,121.6117222765123,台安274,8,11264,街道办事处（居委会）代管物业,0.5,辽宁,1,二手房,2009
中山区解放路471-22号,大连,无开发商,中山,20190603,38.901309943567504,121.65419095766659,保卫巷,2,17386,无物业管理服务,-,辽宁,1,二手房,1998
莲花山路89-3号,大连,大连兴达房地产有限公司,西岗,20190603,38.902848261803356,121.6041720815823,香都花园,1,15651,大连香都物业管理有限公司,0.8,辽宁,1,二手房,1993
中山区金城街26号一楼,大连,暂无信息,中山,20190603,38.922282529515634,121.65214466263014,双合巷（中山友好商圈）,1,14678,暂无信息,-,辽宁,1,二手房,1987
沙河口区昌黎街77号楼第1层公建,大连,大连机车商业城有限公司,沙河口,20190603,38.91974518366595,121.5902918379551,福佳新天地地下商铺,0,25096,暂无信息,5,辽宁,1,二手房,2000
沙河口区联合路133号,大连,亿达集团大连房地产开发有限公司,沙河口,20190603,38.91608561262676,121.60480987310456,21中亿达广场,1,21451,亿达物业管理有限公司,1.2,辽宁,1,二手房,1999
无门店信息,大连,大连中连房地产开发有限公司,金州,20190603,34.52713835999158,118.76812980670795,上河雲珠,1,8988,大连中鸣物业服务有限公司,0.5,辽宁,1,二手房,2009
西岗区长春路334号,大连,无开发商,西岗,20190603,38.89807766522607,121.63221082858387,西峰巷,3,10193,无物业管理服务,-,辽宁,1,二手房,1990
无门店信息,大连,大连开发区世元房地产开发有限公司,开发区,20190603,34.52713835999158,118.76812980670795,世元海都花园,1,13153,龙祥物业管理有限公司,0.8,辽宁,1,二手房,1990
开发区安盛里5栋-4,大连,无开发商,开发区,20190603,23.112106678834838,113.27801046214822,醒港春园,2,7140,街道办事处（居委会）代管物业,0.5,辽宁,1,二手房,1998
无门店信息,大连,无开发商,金州,20190603,34.52713835999158,118.76812980670795,龙湾路小区,15,5640,街道办事处（居委会）代管物业,0.1,辽宁,1,二手房,2009
沙河口区成仁街91号,大连,无开发商,沙河口,20190603,38.91539947107844,121.59585638842556,科技广场,23,10641,街道办事处（居委会）代管物业,0.8,辽宁,1,二手房,2001
中山区益民街16号1层1号,大连,无开发商,中山,20190603,38.93092761298906,121.66470740073377,兴和街（三八广场）,3,13356,无物业管理服务,-,辽宁,1,二手房,1993
中山区共建巷61号,大连,无开发商,中山,20190603,38.91828093658718,121.66259221532148,39中永青街,9,25197,街道办事处（居委会）代管物业,0.5,辽宁,1,二手房,1995
中山区爱华街13号,大连,无开发商,中山,20190603,38.92541607518685,121.6535728031028,宏爱巷,6,12392,无物业管理服务,-,辽宁,1,二手房,1998
金州区小平岛B组团4号楼3号商铺,大连,大连安达房地产开发有限公司,高新园区,20190603,39.05643299166072,121.78943558267059,小平岛E西组团,6,23639,大连凯尔富物业管理有限公司,1.3,辽宁,1,二手房,2007
沙河口区黄浦路18号—5号公建,大连,大连高新技术产业园区建设开发总公司,高新园区,20190603,38.8771225143479,121.54427480390662,学府1+1,6,19448,街道办事处（居委会）代管物业,0.5,辽宁,1,二手房,2007
沙河口区成仁街91号,大连,无开发商,沙河口,20190603,38.91539947107844,121.59585638842556,同泰花园,3,23701,大连斌弘物业管理有限公司,0.5,辽宁,1,二手房,2003
中山区岭前街53-5,大连,无开发商,西岗,20190603,38.89487069426055,121.65795959631497,环山巷（八一路商圈）,8,9814,无物业管理服务,-,辽宁,1,二手房,1990
沙河口区西南路643号,大连,无开发商,沙河口,20190603,38.943483429804665,121.5833555851182,西厢街,7,9062,无物业管理服务,-,辽宁,1,二手房,1995
沙河口区西南路358号1—2号,大连,大连三寰房地产开发有限公司,沙河口,20190603,38.90839654326566,121.56908246905662,市场公寓,11,13618,大连上达物业管理有限公司,0.4,辽宁,1,二手房,1999
沙河口区昌黎街77号楼第1层公建,大连,清远君行房地产有限公司,沙河口,20190603,38.91974518366595,121.5902918379551,君安国际,1,8723,街道办事处（居委会）代管物业,11,辽宁,1,二手房,2010
大连经济技术开发区同和里7栋-9号,大连,无开发商,开发区,20190603,39.04901984220615,121.7885236929847,绿色家园小区,6,11148,大连经济技术开发区白石物业管理有限公司,0.5,辽宁,1,二手房,2002
西岗区绕山路31号公建一层东侧,大连,暂无信息,沙河口,20190603,38.90257514466717,121.61412736644739,山庄南二巷,3,11309,暂无信息,-,辽宁,1,二手房,1990
中山区鲁迅路184号1层B—A,大连,无开发商,中山,20190603,38.92590875965419,121.67594393403164,荣民街（二七商圈）,8,12251,无物业管理服务,-,辽宁,1,二手房,1999
无门店信息,大连,无开发商,中山,20190603,34.52713835999158,118.76812980670795,竹青街,2,10296,无物业管理服务,-,辽宁,1,二手房,1999
大连市高新园区七贤中路63号,大连,大连鑫亿房屋开发有限公司,高新园区,20190603,38.86053006357667,121.53273606963094,瑞丰园,16,14317,无物业管理服务,0.8,辽宁,1,二手房,1999
沙河口区黄河路883号,大连,大连亿达房地产股份有限公司,沙河口,20190603,38.919826721475204,121.57749657966676,亿达学苑,7,19897,亿达物业管理有限公司,0.7,辽宁,1,二手房,2003
中山区华乐街71号公建,大连,大连新型房地产开发有限公司,中山,20190603,38.923187679200566,121.6843197903016,春海街,7,11160,无物业管理服务,-,辽宁,1,二手房,1992
沙河口区五四路207-1-9号,大连,无开发商,沙河口,20190603,38.913544290955585,121.59450670056631,新生巷,0,12268,街道办事处（居委会）代管物业,0.5,辽宁,1,二手房,-
西岗区康平街2号（5号楼3-1-3号）,大连,无开发商,西岗,20190603,38.91044414697888,121.61980769264477,康平街,2,11952,无物业管理服务,-,辽宁,1,二手房,1995
西岗区鞍山路29号龙畔锦城东门,大连,无开发商,西岗,20190603,38.92763470697088,121.61498923399098,兴业广场,16,16337,街道办事处（居委会）代管物业,0.8,辽宁,1,二手房,2004
中山区金城街26号一楼,大连,无开发商,中山,20190603,38.922282529515634,121.65214466263014,友好路,6,14806,无物业管理服务,-,辽宁,1,二手房,1990
无门店信息,大连,大连铁路房地产开发有限责任公司,西岗,20190603,34.52713835999158,118.76812980670795,沈铁铭悦（大菜市商圈）,13,17567,大连铁路物业管理有限公司,1.5,辽宁,1,二手房,2014
金州新区八一路金都嘉园1号楼1号公建,大连,大连兴悦房地产有限公司,金州,20190603,39.05525210261778,121.74865634199398,悦泰祥里,6,7375,大连百安物业管理有限公司,0.8,辽宁,1,二手房,2010
无门店信息,大连,大连红旗谷置业有限公司,甘井子,20190603,34.52713835999158,118.76812980670795,碧桂园红旗谷,21,20719,广东碧桂园物业服务有限公司大连分公司,5.8,辽宁,1,二手房,2011
沙河口区长江路738号,大连,暂无信息,西岗,20190603,38.913544290955585,121.59450670056631,21中鞍山路,11,21742,无物业管理服务,-,辽宁,1,二手房,1990
沙河口区五四路207-1-9号,大连,无开发商,沙河口,20190603,38.913544290955585,121.59450670056631,集贤南一街,1,12909,无物业管理服务,-,辽宁,1,二手房,1992
中山区解放路471-22号,大连,无开发商,中山,20190603,38.901309943567504,121.65419095766659,广兴巷,5,12084,街道办事处（居委会）代管物业,-,辽宁,1,二手房,1990
中山区武昌街武昌公寓6号公建,大连,大连大重房屋开发有限公司,中山,20190603,38.912280913445784,121.64921130527547,武昌北巷,4,15105,无物业管理服务,-,辽宁,1,二手房,1996
中山区民运巷 47号1层2号,大连,大连连城房地产开发有限公司,中山,20190603,38.905955122300846,121.64798148011702,葵英林苑,6,15885,无物业管理服务,-,辽宁,1,二手房,2005
中山区同心街72号1楼公建,大连,无开发商,中山,20190603,38.91979245940674,121.64769198230202,万家巷（昆明街）,8,16453,无物业管理服务,-,辽宁,1,二手房,1991
西岗区新田巷27号1-2,大连,无开发商,西岗,20190603,38.893215932589385,121.64103065169111,新环巷,4,10545,无物业管理服务,-,辽宁,1,二手房,1990
开发区黄海西路201号107公建,大连,暂无信息,开发区,20190603,39.04942604506828,121.80126318235419,樱花别墅,11,8712,无物业管理服务,0.1,辽宁,1,二手房,2006
沙河口区连山街10号2-1-2,大连,大连国合嘉汇房地产开发有限公司,沙河口,20190603,38.89637522563413,121.57143690983219,嘉汇星海,5,18571,大连国合物业管理有限公司,0.5,辽宁,1,二手房,2004
西岗区新田巷11号三单元103,大连,大连龙润房屋开发有限公司,西岗,20190603,38.89276612016956,121.64190731791966,叠彩桃源,4,17599,大连龙润物业管理有限公司,0.8,辽宁,1,二手房,2003
甘井子区虹港路16号楼1层公建,大连,暂无信息,甘井子,20190603,38.9645939333502,121.553851837474,星空公寓,20,11931,大连天兴物业管理有限公司,1.8,辽宁,1,二手房,2012
无门店信息,大连,中体产业集团大连乐百年置业有限公司,甘井子,20190603,34.52713835999158,118.76812980670795,中体九号院别墅,5,24974,广东中奥物业有限公司大连分公司,4.5,辽宁,1,二手房,2014
中山区南山路59号1层4号,大连,大连恒一嘉元置业有限公司,中山,20190603,38.91992239075882,121.6479206962747,南山首府,5,32971,大连恒信物业服务有限公司,4,辽宁,1,二手房,2015
西岗区胜利路33号,大连,暂无信息,西岗,20190603,38.91309771954841,121.62500886627636,34中新开路,2,32612,无物业管理服务,-,辽宁,1,二手房,1995
西岗区康平街2号（5号楼3-1-3号）,大连,暂无信息,西岗,20190603,38.91044414697888,121.61980769264477,34中长春路,7,27493,无物业管理服务,-,辽宁,1,二手房,1995
中山区共建巷61号,大连,大连恒盛房屋开发有限公司,中山,20190603,38.91828093658718,121.66259221532148,月恒花园,8,27422,大连佳捷物业管理有限公司,0.8,辽宁,1,二手房,2001
沙河口区星海广场B3区14-9,大连,半岛集团,沙河口,20190603,38.88708614275256,121.58732027085938,半岛听涛,16,22747,大连半岛物业管理有限公司,2.6,辽宁,1,二手房,2007
开发区东北三街94号1层,大连,大连新天润企业集团有限公司,开发区,20190603,39.05723508011585,121.80570768630555,天都花园,16,8426,大连银海物业管理有限公司,0.5,辽宁,1,二手房,2002
甘井子区惠泽南园3-7号,大连,大连盛达基业房地产开发有限公司,甘井子,20190603,38.939326611323615,121.52337842113351,西山湖语,11,16784,大连旺宇物业有限公司,1.8,辽宁,1,二手房,2014
西岗区大同街125号,大连,大连名仕房地产开发有限公司,西岗,20190603,38.920458602340894,121.61445835429899,中央复兴里,9,24124,大连名仕物业管理有限公司,2.1,辽宁,1,二手房,2010
西岗区胜利路33号,大连,无开发商,西岗,20190603,38.91309771954841,121.62500886627636,华城御园,13,28809,大连白云物业管理有限公司,1,辽宁,1,二手房,1997
中山区爱华街13号,大连,无开发商,中山,20190603,38.92541607518685,121.6535728031028,上海路（中山友好）,5,11337,无物业管理服务,-,辽宁,1,二手房,1995
西岗区康平街2号（5号楼3-1-3号）,大连,大连圣元房地产开发有限公司,西岗,20190603,38.91044414697888,121.61980769264477,亿达天琴山,27,23331,亿达物业管理有限公司,2.5,辽宁,1,二手房,2013
甘井子区华北路花锦园28号23-3-1-2建筑物,大连,无开发商,甘井子,20190603,38.951627958411166,121.5739439799003,大连门广场,10,16378,街道办事处（居委会）代管物业,0.1,辽宁,1,二手房,2003
沙河口区五一路109-4号,大连,大连正源房地产开发有限公司,沙河口,20190603,38.913544290955585,121.59450670056631,幸福e家一期,24,31751,大连正源物业服务有限公司,0.8,辽宁,1,二手房,2002
沙河口区星海广场B3区14-9,大连,大连友谊合升房地产开发有限公司,沙河口,20190603,38.88708614275256,121.58732027085938,壹品星海二期,19,22908,大连友谊物业服务有限公司,1.9,辽宁,1,二手房,2007
甘井子区红凌路109号,大连,无开发商,甘井子,20190603,38.923388478439314,121.54860212120927,红凌小区,4,9526,无物业管理服务,-,辽宁,1,二手房,1997
沙河口区华新苑10号楼4号公建,大连,大连新型房地产开发有限公司,沙河口,20190603,38.94033750532864,121.58990295130229,华新苑,8,13167,大连新型物业管理有限公司,0.5,辽宁,1,二手房,2003
沙河口区长江路738号,大连,大连民兴房地产开发有限公司,沙河口,20190603,38.913544290955585,121.59450670056631,79中民兴花园一期,7,27951,大连衡德物业管理有限公司,1.2,辽宁,1,二手房,2002
中山区杏林街66—5号,大连,大连万达房地产开发有限公司,中山,20190603,38.92572771377599,121.66490555592502,明泽苑,13,29153,大连万达物业管理有限公司,1.8,辽宁,1,二手房,1998
无门店信息,大连,无开发商,金州,20190603,34.52713835999158,118.76812980670795,金渤海憬,22,7093,无物业管理服务,-,辽宁,1,二手房,2009
甘井子区华北路花锦园28号23-3-1-2建筑物,大连,无开发商,甘井子,20190603,38.951627958411166,121.5739439799003,华北路（周水子商圈）,10,15254,无物业管理服务,-,辽宁,1,二手房,1995
中山区三八广场5号,大连,大连新型房地产开发总公司,中山,20190603,38.92540000551715,121.6642911149562,二七公寓,9,19195,大连新型物业管理有限公司,0.8,辽宁,1,二手房,1999
金州区鹏程家园53#-8,大连,大连欣怡花园开发管理有限公司,开发区,20190603,39.03523987258615,121.80826248065051,欣怡花园,12,9902,龙华物业管理有限公司,1.2,辽宁,1,二手房,2007
中山区山屏街116号1-1,大连,大连恒悦房地产开发有限公司,中山,20190603,38.90729438486833,121.68598159980013,悦泰德里,6,22727,大连百安物业管理有限公司,1.9,辽宁,1,二手房,2008
沙河口区兰田街33号,大连,无开发商,沙河口,20190603,38.926138912221084,121.56486022834609,马栏广场,15,11599,无物业管理服务,0.4,辽宁,1,二手房,2000
开发区金马路169-2-6号房屋,大连,暂无信息,开发区,20190603,39.057398235688176,121.78261137849105,华堂大厦,7,9989,街道办事处（居委会）代管物业,1.5,辽宁,1,二手房,2006
甘井子区华东路33-5号,大连,暂无信息,甘井子,20190603,38.97497080220593,121.59479866243332,小野田,9,12353,大连新华物业管理有限公司,-,辽宁,1,二手房,1993
中山区岭前街53-5,大连,无开发商,西岗,20190603,38.89487069426055,121.65795959631497,卧龙双厦,9,14007,街道办事处（居委会）代管物业,0.4,辽宁,1,二手房,1997
中山区武昌街武昌公寓6号公建,大连,无开发商,中山,20190603,38.912280913445784,121.64921130527547,同福新居,5,13416,无物业管理服务,-,辽宁,1,二手房,2003
中山区民建街10号1单元1号,大连,无开发商,中山,20190603,38.925444479476894,121.66915026954452,建华巷（三八广场）,10,14392,无物业管理服务,-,辽宁,1,二手房,1994
金州新区先进街道渤海街7-4号1-2层、7-3号1-2层,大连,无开发商,金州,20190603,39.09342713035472,121.74590886291374,金莲怡园,10,7618,街道办事处（居委会）代管物业,-,辽宁,1,二手房,2000
金州区南棉路310号,大连,大连阿尔滨集团房地产开发有限公司,金州,20190603,39.09939229372624,121.72414976100345,荣盛小区,9,8511,街道办事处（居委会）代管物业,1,辽宁,1,二手房,2009
西岗区八一路196号1-3,大连,无开发商,西岗,20190603,38.92047268927287,121.61862512554262,三环街（八一路商圈）,2,11489,无物业管理服务,-,辽宁,1,二手房,1990
甘井子区金家街17-7号,大连,大连衡锐房屋开发有限公司,甘井子,20190603,38.97493697764367,121.60110987128529,温莎小镇,9,20971,大连长波物业管理有限公司,1.5,辽宁,1,二手房,2013
中山区南山路59号1层4号,大连,无开发商,中山,20190603,38.91992239075882,121.6479206962747,昆明街（独立街）,15,19845,无物业管理服务,-,辽宁,1,二手房,1988
