address,city,developer,district,index_date,lat,lng,name,osv,price,property,property_fee,province,tv,type,year
沙河口区华新苑10号楼4号公建,大连,大连新型房地产开发有限公司,沙河口,20190702,38.94033750532864,121.58990295130229,侯一小区,154,11324,大连新兴物业管理有限公司,0.3,辽宁,30,二手房,1989
大连经济技术开发区东城天下98-14,大连,大连乾豪集团有限公司,开发区,20190702,39.069195091289004,121.8502099927954,东城天下,368,8752,大连远洋基业物业管理有限公司,0.9,辽宁,46,二手房,2005
甘井子区宜居园10-1号房屋,大连,大连万科房地产开发有限公司,甘井子,20190702,38.99913094587405,121.52084969112292,万科魅力之城,189,14645,大连万科物业服务有限公司,1.5,辽宁,40,二手房,2009
开发区湾里南12栋-16-17-18号,大连,大连金湾实业有限公司,开发区,20190702,39.070782084451,121.8506739675913,湾里南小区,382,8744,大连金湾物业管理有限公司,0.3,辽宁,36,二手房,2003
大连经济技术开发区时代城4-3号1-2号,大连,远洋地产有限公司,开发区,20190702,39.0992481321252,121.83007860699459,远洋时代城一期,175,9325,大连远洋基业物业管理有限公司,1.5,辽宁,28,二手房,2011
大连开发区金马路169-2-8号,大连,大连亿锋房地产实业有限公司,开发区,20190702,39.057398235688176,121.78261137849105,亿锋现代城,159,10136,亿锋豪景物业管理有限公司,1.1,辽宁,28,二手房,2005
甘井子区榆林街37号-12公建,大连,新型房地产开发有限公司,甘井子,20190702,38.980133141940186,121.52779506952932,泡崖美林园,249,11604,新兴物业,0.6,辽宁,64,二手房,2002
沙河口区沙能街101号1单元1层1号,大连,大连新型房地产开发有限公司,沙河口,20190702,38.9366316275348,121.59031205759763,侯二小区,177,11129,街道办事处（居委会）代管物业,0.1,辽宁,39,二手房,1985
甘井子区宜居园10-1号房屋,大连,大连万科房地产开发有限公司,甘井子,20190702,38.99913094587405,121.52084969112292,万科朗润园,100,15030,大连万科物业服务有限公司,1.5,辽宁,25,二手房,2009
大连市甘井子区柳林园8-7号,大连,大连万科置业有限公司,甘井子,20190702,38.91290525308349,121.47673750074993,万科溪之谷,205,14571,大连万科物业服务有限公司,0.6,辽宁,26,二手房,2007
开发区正恒园1-16,大连,大连华宇房地产开发有限公司,开发区,20190702,39.04823944344617,121.76165468797754,左岸经典,260,9016,大连豪之英物业管理有限公司,1.8,辽宁,26,二手房,2008
甘井子区玉湖街25号2单元1层3号,大连,大连新型房地产开发有限公司,甘井子,20190702,38.97626265183615,121.54617349027997,泡崖四区,184,10648,大连新型物业管理有限公司,0.5,辽宁,26,二手房,2002
甘井子区泉水D1区37-7号,大连,大连运腾房地产开发有限公司,甘井子,20190702,39.013992871679214,121.61921940045104,锦泉源D2区,216,13209,大连嘉毅物业管理有限公司,0.5,辽宁,27,二手房,2002
开发区湾里南12栋-16-17-18号,大连,大连金湾实业有限公司,开发区,20190702,39.070782084451,121.8506739675913,湾里东,206,8156,大连金湾物业管理有限公司,0.5,辽宁,28,二手房,2002
沙河口区昌黎街22号,大连,大连城市建设集团有限公司,沙河口,20190702,38.91975785098891,121.59109628369768,北昌平小区,137,12872,无物业管理服务,-,辽宁,27,二手房,1983
开发区兴城路29-81层,大连,大连亿锋房地产实业有限公司,开发区,20190702,39.050214252167194,121.75835946441768,亿锋广场一期,83,14632,大连广恒物业管理有限公司,2.5,辽宁,21,二手房,2013
甘井子区华北路花锦园28号23-3-1-2建筑物,大连,大连东特房地产开发有限公司,甘井子,20190702,38.951627958411166,121.5739439799003,东特新天地,54,16530,大连瑞祥物业管理有限公司,0.5,辽宁,19,二手房,2003
金州新区先进街道渤海街7-4号1-2层、7-3号1-2层,大连,原金州纺织厂房地产公司,金州,20190702,39.09342713035472,121.74590886291374,金纺小区,189,6895,街道办事处（居委会）代管物业,0.5,辽宁,20,二手房,1985
甘井子区祥龙街2号楼1单元1楼1号,大连,大连恒新房地产开发有限公司,甘井子,20190702,38.988045874482445,121.60439401971377,华东人家,42,14405,大连福佳物业管理有限公司,1,辽宁,20,二手房,2007
沙河口区五一路177-1-1-1,大连,无开发商,沙河口,20190702,38.913544290955585,121.59450670056631,台山,96,11776,街道办事处（居委会）代管物业,0.5,辽宁,20,二手房,1987
甘井子区红旗花园23号楼19-24轴公建,大连,大连红旗兴达房地产开发有限公司,甘井子,20190702,38.93108029984587,121.54902145022133,兴达花园,85,12802,大连万泰物业管理有限公司,0.3,辽宁,20,二手房,2000
沙河口区马栏北街186号,大连,大连渤海红旗集团有限公司,甘井子,20190702,38.913544290955585,121.59450670056631,马栏北街,43,11381,大连辽南物业管理有限公司,0.2,辽宁,20,二手房,1988
金州区鹏程家园53#-8,大连,大连光伸房地产开发有限公司,开发区,20190702,39.03523987258615,121.80826248065051,绿洲半岛北岸,136,9292,大连经济技术开发区光伸物业服务有限公司,1.2,辽宁,21,二手房,2005
甘井子区玉丽街2号楼1单元4号公建,大连,大连新型房地产开发总公司,甘井子,20190702,38.98705071699301,121.55513043130172,泡崖康顺园,154,11178,大连新兴物业管理有限公司,0.5,辽宁,21,二手房,2007
甘井子区静林街34号4单元1层2,大连,大连祥盛房屋开发有限公司,甘井子,20190702,38.98321485010885,121.58185179833856,千山心城,128,14577,大连百特物业管理有限公司,0.5,辽宁,22,二手房,2003
甘井子区泡崖六小区6号楼1单元1层2号,大连,大连新型房地产开发有限公司,甘井子,20190702,38.98033159306754,121.55920598894072,泡崖五区,86,11390,大连新兴物业管理有限公司,0.5,辽宁,22,二手房,1990
沙河口区新生路万客园3-7,大连,大连绿波房屋开发集团有限公司,沙河口,20190702,38.94412875710208,121.57006756704837,绿波小区,156,10999,大连绿波建设发展有限公司,0.2,辽宁,22,二手房,1998
甘井子区祥溢园4号1单元1层9号公建,大连,"大连鹏德房屋开发有限公司,大连长鹭房屋开发有限公司,大连均卫达房地产开发有限公司,大连福田房屋开发有限公司,大连航宇房屋开发有限公司",甘井子,20190702,38.92981664067587,121.54940314023253,亲亲家园,68,15377,渤海吉祥物业管理有限公司,0.5,辽宁,23,二手房,2004
沙河口区富民路120号4-1-1,大连,大连渤海红旗集团有限公司,沙河口,20190702,38.930937859528605,121.5647274237578,马栏小学北,85,10588,街道办事处（居委会）代管物业,0.2,辽宁,24,二手房,1993
金州区金润花园B区47号1单元1层1号2号,大连,大连辽大房地产开发有限公司,金州,20190702,39.10434716151341,121.74517862677146,金润小区B区,183,8370,大连新兴物业管理有限公司,0.4,辽宁,25,二手房,2000
无门店信息,大连,无开发商,甘井子,20190702,34.52713835999158,118.76812980670795,石油六闾,68,9327,街道办事处（居委会）代管物业,0.5,辽宁,19,二手房,1989
开发区东北三街94号1层,大连,大连欣达房地产开发有限公司,开发区,20190702,39.05723508011585,121.80570768630555,倚山里小区,225,7479,大连经济技术开发区聚盛达物业管理有限公司,0.2,辽宁,19,二手房,1995
无门店信息,大连,大连一方生态城房地产开发有限公司,开发区,20190702,34.52713835999158,118.76812980670795,一方天鹅湖,199,8103,大连一方物业管理有限公司,1.9,辽宁,18,二手房,2010
沙河口区西南路643号,大连,无开发商,沙河口,20190702,38.943483429804665,121.5833555851182,交通大学,74,12804,无物业管理服务,-,辽宁,19,二手房,1955
西岗区香炉礁24号1-1,大连,无开发商,西岗,20190702,38.92047268927287,121.61862512554262,香炉礁,211,11042,街道办事处（居委会）代管物业,0.1,辽宁,19,二手房,1979
甘井子区甘井子街3号公建,大连,无开发商,甘井子,20190702,38.982086281836246,121.63426694995971,文体街,132,10311,街道办事处（居委会）代管物业,0.1,辽宁,14,二手房,1985
甘井子区千山路26号,大连,大连市大钢集团,甘井子,20190702,38.985697948031984,121.58768860037272,山东路,88,12669,街道办事处（居委会）代管物业,0.2,辽宁,14,二手房,1986
大连市开发区左岸经典正恒园1-17,大连,大连神洲众益集团有限公司,开发区,20190702,39.049057070649155,121.76187404250511,万国宫馆一期,124,13132,加拿大高力国际物业服务有限公司,2.4,辽宁,14,二手房,2009
沙河口区长江路946号-9,大连,大连机车商业城有限公司,沙河口,20190702,38.913544290955585,121.59450670056631,兴工街,66,13185,街道办事处（居委会）代管物业,0.2,辽宁,14,二手房,1985
开发区安盛里5栋-4,大连,大连盛铭资产管理有限公司,开发区,20190702,23.112106678834838,113.27801046214822,安盛花园,88,9311,大连经济技术开发区海青物业有限公司,1.1,辽宁,14,二手房,2003
沙河口区恒利园42号-8,大连,大连新华房屋开发有限公司,沙河口,20190702,38.93357562498634,121.57914091532649,新华同仁轩,46,17714,大连新华物业管理有限公司,0.6,辽宁,14,二手房,2000
大连市甘井子区七贤路8-3号,大连,大连万达商业地产有限公司,高新园区,20190702,38.86602612116956,121.53842265737707,万达海景公寓,122,11933,大连万达物业管理有限公司,2.9,辽宁,15,二手房,2012
开发区润海园中区62-9,大连,华润（大连）房地产有限公司,开发区,20190702,39.04047273176333,121.76392358042445,华润海中国四期,125,14074,华润物业（大连）有限公司,3.1,辽宁,15,二手房,2000
甘井子区红凌路109号,大连,大连锦联地产集团有限公司,甘井子,20190702,38.923388478439314,121.54860212120927,锦绣暖山,78,15298,大连锦明物业服务有限公司,1.2,辽宁,15,二手房,2007
沙河口区红凌路137号,大连,大连大实企业集团房屋开发有限公司,甘井子,20190702,38.922699288974506,121.54713601744747,叠翠山庄,35,11113,大连弘实物业管理有限公司,0.4,辽宁,15,二手房,2000
金州区金润小区B区861单元102,大连,大连辽大房地产开发有限公司,金州,20190702,39.10615165380565,121.74639264534615,金润小区A区,146,8618,大连新兴物业管理有限公司,0.4,辽宁,15,二手房,2000
甘井子区泉水D6区51号,大连,大连锦丰和源祥房地产开发有限公司,甘井子,20190702,39.00897610161069,121.61789300655198,泉水家年华,112,13695,街道办事处（居委会）代管物业,0.9,辽宁,15,二手房,2009
开发区润海园中区30-1,大连,华润（大连）房地产有限公司,开发区,20190702,39.04047273176333,121.76392358042445,华润海中国三期,170,14383,华润物业（大连）有限公司,3.1,辽宁,15,二手房,2010
沙河口区前程街46号4—1—2号,大连,大连银地置业发展有限公司,沙河口,20190702,38.913544290955585,121.59450670056631,观山满庭芳,91,17920,大连新展物业管理有限公司,1,辽宁,15,二手房,2008
甘井子区汇仁街22号,大连,远洋地产有限公司,甘井子,20190702,38.99712640764999,121.58834420439493,远洋广场,182,17473,大连远洋基业物业管理有限公司,1.4,辽宁,16,二手房,2010
甘井子区中华路泉水A1区86号4单元1层1号,大连,大连运泽房地产开发有限公司,甘井子,20190702,39.0040531092963,121.60742125620513,润泽园,97,16780,大连城建开发集团物业管理有限公司,1.4,辽宁,16,二手房,2008
沙河口区新生路万客园3-7,大连,大连鹏生房地产开发有限公司,沙河口,20190702,38.94412875710208,121.57006756704837,枫林绿洲,38,14001,大连鹏辉物业管理有限公司,0.3,辽宁,13,二手房,2008
甘井子区玉丽街2号楼1单元4号公建,大连,大连新型房地产开发有限公司,甘井子,20190702,38.98705071699301,121.55513043130172,泡崖七区,125,10916,大连新兴物业管理有限公司,0.3,辽宁,16,二手房,1999
甘井子金地艺境博艺西园2-1号,大连,大连恒昇房地产开发有限公司,甘井子,20190702,39.04402110608829,121.665484498555,福佳新城一期,63,9191,暂无信息,0.9,辽宁,12,二手房,2010
沙河口区富民路120号4-1-1,大连,大连渤海红旗集团有限公司,沙河口,20190702,38.930937859528605,121.5647274237578,马栏小学南,66,11202,大连辽南物业管理有限公司,0.2,辽宁,11,二手房,1992
大连市高新园区软件园路1A-3号,大连,亿达房地产开发有限公司,高新园区,20190702,38.89360013642285,121.54653763548625,软件园小区,55,14655,业主自筹物业,0.2,辽宁,11,二手房,1995
沙河口区黄浦路18号—5号公建,大连,无开发商,高新园区,20190702,38.8771225143479,121.54427480390662,凌源街,36,13514,大连凌电物业管理有限公司,0.1,辽宁,11,二手房,1981
甘井子区泉水D6区51号,大连,大连锦丰和源祥房地产开发有限公司,甘井子,20190702,39.00897610161069,121.61789300655198,泉水人家幸福里,129,13936,大连泽霖物业管理有限公司,0.9,辽宁,11,二手房,2009
大连市开发区左岸经典正恒园1-17,大连,大连神洲众益集团有限公司,开发区,20190702,39.049057070649155,121.76187404250511,万国宫馆二期,130,14134,加拿大高力国际物业服务有限公司,2.4,辽宁,12,二手房,2009
沙河口区富静街26号1单元1层5号,大连,大连正源房地产开发有限公司,沙河口,20190702,38.908727606250466,121.58667844684369,幸福e家五期,196,37811,大连正源物业服务有限公司,1.8,辽宁,12,二手房,2008
金州新区先进街道渤海街7-4号1-2层、7-3号1-2层,大连,大连九鼎置地有限公司,金州,20190702,39.09342713035472,121.74590886291374,万科城,78,11147,大连万科物业服务有限公司,2.2,辽宁,12,二手房,2015
大连市开发区左岸经典正恒园1-17,大连,大连众益神州地产开发有限公司,开发区,20190702,39.049057070649155,121.76187404250511,万国宫馆三期,119,14321,大连万佳物业管理有限公司,2,辽宁,12,二手房,2011
开发区松苑街23号,大连,大连盛和房地产开发有限公司,开发区,20190702,22.52087435807652,113.40156105086167,北欧假日,124,12001,大连鸿达物业管理有限公司,1.1,辽宁,12,二手房,2003
西岗区平等街21号1层2号,大连,无开发商,西岗,20190702,38.92251066253164,121.63236845125735,实验小学同庆街,83,22691,无物业管理服务,-,辽宁,12,二手房,1990
大连经济技术开发区时代城4-3号1-2号,大连,远洋地产有限公司,开发区,20190702,39.0992481321252,121.83007860699459,远洋时代城三期,91,8712,大连远洋基业物业管理有限公司,1.5,辽宁,12,二手房,2012
金州新区站前街道生辉第一城5号楼1-2层4号,大连,大连新希望家园房地产有限公司,金州,20190702,39.05819721414208,121.74650438736514,新希望乐城,66,10251,大连新希望物业服务有限公司,1.6,辽宁,12,二手房,2013
大连市开发区湾里东5-6号,大连,大连宏港房地产开发有限公司,开发区,20190702,39.07275772231556,121.85888789351343,都悦里,216,6846,大连宏港物业管理有限公司,0.3,辽宁,12,二手房,1992
沙河口区联合路133号,大连,无开发商,沙河口,20190702,38.91608561262676,121.60480987310456,79中永平,97,26911,无物业管理服务,-,辽宁,12,二手房,1994
沙河口区五一路219-1,大连,大连亿达房地产股份有限公司,沙河口,20190702,38.913544290955585,121.59450670056631,桃山小区,84,9846,街道办事处（居委会）代管物业,0.5,辽宁,12,二手房,1998
甘井子区泉水H3区15号3单元1层2号,大连,大连新型房地产开发有限公司,甘井子,20190702,39.00158439075201,121.62616882572375,龙畔金泉四期,70,13072,大连新型物业管理有限公司,0.4,辽宁,12,二手房,2005
沙河口区敦煌路357号10-11轴公建,大连,无开发商,沙河口,20190702,38.93891619583455,121.59150694046835,车家村,31,10492,街道办事处（居委会）代管物业,0.5,辽宁,12,二手房,1985
甘井子区泉水D1区37-7号,大连,大连运腾房地产开发有限公司,甘井子,20190702,39.013992871679214,121.61921940045104,锦泉源D3区,69,12450,大连南虹物业管理有限公司,0.5,辽宁,11,二手房,2007
甘井子区泉水D1区37-7号,大连,大连运腾房地产开发有限公司,甘井子,20190702,39.013992871679214,121.61921940045104,锦泉源D1区,80,14112,大连嘉合物业管理有限公司,0.5,辽宁,13,二手房,2005
中山区华乐街107-115号,大连,大连海昌房地产开发有限公司,中山,20190702,38.92093821499401,121.68879267531725,海昌欣城,103,17186,大连海昌欣城物业管理有限公司,1.2,辽宁,10,二手房,2002
沙河口区黑石礁街3号1层1-1号,大连,无开发商,沙河口,20190702,38.880058010307856,121.56313403908827,浪花街,47,11752,无物业管理服务,-,辽宁,10,二手房,1991
开发区润海园中区30-1,大连,华润置地（大连）开发有限公司,开发区,20190702,39.04047273176333,121.76392358042445,华润海中国一期,155,16198,华润物业（大连）有限公司,1.8,辽宁,10,二手房,2009
无门店信息,大连,大连万德房地产集团有限公司,开发区,20190702,34.52713835999158,118.76812980670795,万德悦城,110,8321,大连万德物业管理有限公司,1.5,辽宁,10,二手房,2010
甘井子区千山路26号,大连,大连嘉兴房地产开发有限公司,甘井子,20190702,38.985697948031984,121.58768860037272,千山路,73,12119,无物业管理服务,0.5,辽宁,10,二手房,1989
开发区红梅小区19栋-2-1-1号,大连,香港北海集团,开发区,20190702,29.906498897603264,121.5913630631805,君悦豪庭,57,11706,街道办事处（居委会）代管物业,1.2,辽宁,10,二手房,2004
无门店信息,大连,大连环宇置业有限公司,开发区,20190702,34.52713835999158,118.76812980670795,环宇品阁,89,6208,大连环宇物业管理有限公司,1.5,辽宁,10,二手房,2010
无门店信息,大连,大连益宁房地产开发有限公司,开发区,20190702,34.52713835999158,118.76812980670795,岭湾峰尚二期,87,9853,大连鸿达物业管理有限公司,0.6,辽宁,10,二手房,2010
甘井子区甘井子路32号楼1单元1楼9号,大连,无开发商,甘井子,20190702,38.982488275116516,121.63345389253514,松江小区,36,10174,街道办事处（居委会）代管物业,0.5,辽宁,10,二手房,1990
甘井子区红旗西路104-23,大连,大连万科房地产开发有限公司,甘井子,20190702,38.94013845868325,121.5282577714263,万科假日风景,81,16797,大连万科物业服务有限公司,1,辽宁,10,二手房,2007
高新园区海苑街30号1单元1号公建,大连,大连大有文园房屋开发有限公司,高新园区,20190702,20.06392317589085,110.32302599457326,大有文园,52,17012,大连大有恬园物业管理有限公司,2,辽宁,10,二手房,2012
沙河口区锦石路8号,大连,大连锦绣房地产开发有限公司,沙河口,20190702,38.94771288948481,121.56110903658733,锦泉南园,42,11442,大连锦绣物业管理有限公司,0.3,辽宁,10,二手房,1996
沙河口区星海广场B3区20—3号,大连,大连飞通房地产开发有限公司,沙河口,20190702,38.88782715536473,121.5869168319735,东方星海,128,17879,大连兆恒物业管理有限公司,2.9,辽宁,10,二手房,2008
开发区安盛里5栋-4,大连,大连汽贸房屋开发有限公司,开发区,20190702,23.112106678834838,113.27801046214822,东北明珠,61,12335,大连汽贸物业管理有限公司,1.5,辽宁,10,二手房,2007
金州区金润小区B区861单元102,大连,大连新型房地产开发有限公司,金州,20190702,39.10615165380565,121.74639264534615,糖果小区,71,9013,大连新兴物业管理有限公司,0.5,辽宁,10,二手房,2011
西岗区香炉礁24号1-1,大连,无开发商,西岗,20190702,38.92047268927287,121.61862512554262,工人村,62,10449,街道办事处（居委会）代管物业,0.5,辽宁,10,二手房,1980
沙河口区南沙街36号台二2号1-1-37,大连,大连康加立置业有限公司,沙河口,20190702,38.90741410359388,121.57685699961822,台四小区,38,13110,大连弘达物业管理有限公司,-,辽宁,10,二手房,1996
甘井子金地艺境博艺西园2-1号,大连,暂无信息,甘井子,20190702,39.04402110608829,121.665484498555,欣家园二期,30,9269,街道办事处（居委会）代管物业,0.5,辽宁,11,二手房,2000
开发区润海园中区30-1,大连,暂无信息,开发区,20190702,39.04047273176333,121.76392358042445,华润海中国七期,71,16265,华润物业（大连）有限公司开发区分公司,3.1,辽宁,11,二手房,2016
甘井子区泉水A2区10-3号,大连,源祥房地产开发有限公司,甘井子,20190702,39.00419463553784,121.61128690376383,美域盛景,170,12911,大连新华物业管理有限公司,0.8,辽宁,11,二手房,2008
甘井子区锦城西园4#3-1-1,大连,大连锦绣房地产开发有限公司,沙河口,20190702,38.95286223185571,121.55129044777,锦霞北园,106,11785,大连锦绣物业管理有限公司,0.3,辽宁,9,二手房,1998
甘井子区哲林北园17-6号,大连,大连恒德房屋开发有限公司,甘井子,20190702,38.9600267109581,121.53876726228256,恒德橄榄季,56,22012,大连恒德物业服务有限公司,1.4,辽宁,9,二手房,2009
中山区华乐街107-115号,大连,大连华顺房地产开发公司,中山,20190702,38.92093821499401,121.68879267531725,海景园,79,15905,大连华富物业管理有限公司,0.3,辽宁,9,二手房,1997
无门店信息,大连,大连万科房地产开发有限公司,旅顺口,20190702,34.52713835999158,118.76812980670795,万科樱花园三期,34,12874,大连万科物业服务有限公司,2.4,辽宁,9,二手房,2014
中山区爱华街13号,大连,大连锦联地产集团有限公司,中山,20190702,38.92541607518685,121.6535728031028,经典生活,36,8649,大连锦联物业管理有限公司,2.2,辽宁,9,二手房,2003
甘井子区泡崖六小区6号楼1单元1层2号,大连,大连新型房地产开发有限公司,甘井子,20190702,38.98033159306754,121.55920598894072,泡崖六区,35,11712,大连新兴物业管理有限公司,0.3,辽宁,9,二手房,1999
甘井子区红南东街7-7号,大连,大连均卫达房地产开发有限公司,甘井子,20190702,38.92880462247992,121.54144910207062,亲亲阳光,9,13031,大连万泰物业管理有限公司,0.5,辽宁,9,二手房,2004
中山区清溪南街11号,大连,无开发商,中山,20190702,38.88919604283904,121.66466481004835,秀月小区,45,16877,无物业管理服务,-,辽宁,9,二手房,1982
沙河口区兰田街33号,大连,无开发商,沙河口,20190702,38.926138912221084,121.56486022834609,辽师,50,12217,无物业管理服务,-,辽宁,9,二手房,1970
沙河口区前程街46号4—1—2号,大连,大连渤海红旗集团有限公司,甘井子,20190702,38.913544290955585,121.59450670056631,前程街,41,12013,渤海吉祥物业管理有限公司,0.4,辽宁,9,二手房,2000
开发区鹏程家园66#-6、66#-7公建,大连,大连海富花园开发有限公司,开发区,20190702,37.92440451755906,112.59861436589645,海富经典,128,10078,大连银帆物业管理有限公司,1.2,辽宁,9,二手房,2008
无门店信息,大连,大连聚达房地产开发有限公司,旅顺口,20190702,34.52713835999158,118.76812980670795,海尚明珠,165,9831,大连合生物业管理有限公司,1.5,辽宁,9,二手房,2011
大连市沙河口区文萃街1号1-2-2；大连市沙河口区由家五小区五号楼1单元2层1,大连,大连理工科技城建设开发有限公司,高新园区,20190702,38.88596852074166,121.54389553303217,文萃轩小区,42,17291,大连理工物业管理中心,0.2,辽宁,9,二手房,1980
沙河口区锦石路8号,大连,大连锦绣房地产开发有限公司,沙河口,20190702,38.94771288948481,121.56110903658733,锦泉中园,37,12233,大连锦绣物业管理有限公司,0.3,辽宁,9,二手房,1996
甘井子区千山路26号,大连,大连市大钢集团,甘井子,20190702,38.985697948031984,121.58768860037272,华中街,32,12993,街道办事处（居委会）代管物业,0.1,辽宁,9,二手房,1900
金州区同济路44号,大连,大连阿尔滨中辰置业有限公司,金州,20190702,39.10476859984152,121.71234684495865,瀛海金洲,98,8444,大连阿尔滨汇城物业服务有限公司,0.5,辽宁,9,二手房,2006
甘井子区泉水K2区1号-7,大连,大连新型房地产开发有限公司,甘井子,20190702,39.01148211821007,121.63131997900962,龙畔金泉五期K4区,139,12540,大连新兴物业管理有限公司,0.5,辽宁,9,二手房,2008
大连市甘井子区泉水R2区33-4号第8幢1单元1跃2层9号,大连,大连天意房地产开发有限公司,甘井子,20190702,39.00961080610692,121.63892035059047,金地檀溪,90,17684,大连金地物业管理有限公司,2.6,辽宁,9,二手房,2014
西岗区黄河路90号公建部分,大连,大连鼎森房地产开发有限公司,西岗,20190702,38.92234529815978,121.62829331825485,金宸国际,47,17962,英联华（香港）物业管理顾问有限公司,2.2,辽宁,9,二手房,2004
沙河口区锦石路8号,大连,大连锦绣房地产开发有限公司,沙河口,20190702,38.94771288948481,121.56110903658733,锦云中园,69,10637,大连锦绣物业管理有限公司,0.3,辽宁,9,二手房,1996
甘井子区美域盛景A2区10-6,大连,大连泉水园房屋开发有限公司,甘井子,20190702,39.006221362805846,121.61022278003976,骏腾名苑,73,13962,大连衡德物业管理有限公司,0.5,辽宁,9,二手房,2006
沙河口区西南路161号,大连,无开发商,沙河口,20190702,38.89269676588945,121.56639953951542,孙家沟,90,12329,无物业管理服务,-,辽宁,9,二手房,1990
高新园区火炬路18号,大连,大连海脉房地产开发有限公司,高新园区,20190702,38.937738080520404,117.39340752036043,MINI印象,134,15151,大连豪斯威物业管理有限公司,2.2,辽宁,8,二手房,2012
金州区金润花园B区47号1单元1层1号2号,大连,暂无信息,金州,20190702,39.10434716151341,121.74517862677146,民馨小区,78,7156,无物业管理服务,0.3,辽宁,9,二手房,2008
开发区红梅小区19栋-2-1-1号,大连,无开发商,开发区,20190702,29.906498897603264,121.5913630631805,古耕国际酒店公寓,64,10800,街道办事处（居委会）代管物业,3,辽宁,8,二手房,2005
甘井子区祥龙街2号楼1单元1楼1号,大连,大连美辰房地产开发有限公司,甘井子,20190702,38.988045874482445,121.60439401971377,美辰香醒,49,15565,大连众和物业管理有限公司,1.4,辽宁,8,二手房,2012
甘井子区红旗中路143号1层4号,大连,大连保利红旗房地产开发有限公司,甘井子,20190702,38.93169566676921,121.5426632438217,保利西山林语,75,20566,保利物业服务有限公司,1.5,辽宁,8,二手房,2006
无门店信息,大连,无开发商,甘井子,20190702,34.52713835999158,118.76812980670795,五二三厂,49,8437,无物业管理服务,0.5,辽宁,8,二手房,1950
甘井子区虹城路503号1-1号,大连,大连易和房地产集团有限公司,甘井子,20190702,38.981193588625004,121.49964051837122,岭秀滨城悦和东园,70,15331,大连易兴物业服务有限公司,1.3,辽宁,8,二手房,2009
沙河口区富国街14号1-1-2,大连,大连永辉房地产开发有限公司,沙河口,20190702,38.901027106600836,121.59047734850638,百年汇,128,18502,大连百年城物业管理有限公司,2.8,辽宁,8,二手房,2007
甘井子区促进路30号2-1-1,大连,福佳集团有限公司,甘井子,20190702,38.954133128707575,121.58355746311207,府佳名都,50,18138,大连富佳物业管理有限公司,0.5,辽宁,8,二手房,2002
开发区黄海西路54号,大连,开发区城建局,开发区,20190702,39.047714586087785,121.76688238228269,青松南里,90,8021,大连经济技术开发区中强物业管理有限公司,0.5,辽宁,8,二手房,2003
甘井子区华龙南园12-4-3-1-3,大连,大连长鹭房屋开发有限公司,甘井子,20190702,38.98528794231248,121.61028969481718,晶品枫林,50,13577,北京房修一物业管理有限公司,0.5,辽宁,8,二手房,2008
开发区黄海西路54号,大连,大连凯伦房地产开发股份有限公司,开发区,20190702,39.047714586087785,121.76688238228269,凯伦凯悦,100,8722,大连凯悦物业管理有限公司,3.1,辽宁,8,二手房,2008
沙河口区星海广场B3区20—3号,大连,大连亿达房地产股份有限公司,沙河口,20190702,38.88782715536473,121.5869168319735,亿达杰特,136,19776,亿达物业管理有限公司,3.8,辽宁,8,二手房,2005
开发区润海园中区65-7号1-2号,大连,华润（大连）房地产有限公司,开发区,20190702,39.04047273176333,121.76392358042445,华润海中国五期,109,14592,华润物业（大连）有限公司,3.1,辽宁,8,二手房,2013
大连市甘井子区丰收路3-5号,大连,无开发商,甘井子,20190702,38.965377255081755,121.58288415324094,王家桥,69,15672,大连铁路物业管理有限公司,0.1,辽宁,8,二手房,1989
甘井子区山东路315号14栋1单元1跃2层13号,大连,华润置地（大连）开发有限公司,甘井子,20190702,39.00206212579579,121.59357231641214,华润置地广场一期,53,19886,华润物业（大连）有限公司,2.8,辽宁,8,二手房,2013
开发区小孤山西里3栋-11号,大连,大连九龙汇房地产开发有限公司,开发区,20190702,39.02715282297674,121.80682183666346,九龙汇,58,8910,大连宏亮红物业管理有限公司,1.9,辽宁,8,二手房,2009
沙河口区五一路326号,大连,大连亿达房地产股份有限公司,高新园区,20190702,38.913544290955585,121.59450670056631,亿达学清园,25,22982,大连软件园物业管理有限公司,1.2,辽宁,8,二手房,2001
甘井子区红旗西路104-7,大连,大连盛达基业房地产开发有限公司,甘井子,20190702,38.940335495502666,121.52722586363274,依山云水,23,14555,大连盛新物业管理有限公司,0.4,辽宁,8,二手房,2004
中山区民运巷 47号1层2号,大连,无开发商,中山,20190702,38.905955122300846,121.64798148011702,民运巷,16,11081,无物业管理服务,-,辽宁,8,二手房,1995
金州新区先进街道五一路350-1号1-2层,大连,大连中连房地产开发有限公司,金州,20190702,39.078667146419825,121.77094423323935,聚鑫小区二期,32,7866,大连新生活物业管理有限公司,0.5,辽宁,7,二手房,2008
中山区清溪南街11号,大连,无开发商,中山,20190702,38.88919604283904,121.66466481004835,桃仙小区,23,13333,街道办事处（居委会）代管物业,-,辽宁,7,二手房,1992
开发区红梅小区19栋-2-1-1号,大连,开发区城建局,开发区,20190702,29.906498897603264,121.5913630631805,红梅小区,49,12683,街道办事处（居委会）代管物业,0.3,辽宁,7,二手房,1995
无门店信息,大连,大连馨悦房地产开发有限公司,金州,20190702,34.52713835999158,118.76812980670795,悦泰山里,98,10417,大连百安物业管理有限公司,0.5,辽宁,7,二手房,2009
开发区小孤山西里3栋-11号,大连,大连开建房地产开发有限公司,开发区,20190702,39.02715282297674,121.80682183666346,瑞仕尚城,51,11141,大连阿尔滨汇城物业服务有限公司,1.1,辽宁,7,二手房,2008
无门店信息,大连,无开发商,金州,20190702,34.52713835999158,118.76812980670795,滨海丰园,109,8242,街道办事处（居委会）代管物业,0.5,辽宁,7,二手房,2010
金州区小平岛B组团4号楼3号商铺,大连,大连圣岛房地产开发有限公司,高新园区,20190702,39.05643299166072,121.78943558267059,小平岛海悦山,70,20166,大连凯尔富物业管理有限公司,1.3,辽宁,7,二手房,2008
无门店信息,大连,大连天启房地产开发有限公司,高新园区,20190702,34.52713835999158,118.76812980670795,百合IT家园,38,12636,大连亮泰安邦物业有限公司,0.6,辽宁,7,二手房,2007
中山区爱华街13号,大连,大连一方地产有限公司,中山,20190702,38.92541607518685,121.6535728031028,大连国际酒店,20,23041,大连一方物业管理有限公司,3.0,辽宁,7,二手房,2003
金州新区站前街道生辉第一城5号楼1-2层4号,大连,大连公路工程集团生辉房地产开发有限公司,金州,20190702,39.05819721414208,121.74650438736514,生辉第一城,127,10953,大连生辉物业管理有限公司,1.2,辽宁,8,二手房,2005
沙河口区红凌路137号,大连,大连大实企业集团房屋开发有限公司,甘井子,20190702,38.922699288974506,121.54713601744747,泊林阳光A区,14,13893,大连弘实物业管理有限公司,0.6,辽宁,7,二手房,2007
中山区共建巷61号,大连,无开发商,中山,20190702,38.91828093658718,121.66259221532148,39中共建巷,23,26628,街道办事处（居委会）代管物业,0.5,辽宁,7,二手房,1982
甘井子辛吉街150号-7号,大连,大连新星房地产开发有限公司,甘井子,20190702,38.96368508446978,121.52671221254214,新星帕尔美娜,49,15915,大连生生物业有限公司,1,辽宁,8,二手房,2009
沙河口区西南路643号,大连,无开发商,沙河口,20190702,38.943483429804665,121.5833555851182,西关街,41,11228,无物业管理服务,-,辽宁,8,二手房,1995
甘井子区山东路商业街D区12号公建,大连,无开发商,甘井子,20190702,39.001060021502965,121.58883960371418,兴华路,65,12463,街道办事处（居委会）代管物业,0.5,辽宁,8,二手房,1989
经济技术开发区城润万家62-8公建,大连,大连海汇房地产开发有限公司,开发区,20190702,39.06883436780937,117.72669530355309,正源吉祥e家祥福园,52,11387,大连正源物业服务有限公司,1.5,辽宁,8,二手房,2014
大连市甘井子区钻石湾和信园13-5,大连,远洋地产有限公司,甘井子,20190702,38.958699272665584,121.61903564217761,远洋钻石湾三期,68,21109,远洋亿家物业服务股份有限公司大连分公司,1.5,辽宁,8,二手房,2014
金州区先进街道陶然居公建2-2号1层,大连,大连金信集团房地产有限公司,金州,20190702,39.08283372756215,121.76170982507143,桃园小区,205,6906,街道办事处（居委会）代管物业,3,辽宁,8,二手房,1992
沙河口区西南路643号,大连,大连泰安房地产开发有限公司,沙河口,20190702,38.943483429804665,121.5833555851182,幸福小区(沙河口),30,12494,大连三宝物业发展有限公司,0.3,辽宁,8,二手房,1998
甘井子区红旗中路143号1层4号,大连,大连红旗兴达房地产开发有限公司,甘井子,20190702,38.93169566676921,121.5426632438217,兴达福山居,26,14738,大连万泰物业管理有限公司,0.4,辽宁,6,二手房,2006
沙河口区华新苑10号楼4号公建,大连,大连祥盛房屋开发有限公司,沙河口,20190702,38.94033750532864,121.58990295130229,香洲心城,26,18770,大连百特物业管理有限公司,1,辽宁,7,二手房,2011
沙河口区西南路161号,大连,无开发商,沙河口,20190702,38.89269676588945,121.56639953951542,大医物业,8,13544,街道办事处（居委会）代管物业,0.5,辽宁,6,二手房,1990
无门店信息,大连,大连亿达房地产股份有限公司,高新园区,20190702,34.52713835999158,118.76812980670795,亿达悦龙居,23,14509,亿达物业管理有限公司,2.8,辽宁,6,二手房,2015
甘井子区西南路979-7号公建,大连,暂无信息,甘井子,20190702,38.96275592929325,121.5958698791777,八十中红咀街,133,15657,街道办事处（居委会）代管物业,0.2,辽宁,6,二手房,1988
中山区杏林街66—5号,大连,嘉和房地产集团有限公司,中山,20190702,38.92572771377599,121.66490555592502,嘉和花样年华三期,55,24046,大连嘉和物业管理有限公司,3.5,辽宁,6,二手房,2002
中山区碧浪园4号-3号,大连,大连三寰房地产开发有限公司,中山,20190702,38.89147289460474,121.69329560326236,碧浪园一期,38,14162,大连峰霖物业管理有限公司,0.3,辽宁,7,二手房,1997
开发区大开高吉里33栋6号,大连,无开发商,开发区,20190702,39.07355836059941,121.8280439450145,高泰里,15,6227,无物业管理服务,-,辽宁,6,二手房,1998
沙河口区前程街46号4—1—2号,大连,大连渤海红旗集团有限公司,甘井子,20190702,38.913544290955585,121.59450670056631,兰丰巷,19,10791,大连辽南物业管理有限公司,0.2,辽宁,7,二手房,1992
沙河口区富民路120号4-1-1,大连,大连银地置业发展有限公司,沙河口,20190702,38.930937859528605,121.5647274237578,观山蝶恋花,43,14867,大连新展物业管理有限公司,1,辽宁,7,二手房,2010
无门店信息,大连,大连龙湖西城置业有限公司,甘井子,20190702,34.52713835999158,118.76812980670795,龙湖滟澜山,63,20527,大连龙湖物业服务有限公司,6.6,辽宁,7,二手房,2015
沙河口区富国街34-3,大连,大连万达房地产开发有限公司,沙河口,20190702,38.90159716600704,121.58930603357904,星海人家,66,27323,大连万景物业管理有限公司,1.2,辽宁,7,二手房,2001
西岗区黄河路90号公建部分,大连,暂无信息,西岗,20190702,38.92234529815978,121.62829331825485,实验小学市场街,53,22443,无物业管理服务,-,辽宁,7,二手房,1990
红星海A区126-4,大连,远洋地产有限公司,开发区,20190702,39.027851194371685,121.80327394132297,红星海一期城市别馆,113,13753,大连远洋基业物业管理有限公司,2.2,辽宁,7,二手房,2010
金州区先进街道陶然居公建2-2号1层,大连,大连金信集团房地产有限公司,金州,20190702,39.08283372756215,121.76170982507143,金信陶然居,81,9454,北京瑞思特物业管理有限公司,0.5,辽宁,7,二手房,2006
大连市甘井子区泉水N2区3-13号,大连,大连金广地产集团有限公司,甘井子,20190702,39.021116079001885,121.64659997607325,泉水N3区,90,10743,大连鹏辉物业管理有限公司,0.7,辽宁,7,二手房,2000
沙河口区绿清街12号,大连,无开发商,沙河口,20190702,38.93851335419565,121.57334844377094,绿波B区,19,9770,街道办事处（居委会）代管物业,0.1,辽宁,7,二手房,1992
甘井子区惠泽南园3-4号,大连,大连鹏德房屋开发有限公司,甘井子,20190702,38.939326611323615,121.52337842113351,西山逸林,37,15084,大连三和住邦物业管理有限公司,1.3,辽宁,7,二手房,2009
无门店信息,大连,大连海脉房地产开发有限公司,金州,20190702,34.52713835999158,118.76812980670795,海脉未来城,29,8179,大连豪斯威物业管理有限公司,1,辽宁,7,二手房,2013
开发区兴城路29-81层,大连,大连兆佳房地产开发有限公司,开发区,20190702,39.050214252167194,121.75835946441768,自由向,57,14424,大连华安物业管理有限公司,2.4,辽宁,7,二手房,2008
中山区东港龙湖水晶郦湾7-102,大连,大连龙湖东港房地产有限公司,中山,20190702,38.924700620463895,121.70344398518496,龙湖水晶郦湾,70,28174,大连龙湖物业服务有限公司,4.5,辽宁,7,二手房,2015
开发区黄海西路54号,大连,无开发商,开发区,20190702,39.047714586087785,121.76688238228269,翠南隆达院,22,8032,嘉兴物业管理有限公司,0.5,辽宁,6,二手房,1998
西岗区平等街21号1层2号,大连,"无开发商,大连永欣香榭里实业有限公司",西岗,20190702,38.92251066253164,121.63236845125735,香榭里,60,10280,大连金地物业管理有限公司,3.6,辽宁,6,二手房,2010
甘井子区玉云路27-3-1-3,大连,大连新型房地产开发有限公司,甘井子,20190702,38.97896234099927,121.55865563488358,泡崖三区,80,11011,大连新兴物业管理有限公司,0.5,辽宁,6,二手房,1995
甘井子区华龙南园12-4-3-1-3,大连,大连鹏德房屋开发有限公司,甘井子,20190702,38.98528794231248,121.61028969481718,乐活源,63,12952,大连三和住邦物业管理有限公司,0.5,辽宁,6,二手房,2008
金州区凤翔路220号,大连,大连德泰控股有限公司,金州,20190702,39.08410553937731,121.77700083356399,德泰岭秀逸城B区,79,10724,大连德泰物业管理有限公司,1.9,辽宁,6,二手房,2008
大连市甘井子区融田西园52-11,大连,大连圣安房地产开发有限公司,甘井子,20190702,38.95800216293212,121.53151895549547,亿达春田晴湾,73,17119,亿达物业管理有限公司,2.2,辽宁,6,二手房,2013
甘井子区山东路137号,大连,大连华南房地产开发有限公司,甘井子,20190702,38.99129404608926,121.59172125999353,名贵山庄青年公寓,3,14997,大连弘益达物业管理有限公司,0.5,辽宁,6,二手房,2004
沙河口区红旗东路18-22号2单元1楼3号,大连,无开发商,甘井子,20190702,38.913544290955585,121.59450670056631,天泉山庄,16,12713,大连铁龙安居物业管理有限公司,0.5,辽宁,6,二手房,2000
高新园区硅谷假日小区25号楼地下室,大连,大连鑫亿房屋开发有限公司,高新园区,20190702,38.86467854992112,121.53720784613759,硅谷假日,52,19918,大连斌弘物业管理有限公司,0.8,辽宁,6,二手房,2005
金州新区先进街道五一路350-1号1-2层,大连,大连市金州区育才房地产开发有限公司,金州,20190702,39.078667146419825,121.77094423323935,康居小区,56,7647,街道办事处（居委会）代管物业,-,辽宁,6,二手房,1998
甘井子区西南路979-7号公建,大连,大连祥盛房屋开发有限公司,甘井子,20190702,38.96275592929325,121.5958698791777,金盛家园,55,17137,大连宏华物业管理有限公司,0.5,辽宁,6,二手房,2001
甘井子区山东路127-2号,大连,无开发商,甘井子,20190702,38.99065559549029,121.59126483545545,七迎路,38,12368,街道办事处（居委会）代管物业,0.2,辽宁,6,二手房,1995
中山区碧浪园4号-3号,大连,大连万达房地产开发有限公司,中山,20190702,38.89147289460474,121.69329560326236,虎滩路,50,12972,大连虎滩置业物业管理有限公司,0.2,辽宁,6,二手房,1995
金州区小平岛B组团4号楼3号商铺,大连,大连圣岛房地产开发有限公司,高新园区,20190702,39.05643299166072,121.78943558267059,小平岛海角七号,55,21435,大连凯尔富物业管理有限公司,1.7,辽宁,6,二手房,2011
甘井子区海口路77—5号,大连,暂无信息,甘井子,20190702,38.960286398428124,121.60305183172997,鹏辉新世纪四期,48,17552,大连鹏辉物业管理有限公司,0.6,辽宁,6,二手房,2003
沙河口区恒利园42号-8,大连,大连新型房地产开发有限公司,沙河口,20190702,38.93357562498634,121.57914091532649,中铁十三局,17,13117,大连新兴物业管理有限公司,0.3,辽宁,6,二手房,1993
甘井子区汇仁街22号,大连,中铁建（大连）置业有限公司,甘井子,20190702,38.99712640764999,121.58834420439493,动力院景三期汇善园,43,15398,大连铁龙安居物业管理有限公司,0.9,辽宁,6,二手房,2007
甘井子区山东路315号14栋1单元1跃2层13号,大连,华润置地（大连）有限公司,甘井子,20190702,39.00206212579579,121.59357231641214,华润置地广场二期,52,20315,华润物业（大连）有限公司,2.9,辽宁,6,二手房,2013
金州区南棉路310号,大连,大连金连房地产开发有限公司,金州,20190702,39.09939229372624,121.72414976100345,金连福地,30,8141,街道办事处（居委会）代管物业,0.5,辽宁,6,二手房,2004
甘井子区红南东街7-7号,大连,大连大实企业集团房屋开发有限公司,甘井子,20190702,38.92880462247992,121.54144910207062,泊林和山,27,11487,大连弘实物业管理有限公司,0.6,辽宁,6,二手房,2007
高新园区海苑街36号1单元2号公建,大连,大连金华兴房地产开发有限公司,高新园区,20190702,20.06392317589085,110.32302599457326,华兴山庄,15,15622,大连华兴物业管理有限公司,0.5,辽宁,5,二手房,2004
金州区先进街道渤海街1-4号1-2层,大连,无开发商,金州,20190702,39.09512910553563,121.74578812616167,金星小区,27,7431,街道办事处（居委会）代管物业,0.1,辽宁,5,二手房,1993
无门店信息,大连,大连宏港房地产开发有限公司,开发区,20190702,34.52713835999158,118.76812980670795,港湾观海,74,8750,大连宏港物业管理有限公司,0.5,辽宁,6,二手房,2013
开发区金源南里14栋-11号一层部分，14号-12号一层部分,大连,无开发商,开发区,20190702,39.06148862675436,121.82503941311765,金源南里,93,8865,嘉兴物业管理有限公司,0.3,辽宁,6,二手房,2001
沙河口区前程街46号4—1—2号,大连,大连渤海红旗集团有限公司,甘井子,20190702,38.913544290955585,121.59450670056631,彩霞园,14,11745,渤海吉祥物业管理有限公司,0.4,辽宁,6,二手房,2000
无门店信息,大连,大连中海新城置业有限公司,甘井子,20190702,34.52713835999158,118.76812980670795,中海凤凰熙岸,67,13817,大连中海物业管理有限公司,2.3,辽宁,6,二手房,2013
开发区正恒园1-16,大连,暂无信息,开发区,20190702,39.04823944344617,121.76165468797754,正泰园B区,35,11860,无物业管理服务,-,辽宁,6,二手房,2000
沙河口区恒利园42号-8,大连,大连天河房地产开发集团有限公司,沙河口,20190702,38.93357562498634,121.57914091532649,天河新苑,47,13071,大连天河物业管理有限公司,0.4,辽宁,6,二手房,2000
甘井子区玉丽街39号楼3号公建,大连,大连新型房地产开发有限公司,甘井子,20190702,38.98706755029984,121.55605471197089,玉浓街,49,10504,大连新兴物业管理有限公司,0.2,辽宁,6,二手房,2000
甘井子区虹港路16号楼1层公建,大连,大连鑫奇房地产开发有限公司,甘井子,20190702,38.9645939333502,121.553851837474,鑫境界,99,12471,大连鑫境界物业管理有限公司,1.3,辽宁,6,二手房,2009
无门店信息,大连,大连新跃房地产开发有限公司,金州,20190702,34.52713835999158,118.76812980670795,金海国际花园,215,8030,盘锦瀚新物业管理有限公司,1,辽宁,6,二手房,2010
甘井子区山东路398号,大连,大连盛铭资产管理有限公司,甘井子,20190702,38.99821826443242,121.59274974973462,亿合城,84,18504,大连盛安物业管理有限公司,1.5,辽宁,6,二手房,2012
沙河口区西南路40号楼,大连,无开发商,沙河口,20190702,38.94143337232082,121.58616557598133,星海公园,50,12809,无物业管理服务,0.5,辽宁,6,二手房,1990
甘井子区泉水D1区10-2#1-1-7,大连,大连运达房地产集团有限公司,甘井子,20190702,39.01504676175047,121.61751269364314,锦泉源B4区,67,11256,大连佳泰物业管理有限公司,0.5,辽宁,6,二手房,2002
开发区鹏程家园66#-6、66#-7公建,大连,大连新天润企业集团有限公司,开发区,20190702,37.92440451755906,112.59861436589645,水御兰庭,32,9781,大连港力物业管理有限公司,1.1,辽宁,6,二手房,2006
无门店信息,大连,大连中连房地产开发有限公司,金州,20190702,34.52713835999158,118.76812980670795,憬园河畔,65,7974,大连新生活物业管理有限公司,0.4,辽宁,6,二手房,2000
开发区润海园中区62-9,大连,大连金广嘉亿置地有限公司,开发区,20190702,39.04047273176333,121.76392358042445,大连海湾城一期,111,12431,大连金广物业服务有限公司,2.6,辽宁,6,二手房,2012
甘井子区祥龙街2号楼1单元1楼1号,大连,大连市大钢集团,甘井子,20190702,38.988045874482445,121.60439401971377,华南沃尔玛六一路,25,11691,街道办事处（居委会）代管物业,0.5,辽宁,6,二手房,1990
无门店信息,大连,大连长鹭房屋开发有限公司,甘井子,20190702,34.52713835999158,118.76812980670795,晶品森岚,14,15948,大连旺宇物业有限公司,1.3,辽宁,5,二手房,2009
西岗区八一路196号1-3,大连,大连三环置业有限公司,西岗,20190702,38.92047268927287,121.61862512554262,桃花源小区,50,10159,大连三寰物业管理有限公司,0.5,辽宁,5,二手房,1996
沙河口区长江路738号,大连,大连大世界房地产开发有限公司,西岗,20190702,38.913544290955585,121.59450670056631,第九频道,46,25996,大世界商业联合机构,3.6,辽宁,5,二手房,2014
经济技术开发区城润万家4-5号公建,大连,无开发商,开发区,20190702,39.05716325096989,121.75946281983826,西山小区,3,7765,街道办事处（居委会）代管物业,0.5,辽宁,5,二手房,1996
甘井子区汇仁街22号,大连,大连永高房屋开发有限公司,甘井子,20190702,38.99712640764999,121.58834420439493,加州洋房,80,14932,大连怡和物业服务有限公司,0.9,辽宁,5,二手房,2008
开发区鹏程家园66#-6、66#-7公建,大连,大连神洲众益集团有限公司,开发区,20190702,37.92440451755906,112.59861436589645,众益阳光海岸,95,10575,大连万佳物业管理有限公司,1.2,辽宁,5,二手房,2005
甘井子区祥龙街2号楼1单元1楼1号,大连,大连世隆房地产开发有限公司,甘井子,20190702,38.988045874482445,121.60439401971377,玉树临居,16,13833,北京房修一物业管理有限公司,1.3,辽宁,5,二手房,2009
无门店信息,大连,大连众仕房地产开发有限公司,开发区,20190702,34.52713835999158,118.76812980670795,山河御景,24,8071,大连山河物业管理有限公司,1.5,辽宁,5,二手房,2010
沙河口区黑石礁街5号1层1号,大连,无开发商,沙河口,20190702,38.879813345473714,121.56313742300513,黑石礁广场,28,13546,无物业管理服务,-,辽宁,5,二手房,1992
中山区碧浪园4号-3号,大连,无开发商,中山,20190702,38.89147289460474,121.69329560326236,碧海园,18,17875,大连远洋基业物业管理有限公司,0.5,辽宁,5,二手房,2000
高新园区海苑街36号1单元2号公建,大连,大连大有房屋开发有限公司,高新园区,20190702,20.06392317589085,110.32302599457326,大有恬园,44,17874,大连家园物业有限公司,0.5,辽宁,5,二手房,2003
沙河口区五一路270-274号,大连,无开发商,高新园区,20190702,38.913544290955585,121.59450670056631,由家村,27,12755,无物业管理服务,-,辽宁,5,二手房,1990
无门店信息,大连,大连唐银盛兴置业有限公司,开发区,20190702,34.52713835999158,118.76812980670795,钻石9座,39,10045,大连佳家物业管理有限公司,1.5,辽宁,5,二手房,2012
大连市金州新区友谊街道和平路59-10号1-2层公建,大连,无开发商,金州,20190702,39.112168401852266,121.72006917947859,和平小区,23,8162,街道办事处（居委会）代管物业,0.1,辽宁,5,二手房,1995
西岗区鞍山路29号龙畔锦城东门,大连,大连凯润房屋开发有限公司,西岗,20190702,38.92763470697088,121.61498923399098,景润一期,43,11769,无物业管理服务,-,辽宁,5,二手房,2000
大连市金州新区中长街道碧海尚城5-4号1-2层,大连,无开发商,金州,20190702,39.100290954587514,121.7304796052032,体育场小区,68,7319,街道办事处（居委会）代管物业,2,辽宁,5,二手房,1995
沙河口区民权街324号,大连,大连天河房地产开发集团有限公司,沙河口,20190702,38.92064616208148,121.59777611850379,民权小区,43,12698,大连福港物业管理有限公司,0.2,辽宁,5,二手房,1992
甘井子区中华路泉水A1区86号4单元1层1号,大连,大连科技园房地产开发有限公司,甘井子,20190702,39.0040531092963,121.60742125620513,奥林园,42,14161,大连衡德物业管理有限公司,0.5,辽宁,5,二手房,2004
金州区南棉路310号,大连,无开发商,金州,20190702,39.09939229372624,121.72414976100345,胜利小区,108,7975,无物业管理服务,0.5,辽宁,5,二手房,1986
甘井子区甘井子街3号公建,大连,无开发商,甘井子,20190702,38.982086281836246,121.63426694995971,甘泉小区,15,11713,街道办事处（居委会）代管物业,0.5,辽宁,5,二手房,2000
西岗区香炉礁24号1-1,大连,大连新型房地产开发有限公司,西岗,20190702,38.92047268927287,121.61862512554262,金海花园西园,46,12034,无物业管理服务,0.5,辽宁,5,二手房,2001
沙河口区西南路358号1—2号,大连,大连泰安房地产开发有限公司,沙河口,20190702,38.90839654326566,121.56908246905662,泰安花园,30,14389,大连三宝物业发展有限公司,0.5,辽宁,5,二手房,1998
沙河口区展望街29,大连,大连嘉源置业发展有限公司,沙河口,20190702,38.93473052900021,121.57390298303343,御园,39,18083,大连御博物业,2,辽宁,5,二手房,2010
甘井子区金家街17-7号,大连,大连嘉兴房地产开发有限公司,甘井子,20190702,38.97493697764367,121.60110987128529,青林美地,38,21153,大连嘉盛物业管理有限公司,0.5,辽宁,5,二手房,2003
沙河口区前程街46号4—1—2号,大连,大连台安房屋开发有限公司开发,甘井子,20190702,38.913544290955585,121.59450670056631,彩虹园,35,11016,渤海吉祥物业管理有限公司,0.4,辽宁,5,二手房,2000
甘井子区新兴路36号3-1-3,大连,大连新型房地产开发有限公司,甘井子,20190702,38.95800216293212,121.53151895549547,泡崖二区,91,10588,大连新兴物业管理有限公司,0.5,辽宁,5,二手房,1996
大连市甘井子区椒房街24号楼2-104链家地产,大连,中铁建（大连）置业有限公司,甘井子,20190702,38.985363789837166,121.61034055597686,青秀蓝湾一期,28,20130,中国铁建地产集团物业公司,1.5,辽宁,5,二手房,2016
大连市甘井子区椒房街24号楼2-104链家地产,大连,大连港置地有限公司,甘井子,20190702,38.985363789837166,121.61034055597686,大连港天下粮仓,21,20095,大连万科物业服务有限公司,2.2,辽宁,5,二手房,2017
甘井子区玉湖街18号1单元1-1,大连,大连新型房地产开发有限公司,甘井子,20190702,38.97554522550266,121.54552721066896,书香府第二期,23,11339,大连新型物业管理有限公司,0.5,辽宁,5,二手房,2002
沙河口区中山路417A-4号,大连,大连宝嘉房地产有限公司,沙河口,20190702,38.90740323140171,121.59484801084653,德源筑座,23,22091,大连乐尔居物业服务有限公司,2.5,辽宁,5,二手房,2008
甘井子区汇达园26号,大连,北亚实业集团股份有限公司大连开发区分公司,甘井子,20190702,38.99704654604941,121.59758808878767,北府花园,76,17072,大连优豪斯物业管理有限公司,0.5,辽宁,5,二手房,2005
中山区中青街87号一单元107,大连,大连亿达房地产股份有限公司,中山,20190702,38.90213494248529,121.65806522267005,青云林海,48,21472,亿达物业管理有限公司,1,辽宁,5,二手房,2001
中山区北斗街53号1层1号,大连,大连运达房地产集团有限公司,中山,20190702,38.92727355733075,121.67002970974048,运达嘉洲阳光,32,18949,大连运达物业有限公司,1.8,辽宁,5,二手房,2007
无门店信息,大连,大华集团大连置业有限公司,高新园区,20190702,34.52713835999158,118.76812980670795,大华锦绣华城四期,41,22583,大连大华物业管理有限公司,2.5,辽宁,5,二手房,2015
沙河口区黄河路883号,大连,无开发商,沙河口,20190702,38.919826721475204,121.57749657966676,沙区医院,26,13135,无物业管理服务,-,辽宁,5,二手房,1990
无门店信息,大连,开发区城建局,开发区,20190702,34.52713835999158,118.76812980670795,东居里,124,7018,大连经济技术开发区海青物业有限公司,0.2,辽宁,5,二手房,1996
中山区中南路店212号门头房,大连,无开发商,中山,20190702,38.91149759691359,121.67700561077149,中南路,61,12826,街道办事处（居委会）代管物业,-,辽宁,5,二手房,1989
沙河口区锦霞南园13号3-1-1,大连,大连锦绣房地产开发有限公司,沙河口,20190702,38.94761264366187,121.55126272246873,锦霞南园,51,11344,大连锦绣物业管理有限公司,0.3,辽宁,5,二手房,1998
开发区高新里6栋-8,大连,无开发商,开发区,20190702,39.0710895068195,121.82860134358343,高民里,72,6767,街道办事处（居委会）代管物业,0.2,辽宁,5,二手房,1996
西岗区黄河路82号,大连,大连民兴房地产开发有限公司,西岗,20190702,38.92243503020161,121.6287927913896,前城国际二期,32,23184,大连前城花园物业管理有限公司,1.5,辽宁,5,二手房,2000
"西岗区泰公街20号2层7号 西岗区久寿街22号1层14号""",大连,未知,西岗,20190702,38.92600196862723,121.62141976476381,北京街南,59,14219,大连长青物业管理中心,0.2,辽宁,5,二手房,1975
无门店信息,大连,大连亚联房地产开发有限公司,甘井子,20190702,34.52713835999158,118.76812980670795,翡翠春城,81,14633,大连亚联物业管理有限公司,1.6,辽宁,5,二手房,2010
甘井子区虹城路503号1-1号,大连,大连易和房地产集团有限公司,甘井子,20190702,38.981193588625004,121.49964051837122,岭秀滨城悦和中园,34,16073,大连易兴物业服务有限公司,1.3,辽宁,5,二手房,2009
甘井子区红旗西路104-7,大连,大连盛华房地产开发有限公司,甘井子,20190702,38.940335495502666,121.52722586363274,水映西山,60,15943,大连长青物业管理中心,0.9,辽宁,5,二手房,2007
沙河口区兰田街33号,大连,无开发商,沙河口,20190702,38.926138912221084,121.56486022834609,兰玉街,31,11910,街道办事处（居委会）代管物业,0.4,辽宁,5,二手房,1990
中山区同心街72号1楼公建,大连,大连泰宸房地产开发有限责任公司,中山,20190702,38.91979245940674,121.64769198230202,伊景华园,67,25974,街道办事处（居委会）代管物业,2.2,辽宁,5,二手房,2006
金州区光明街道育才街42-6号1-2层,大连,大连市金州区育才房地产开发有限公司,金州,20190702,39.109080894078986,121.7182584929096,职高小区,39,8615,大连金州育才物业管理有限公司,0.5,辽宁,5,二手房,1996
金州区金湾路132-2号,大连,无开发商,金州,20190702,39.10269111644727,121.72221060686516,胜利西小区,110,7586,街道办事处（居委会）代管物业,0.5,辽宁,5,二手房,1992
高新园区黄浦路600-602号,大连,大连鑫亿房屋开发有限公司,高新园区,20190702,38.86342472318123,121.53493189660259,新科花园,36,18283,大连鑫晟物业管理有限公司,0.6,辽宁,5,二手房,2003
西岗区香炉礁24号1-1,大连,大连新型房地产开发有限公司,西岗,20190702,38.92047268927287,121.61862512554262,金海花园东园,35,12808,大连新兴物业管理有限公司,0.5,辽宁,5,二手房,2001
沙河口区成仁街91号,大连,无开发商,沙河口,20190702,38.91539947107844,121.59585638842556,西安路公寓,16,13897,大连协和物业管理有限公司,0.5,辽宁,5,二手房,2000
"西岗区泰公街20号2层7号 西岗区久寿街22号1层14号""",大连,大连润德君城房地产开发有限公司,西岗,20190702,38.92600196862723,121.62141976476381,北京公园,43,24158,大连润德物业管理有限公司,2.2,辽宁,5,二手房,2010
沙河口区红凌路137号,大连,大连大实企业集团房屋开发有限公司,甘井子,20190702,38.922699288974506,121.54713601744747,泊林映山,35,12500,大连弘实物业管理有限公司,1.2,辽宁,5,二手房,2011
开发区黄海西路201号107公建,大连,无开发商,开发区,20190702,39.04942604506828,121.80126318235419,岗松里小区,113,7132,大连经济技术开发区海青物业有限公司,0.5,辽宁,5,二手房,1999
甘井子区玉丽街2号楼1单元4号公建,大连,暂无信息,甘井子,20190702,38.98705071699301,121.55513043130172,玉意街,55,10314,大连新兴物业管理有限公司,0.3,辽宁,4,二手房,2002
甘井子区玉云路27-3-1-3,大连,暂无信息,甘井子,20190702,38.97896234099927,121.55865563488358,泡崖新六区,47,11329,大连新型物业管理有限公司,0.3,辽宁,4,二手房,2001
中山区高尚路28-1号,大连,无开发商,中山,20190702,38.892673425111305,121.67148833870213,高尚路,28,10187,无物业管理服务,0.5,辽宁,4,二手房,1993
沙河口区黄河路535号,大连,大连首星房地产开发有限公司,沙河口,20190702,38.91773777159567,121.60217159922856,金色年华公馆,42,26387,大连首星物业管理有限公司,2.8,辽宁,4,二手房,2011
开发区东北三街94号1层,大连,大连同济房地产开发有限公司,开发区,20190702,39.05723508011585,121.80570768630555,新东方公寓三期,87,6638,大连同济物业管理有限公司,1.5,辽宁,4,二手房,2006
甘井子区山东路398号,大连,华润置地（大连）开发有限公司,甘井子,20190702,38.99821826443242,121.59274974973462,华润置地广场三期,51,22769,华润物业（大连）有限公司,2.9,辽宁,4,二手房,2014
"西岗区泰公街20号2层7号 西岗区久寿街22号1层14号""",大连,大连万达房地产开发有限公司,西岗,20190702,38.92600196862723,121.62141976476381,万达高层,16,11606,大连白云物业管理公司,0.3,辽宁,4,二手房,1995
中山区鲁迅路204号百盛新药特药商店一楼西侧部分,大连,无开发商,中山,20190702,38.9258993614899,121.6768880001226,鲁迅路（寺儿沟商圈）,14,11945,无物业管理服务,-,辽宁,4,二手房,1990
沙河口区西南路643号,大连,无开发商,沙河口,20190702,38.943483429804665,121.5833555851182,恒达花园（沙河口）,9,11490,无物业管理服务,-,辽宁,4,二手房,1990
开发区安盛里5栋-4,大连,中房集团大连房地产有限公司,开发区,20190702,23.112106678834838,113.27801046214822,盛德嘉洲,12,14013,大连中鸣物业服务有限公司,1.8,辽宁,4,二手房,2009
西岗区平等街21号1层2号,大连,辽宁宁安房地产开发有限公司,西岗,20190702,38.92251066253164,121.63236845125735,赛维利大厦,20,20044,大连良玖物业管理有限责任公司,1.5,辽宁,4,二手房,2004
甘井子辛吉街150号-7号,大连,大连金马房屋开发有限公司,甘井子,20190702,38.96368508446978,121.52671221254214,金马圣隆,32,13235,大连金马圣隆物业管理有限公司,0.5,辽宁,4,二手房,2006
沙河口区黄浦路18号—5号公建,大连,大连高新技术产业园区建设开发总公司,高新园区,20190702,38.8771225143479,121.54427480390662,学府1+1公寓,9,16174,街道办事处（居委会）代管物业,0.6,辽宁,4,二手房,2007
甘井子区泉水D1区10-2#1-1-7,大连,大连春达房屋开发有限公司,甘井子,20190702,39.01504676175047,121.61751269364314,景富铭苑,15,12362,庄河金城物业管理有限公司,0.5,辽宁,4,二手房,2004
甘井子区虹城路503号1-1号,大连,大连易和房地产集团有限公司,甘井子,20190702,38.981193588625004,121.49964051837122,岭秀滨城悦和西园,26,14072,大连易兴物业服务有限公司,1.3,辽宁,4,二手房,2009
中山区山屏街116号1-1,大连,大连中信海港投资有限公司,中山,20190702,38.90729438486833,121.68598159980013,山峦街,11,11831,无物业管理服务,-,辽宁,4,二手房,1990
沙河口区富国街14号1-1-2,大连,无开发商,沙河口,20190702,38.901027106600836,121.59047734850638,星云街,18,10887,无物业管理服务,-,辽宁,4,二手房,1995
大连市甘井子区丰收路3-5号,大连,无开发商,甘井子,20190702,38.965377255081755,121.58288415324094,顺发路,27,12586,街道办事处（居委会）代管物业,0.2,辽宁,4,二手房,1993
沙河口区鞍山路65号美都园7号1单元1层4号公建,大连,大连美辰房地产开发有限公司,沙河口,20190702,38.92755211283745,121.60306664748275,丽景春天,31,18887,大连远洋基业物业管理有限公司,0.8,辽宁,4,二手房,2003
无门店信息,大连,大连安邦房地产开发有限公司,甘井子,20190702,34.52713835999158,118.76812980670795,安邦阳光润城,39,13106,无物业管理服务,-,辽宁,4,二手房,2010
中山区鲁迅路184号1层B—A,大连,大连环海房地产开发有限公司,中山,20190702,38.92590875965419,121.67594393403164,环海公寓,12,11031,大连富民物业管理有限公司,0.5,辽宁,4,二手房,2002
大连市甘井子区丰收路3-5号,大连,大连铁路房地产开发有限责任公司,甘井子,20190702,38.965377255081755,121.58288415324094,王家桥小区,25,12843,大连铁路物业管理有限公司,0.1,辽宁,4,二手房,1989
无门店信息,大连,昕德（大连）房地产开发有限公司,金州,20190702,34.52713835999158,118.76812980670795,伟桥金北嘉园,66,7417,街道办事处（居委会）代管物业,0.5,辽宁,4,二手房,2012
中山区解放路471-22号,大连,大连圣北开发有限公司,中山,20190702,38.901309943567504,121.65419095766659,亿达云集,95,19986,亿达物业管理有限公司,1.9,辽宁,4,二手房,2015
沙河口区长江路738号,大连,无开发商,西岗,20190702,38.913544290955585,121.59450670056631,21中五一广场,29,20550,无物业管理服务,-,辽宁,4,二手房,1976
沙河口区长江路738号,大连,勋业（大连）置业有限公司,西岗,20190702,38.913544290955585,121.59450670056631,远洋风景,61,23558,大连远洋风景物业服务中心,1.9,辽宁,4,二手房,2007
中山区清溪南街11号,大连,大连锦绣房地产开发有限公司,中山,20190702,38.88919604283904,121.66466481004835,秀月广场,30,12494,无物业管理服务,0.5,辽宁,4,二手房,1994
大连市甘井子区七贤路8-3号,大连,大连瑞恒置业有限公司,高新园区,20190702,38.86602612116956,121.53842265737707,未名山,57,25928,大连龙湖物业服务有限公司,3,辽宁,4,二手房,2015
甘井子区玉丽街2号楼1单元4号公建,大连,大连新型房地产开发有限公司,甘井子,20190702,38.98705071699301,121.55513043130172,泡崖康馨园,31,10505,大连新兴物业管理有限公司,0.2,辽宁,4,二手房,2004
甘井子区泉水D6区51号,大连,大连时代房地产开发有限公司,甘井子,20190702,39.00897610161069,121.61789300655198,富士庄园,60,15942,大连佳泰物业管理有限公司,1.2,辽宁,4,二手房,2006
甘井子区红旗中路143号1层4号,大连,亿海房地产开发有限公司,甘井子,20190702,38.93169566676921,121.5426632438217,红旗西路,5,12312,大连万泰物业管理有限公司,0.2,辽宁,4,二手房,1997
无门店信息,大连,大连软件园瑞安发展有限公司,高新园区,20190702,34.52713835999158,118.76812980670795,大连天地悦翠台,100,15261,大连万科物业服务有限公司,1,辽宁,4,二手房,2012
开发区黄海西路201号107公建,大连,中信开发商,开发区,20190702,39.04942604506828,121.80126318235419,金海里,55,7379,大连中信物业管理有限公司,0.1,辽宁,4,二手房,2000
甘井子区绿洲园60号,大连,大连友谊合升房地产开发有限公司,甘井子,20190702,38.95390300214936,121.59409785747448,壹品天城,121,28942,大连富丽华物业管理有限公司,0.5,辽宁,4,二手房,2011
开发区红梅小区19栋-2-1-1号,大连,大连开发区世元房地产开发有限公司,开发区,20190702,29.906498897603264,121.5913630631805,世元国际公寓,37,11232,大连世元物业管理有限公司,2,辽宁,4,二手房,2008
甘井子区汇达园26号,大连,大连红星美凯龙投资发展有限公司,甘井子,20190702,38.99704654604941,121.59758808878767,红星国际广场,154,14708,红星物业管理有限公司,1.5,辽宁,4,二手房,2014
金州区站前街道盛滨花园B区13号楼2号公建,大连,大连阿尔滨集团房地产开发有限公司,金州,20190702,39.09609011892329,121.7335816409767,现代雅筑,45,6672,大连阿尔滨集团物业管理有限公司,0.5,辽宁,4,二手房,2004
甘井子区红旗西路104-23,大连,大连鹏德房屋开发有限公司,甘井子,20190702,38.94013845868325,121.5282577714263,逸林派,27,14901,大连三和住邦物业管理有限公司,1.6,辽宁,4,二手房,2010
中山区民建街10号1单元1号,大连,大连港连房地产开发有限公司,中山,20190702,38.925444479476894,121.66915026954452,海港公寓（三八广场）,24,21935,大连海港物业管理有限公司,0.2,辽宁,4,二手房,1996
天河路173-2号 华润考拉22号公建,大连,大连世隆房地产开发有限公司,甘井子,20190702,23.14720645345518,113.3277414923158,桑尼小镇,25,15326,大连大家物业管理有限公司,1.9,辽宁,4,二手房,2014
沙河口区黄河路883号,大连,大连正源房地产开发有限公司,沙河口,20190702,38.919826721475204,121.57749657966676,幸福e家四期,66,33208,大连正源物业服务有限公司,1.2,辽宁,4,二手房,2007
沙河口区星海广场B3区14-2号1层,大连,大连友谊合升房地产开发有限公司,沙河口,20190702,38.88693148294673,121.58735631267305,壹品星海公寓,35,18567,大连富丽华物业管理有限公司,2,辽宁,4,二手房,2003
开发区兴城路29-81层,大连,大连亿锋集团有限公司,开发区,20190702,39.050214252167194,121.75835946441768,亿锋广场三期,51,15118,大连广恒物业管理有限公司,2.8,辽宁,4,二手房,2015
甘井子区金家街17-7号,大连,无开发商,甘井子,20190702,38.97493697764367,121.60110987128529,金二小学北,15,22032,无物业管理服务,-,辽宁,4,二手房,1970
大连经济技术开发区时代城4-3号1-2号,大连,暂无信息,开发区,20190702,39.0992481321252,121.83007860699459,摩宿公寓,78,7467,大连远洋基业物业管理有限公司,1.5,辽宁,4,二手房,2012
高新园区红凌路732-4号,大连,大华集团大连置业有限公司,高新园区,20190702,38.90204708664442,121.53244406374695,大华锦绣华城二期,47,26060,大连大华物业管理有限公司,2.5,辽宁,4,二手房,2013
甘井子区红旗西路104-7,大连,大连盛达实业总公司,甘井子,20190702,38.940335495502666,121.52722586363274,盛新园,35,11896,大连盛新物业管理有限公司,0.3,辽宁,4,二手房,2000
西岗区大同街125号,大连,大连新型房地产开发有限公司,西岗,20190702,38.920458602340894,121.61445835429899,银寰花园,25,11224,街道办事处（居委会）代管物业,0.3,辽宁,4,二手房,1995
开发区大开高吉里33栋6号,大连,大连开建集团有限公司,开发区,20190702,39.07355836059941,121.8280439450145,高安里,57,6823,广宜物业有限公司,0.2,辽宁,4,二手房,1998
开发区润海园中区18#2号,大连,华润（大连）房地产有限公司,开发区,20190702,39.04047273176333,121.76392358042445,华润海中国六期,65,14681,华润物业（大连）有限公司,3.1,辽宁,4,二手房,2015
甘井子区华龙南园34-5号34-库4号34-5号,大连,大连运达房地产集团有限公司,甘井子,20190702,38.98270467597865,121.6117222765123,泊岭紫郡,38,13498,大连怡和物业服务有限公司,0.9,辽宁,4,二手房,2009
甘井子区促进路30号2-1-1,大连,大连天河房地产开发集团有限公司,甘井子,20190702,38.954133128707575,121.58355746311207,促进路,15,12062,无物业管理服务,0.1,辽宁,4,二手房,1982
开发区高新里6栋-8,大连,无开发商,开发区,20190702,39.0710895068195,121.82860134358343,高志里小区,44,6710,街道办事处（居委会）代管物业,0.3,辽宁,4,二手房,1993
大连市甘井子区丰收路3-5号,大连,大连智和房地产开发有限公司,甘井子,20190702,38.965377255081755,121.58288415324094,华锦铭苑,41,18725,大连东昌物业管理有限公司,1.3,辽宁,4,二手房,2009
沙河口区锦石路8号,大连,大连运腾房地产开发有限公司,沙河口,20190702,38.94771288948481,121.56110903658733,锦云南园,71,10159,大连锦绣物业管理有限公司,0.3,辽宁,4,二手房,1996
甘井子区惠泽南园3-4号,大连,大连九衡房地产开发有限公司,甘井子,20190702,38.939326611323615,121.52337842113351,易和熙园,26,19995,大连易兴物业服务有限公司,2.3,辽宁,4,二手房,2013
沙河口区恒利园42号-8,大连,无开发商,沙河口,20190702,38.93357562498634,121.57914091532649,新建小区,3,11528,无物业管理服务,-,辽宁,4,二手房,1980
金州区光明街道育才街42-6号1-2层,大连,无开发商,金州,20190702,39.109080894078986,121.7182584929096,职高西小区,20,8648,街道办事处（居委会）代管物业,0.5,辽宁,4,二手房,1989
开发区兴城路29-81层,大连,大连华宇房地产开发有限公司,开发区,20190702,39.050214252167194,121.75835946441768,华宇梧桐苑,17,13114,大连永嘉物业管理公司,1.9,辽宁,4,二手房,2013
开发区东北三街94号1层,大连,大连同济房地产开发有限公司,开发区,20190702,39.05723508011585,121.80570768630555,新东方公寓一期,43,5617,大连同济物业管理有限公司,1.5,辽宁,4,二手房,2005
甘井子辛吉街150号-7号,大连,"大连新界置业有限公司,大连新星房地产开发有限公司",甘井子,20190702,38.96368508446978,121.52671221254214,新星绿城三期,72,12827,大连生生物业管理有限公司,0.5,辽宁,4,二手房,2006
金州区同济路44号,大连,大连金宸集团,金州,20190702,39.10476859984152,121.71234684495865,连大文润金宸三期,53,11266,大连四通物业管理有限公司,1,辽宁,4,二手房,2010
大连市沙河口区知邻街50号,大连,大连软件园开发有限公司,沙河口,20190702,38.913544290955585,121.59450670056631,宅语原,66,20405,亿达物业管理有限公司,2,辽宁,4,二手房,2008
无门店信息,大连,大连万科房地产开发有限公司,旅顺口,20190702,34.52713835999158,118.76812980670795,万科樱花园,58,12784,大连万科物业服务有限公司,2.4,辽宁,4,二手房,2012
甘井子区山东路127-2号,大连,大连市大钢集团,甘井子,20190702,38.99065559549029,121.59126483545545,苍山路,46,12531,街道办事处（居委会）代管物业,0.4,辽宁,4,二手房,1989
金州区南棉路310号,大连,无开发商,金州,20190702,39.09939229372624,121.72414976100345,劳动局小区,116,8054,无物业管理服务,0.1,辽宁,4,二手房,1990
高新园区红凌路732-4号,大连,大连亿达房地产股份有限公司,高新园区,20190702,38.90204708664442,121.53244406374695,亿达峦翠园,39,20399,亿达物业管理有限公司,1.3,辽宁,4,二手房,2009
沙河口区联合路133号,大连,大连万达房地产开发有限公司,沙河口,20190702,38.91608561262676,121.60480987310456,79中万泰花园,36,26380,大连万泰物业管理有限公司,0.8,辽宁,4,二手房,1998
大连市金州区站前街道生辉第一城14-3号1-2层,大连,大连新天润企业集团有限公司,开发区,20190702,39.0569681786798,121.74773530665969,凯旋国际,110,7138,第一东方(大连)物业服务有限公司,2.3,辽宁,4,二手房,2008
中山区爱华街13号,大连,无开发商,中山,20190702,38.92541607518685,121.6535728031028,39中安阳街,37,25816,无物业管理服务,-,辽宁,4,二手房,1990
甘井子区锦城东园1号3单元1层2号,大连,大连锦绣房地产开发有限公司,沙河口,20190702,38.952805477462775,121.55656194973994,锦城东园,48,17989,大连锦绣物业管理有限公司,0.6,辽宁,4,二手房,2006
沙河口区华北路448号楼1-4公建,大连,无开发商,甘井子,20190702,38.903224944733765,121.56809734950556,周山街,27,16362,街道办事处（居委会）代管物业,0.5,辽宁,4,二手房,1989
开发区湾里南12栋-16-17-18号,大连,无开发商,开发区,20190702,39.070782084451,121.8506739675913,东城国际,41,8637,大连乾豪物业管理有限公司,1,辽宁,4,二手房,2006
大连市甘井子区泉水N2区3-13号,大连,大连半岛集团有限公司,甘井子,20190702,39.021116079001885,121.64659997607325,半岛泉水欣座,31,14928,大连半岛物业管理有限公司,1.5,辽宁,4,二手房,2010
开发区金源南里14栋-11号一层部分，14号-12号一层部分,大连,大连开建房地产开发有限公司,开发区,20190702,39.06148862675436,121.82503941311765,金源北里安居小区,73,8185,嘉兴物业管理有限公司,0.3,辽宁,4,二手房,1998
沙河口区锦石园24-7号第A2-13幢1单元1层1号,大连,大连锦绣房地产开发有限公司,沙河口,20190702,38.913544290955585,121.59450670056631,锦城园C区,26,15322,大连锦绣物业管理有限公司,0.6,辽宁,4,二手房,2005
金州区南棉路310号,大连,无开发商,金州,20190702,39.09939229372624,121.72414976100345,南山路（金州）,58,7349,街道办事处（居委会）代管物业,0.5,辽宁,4,二手房,1988
开发区杏树里10栋-14,大连,大连华宇房地产开发有限公司,开发区,20190702,39.08113818354046,121.78505742127606,华宇凤凰城,75,8357,大连华宇物业管理有限公司,1,辽宁,4,二手房,2007
沙河口区西南路643号,大连,大连海昌房屋开发有限公司,沙河口,20190702,38.943483429804665,121.5833555851182,兴港花园,4,12443,大连永佳物业管理有限公司,0.3,辽宁,3,二手房,1999
甘井子区泉水K2区1号-7,大连,暂无信息,甘井子,20190702,39.01148211821007,121.63131997900962,龙畔金泉五期K2区,54,13079,大连新兴物业管理有限公司,0.5,辽宁,4,二手房,2008
沙河口区西南路851号3单元1层3号,大连,暂无信息,沙河口,20190702,38.94344210837944,121.58246796944378,凌山三街,2,11170,无物业管理服务,-,辽宁,3,二手房,1990
中山区华乐街71号公建,大连,暂无信息,中山,20190702,38.923187679200566,121.6843197903016,东港印象DE区,17,14513,大连众和物业管理有限公司,1.2,辽宁,3,二手房,2008
无门店信息,大连,暂无信息,甘井子,20190702,34.52713835999158,118.76812980670795,亿达春田蝶园,62,17483,亿达物业管理有限公司,2.2,辽宁,3,二手房,2014
中山区岭前街53-5,大连,暂无信息,中山,20190702,38.89487069426055,121.65795959631497,胜鼎桃源,23,21302,暂无信息,1.8,辽宁,3,二手房,2015
甘井子区华北路花锦园28号23-3-1-2建筑物,大连,无开发商,甘井子,20190702,38.951627958411166,121.5739439799003,华北路（甘）,31,16530,街道办事处（居委会）代管物业,0.1,辽宁,3,二手房,1989
西岗区鞍山路29号龙畔锦城东门,大连,无开发商,西岗,20190702,38.92763470697088,121.61498923399098,铁路西站,24,12058,无物业管理服务,-,辽宁,3,二手房,1981
西岗区华北路100号1层5号,大连,大连万达房地产开发有限公司,西岗,20190702,38.92047268927287,121.61862512554262,香海花园,21,16447,大连万达物业管理有限公司,0.8,辽宁,3,二手房,1999
中山区中南路店212号门头房,大连,峰尚房屋开发有限公司,中山,20190702,38.91149759691359,121.67700561077149,峰尚中南,15,15981,大连银洲物业管理有限公司,2.2,辽宁,3,二手房,2011
沙河口区五一路270-274号,大连,大连誉园房地产开发有限公司,高新园区,20190702,38.913544290955585,121.59450670056631,斯坦福院落,23,21362,第一太平戴维斯物业顾问（北京）有限公司大连分公司,1.2,辽宁,3,二手房,2008
中山区金城街26号一楼,大连,暂无信息,中山,20190702,38.922282529515634,121.65214466263014,解放街,21,24357,无物业管理服务,-,辽宁,3,二手房,1982
甘井子区惠泽南园3-4号,大连,大连全统房地产开发有限公司,甘井子,20190702,38.939326611323615,121.52337842113351,全统西山丽水,15,15147,大连新华物业管理有限公司,0.5,辽宁,3,二手房,2008
西岗区长春路334号,大连,无开发商,西岗,20190702,38.89807766522607,121.63221082858387,星火小区,12,9390,大连自然物业管理中心,0.5,辽宁,3,二手房,1999
沙河口区华北路404号,大连,暂无信息,沙河口,20190702,38.8862815932937,121.59082948696123,柳华街,24,11123,无物业管理服务,0.1,辽宁,3,二手房,1985
甘井子区甘井子路32号楼1单元1楼9号,大连,大连市建设控股有限公司,甘井子,20190702,38.982488275116516,121.63345389253514,胜景家园,12,12647,街道办事处（居委会）代管物业,0.9,辽宁,3,二手房,2008
开发区松苑街23号,大连,大连天安房地产开发有限公司,开发区,20190702,22.52087435807652,113.40156105086167,天安海景花园,19,14070,大连港力物业管理有限公司,1.2,辽宁,3,二手房,2006
西岗区长春路334号,大连,大连万达房地产开发有限公司,西岗,20190702,38.89807766522607,121.63221082858387,石松小区,16,11006,大连白云物业管理有限公司,0.5,辽宁,3,二手房,1992
中山区杏林街66—5号,大连,无开发商,中山,20190702,38.92572771377599,121.66490555592502,39中民生里,9,28082,街道办事处（居委会）代管物业,0.5,辽宁,3,二手房,1990
中山区职工街96号1-3层公建,大连,大连名仕房地产开发有限公司,中山,20190702,38.92565613737007,121.66193575790903,名仕国际公寓,23,10883,大连名流物业有限公司,3.8,辽宁,3,二手房,2004
甘井子区玉丽街39号楼3号公建,大连,大连乾元房地产开发有限公司,甘井子,20190702,38.98706755029984,121.55605471197089,和合美家,14,13489,大连广兴物业管理有限公司,0.8,辽宁,3,二手房,2010
大连市甘井子区张前路620-18号（第19幢1单元1跃2层14号）,大连,无开发商,甘井子,20190702,38.98764207496216,121.52409526893047,嘉安边防家园,14,12464,大连新型物业管理有限公司,1,辽宁,3,二手房,2009
无门店信息,大连,暂无信息,旅顺口,20190702,34.52713835999158,118.76812980670795,荷塘悦色,34,8935,街道办事处（居委会）代管物业,-,辽宁,3,二手房,2012
甘井子区美域盛景A2区10-6,大连,大连时代房地产开发有限公司,甘井子,20190702,39.006221362805846,121.61022278003976,泉水友好园,38,13415,大连爱静物业服务有限公司,0.5,辽宁,3,二手房,1998
甘井子区泉水B5区27-9,大连,大连华智房地产开发有限公司,甘井子,20190702,39.01477152073682,121.60970286326823,华远新都汇广场,33,12162,街道办事处（居委会）代管物业,1,辽宁,3,二手房,2010
甘井子区红韵路114号,大连,大连亿达美加房地产开发有限公司,甘井子,20190702,38.95800216293212,121.53151895549547,第五郡六号地,43,29997,亿达物业管理有限公司,3,辽宁,3,二手房,2009
大连市沙河口区西南路875号1层21号,大连,无开发商,沙河口,20190702,38.94485969061231,121.58418648447764,西南路（春柳商圈）,14,10502,大连三宝物业有限公司,0.5,辽宁,3,二手房,1990
西岗区黄河路362号公建,大连,大连万峰房地产开发有限公司,西岗,20190702,38.91819905243802,121.61365779430986,万达华府一期,63,28004,大连万景物业管理有限公司,1.3,辽宁,3,二手房,2005
甘井子区知音园20号3单元1层1号,大连,大连诚信万奕房地产开发有限公司,高新园区,20190702,38.95800216293212,121.53151895549547,万奕学院派,25,27211,大连空港物业管理有限公司,1.2,辽宁,3,二手房,2010
沙河口区民权街324号,大连,大连城市建设集团有限公司,沙河口,20190702,38.92064616208148,121.59777611850379,天兴新家园,12,28472,大连天兴物业管理有限公司,0.5,辽宁,3,二手房,1999
中山区武昌街武昌公寓6号公建,大连,暂无信息,中山,20190702,38.912280913445784,121.64921130527547,学府林居,25,10283,暂无信息,1,辽宁,3,二手房,2000
沙河口区锦石园24-7号第A2-13幢1单元1层1号,大连,大连鼎新美地置业有限公司,甘井子,20190702,38.913544290955585,121.59450670056631,鼎新鼎润四季,27,20700,大连中原物业代理有限公司,1.2,辽宁,3,二手房,2010
无门店信息,大连,大连晨阳房地产开发有限公司,金州,20190702,34.52713835999158,118.76812980670795,金科理想城,32,9463,金科物业服务集团有限公司,1.6,辽宁,3,二手房,2014
甘井子区汇仁街19号12号楼1单元102室,大连,大连华南房地产开发有限公司,甘井子,20190702,38.99746297497168,121.58917714380617,名贵山庄金盛园,14,15475,大连弘益达物业管理有限公司,0.5,辽宁,3,二手房,2004
开发区景和园1-7,大连,开发区城建局,开发区,20190702,30.41892168817929,120.30896459202738,小孤山东里,91,6436,大连广谊物业管理有限公司,0.4,辽宁,3,二手房,2000
高新园区红凌路732-4号,大连,大华集团大连置业有限公司,高新园区,20190702,38.90204708664442,121.53244406374695,大华锦绣华城一期,54,25232,大连大华物业管理有限公司,2.5,辽宁,3,二手房,2010
大连市甘井子区椒房街24号楼2-104链家地产,大连,大连凯祥房地产开发有限公司,甘井子,20190702,38.985363789837166,121.61034055597686,椒金山庄,21,17057,大连凯祥物业管理有限公司,0.5,辽宁,3,二手房,2000
甘井子区红旗中路143号1层4号,大连,大连长鹭房屋开发有限公司,甘井子,20190702,38.93169566676921,121.5426632438217,西街晶品,25,18928,大连万泰物业管理有限公司,0.8,辽宁,3,二手房,2006
沙河口区杨树街4-4号公建,大连,大连金弘基房地产开发有限公司,高新园区,20190702,38.88444587249751,121.55130620045541,弘基二期,33,22827,大连金弘基物业管理有限公司,0.6,辽宁,3,二手房,2003
中山区中青街87号一单元107,大连,无开发商,中山,20190702,38.90213494248529,121.65806522267005,捷凤街,16,10475,无物业管理服务,-,辽宁,3,二手房,1990
金州区金润小区B区861单元102,大连,暂无信息,金州,20190702,39.10615165380565,121.74639264534615,自然天城C区,31,7706,大连新生活物业管理有限公司,0.4,辽宁,3,二手房,2010
甘井子区红南东街7-7号,大连,大连良运房地产开发有限公司,甘井子,20190702,38.92880462247992,121.54144910207062,山居笔记,20,16433,大连良运物业管理有限公司,1.5,辽宁,3,二手房,2009
甘井子区红旗西路104-7,大连,大连安邦房地产开发有限公司,甘井子,20190702,38.940335495502666,121.52722586363274,水畔香谷,13,14368,大连万科绿色家园物业有限公司,1,辽宁,3,二手房,2007
中山区金城街26号一楼,大连,辽宁远大房屋开发有限公司,中山,20190702,38.922282529515634,121.65214466263014,远大大厦,46,10033,街道办事处（居委会）代管物业,2.5,辽宁,3,二手房,2000
甘井子区红旗中路143号1层4号,大连,暂无信息,甘井子,20190702,38.93169566676921,121.5426632438217,湾家花园,8,12427,街道办事处（居委会）代管物业,0.2,辽宁,3,二手房,2000
无门店信息,大连,无开发商,西岗,20190702,34.52713835999158,118.76812980670795,双兴财富长街（大菜市商圈）,33,14139,街道办事处（居委会）代管物业,0.5,辽宁,3,二手房,2004
无门店信息,大连,大连祥和房屋开发有限公司,甘井子,20190702,34.52713835999158,118.76812980670795,祥和花园,44,12172,大连市大北物业管理有限公司,0.4,辽宁,3,二手房,2007
无门店信息,大连,大连软件园世通开发有限公司,高新园区,20190702,34.52713835999158,118.76812980670795,亿达普罗旺斯二期,87,20731,亿达物业管理有限公司,2.6,辽宁,3,二手房,2014
甘井子区玉湖街25号2单元1层3号,大连,大连新型房地产开发有限公司,甘井子,20190702,38.97626265183615,121.54617349027997,书香府第一期,13,12076,大连新兴物业管理有限公司,0.5,辽宁,3,二手房,2002
沙河口区成仁街91号,大连,大连万达房地产开发有限公司,沙河口,20190702,38.91539947107844,121.59585638842556,龙祥花园,19,24413,大连万达物业管理有限公司,0.8,辽宁,3,二手房,2001
高新园区硅谷假日小区25号楼地下室,大连,暂无信息,高新园区,20190702,38.86467854992112,121.53720784613759,硅谷假日公寓,18,14876,大连斌弘物业管理有限公司,1.5,辽宁,3,二手房,2005
甘井子区祥龙街2号楼1单元1楼1号,大连,大连宏孚房屋开发有限公司,甘井子,20190702,38.988045874482445,121.60439401971377,宏孚小区,36,10828,无物业管理服务,-,辽宁,3,二手房,1995
沙河口区星海广场B3区14-9,大连,大连友谊合升房地产开发有限公司,沙河口,20190702,38.88708614275256,121.58732027085938,壹品星海三期,47,23793,大连友谊物业服务有限公司,1.2,辽宁,3,二手房,2007
开发区红梅小区19栋-2-1-1号,大连,大开中和祥房地产开发有限公司,开发区,20190702,29.906498897603264,121.5913630631805,金丰大厦,46,9978,新加坡物业管理有限公司,1.9,辽宁,3,二手房,2012
金州新区八一路金都嘉园1号楼1号公建,大连,大连元新房地产开发有限公司,金州,20190702,39.05525210261778,121.74865634199398,华夏金城,63,9936,大连元新物业管理有限公司,1.2,辽宁,3,二手房,2008
中山区民运巷 47号1层2号,大连,无开发商,中山,20190702,38.905955122300846,121.64798148011702,西山巷,33,10242,无物业管理服务,0.3,辽宁,3,二手房,1992
金州区小平岛B组团4号楼3号商铺,大连,大连安达房地产开发有限公司,高新园区,20190702,39.05643299166072,121.78943558267059,小平岛亲海园A2组团,47,20652,大连凯尔富物业管理有限公司,1.7,辽宁,3,二手房,2007
中山区鲁迅路204号百盛新药特药商店一楼西侧部分,大连,无开发商,中山,20190702,38.9258993614899,121.6768880001226,春港街,4,11840,无物业管理服务,-,辽宁,3,二手房,1999
金州区凤翔路220号,大连,大连鸿玮置业有限公司,金州,20190702,39.08410553937731,121.77700083356399,鸿玮澜山一期,32,15023,大连鸿玮物业服务有限公司,1.8,辽宁,3,二手房,2009
大连市甘井子区融田西园52-11,大连,亿达集团大连科技城发展有限公司,甘井子,20190702,38.95800216293212,121.53151895549547,亿达春田馥园,63,19814,亿达物业管理有限公司,2.2,辽宁,3,二手房,2011
开发区大开高吉里33栋6号,大连,大连开建集团有限公司,开发区,20190702,39.07355836059941,121.8280439450145,高城花园,41,7719,嘉兴物业管理有限公司,0.2,辽宁,3,二手房,2001
中山区南山路59号1层4号,大连,大连铁路房地产开发有限责任公司,中山,20190702,38.91992239075882,121.6479206962747,延安小区,21,20780,大连铁路物业管理有限公司,0.5,辽宁,3,二手房,1995
沙河口区绿清街12号,大连,大连绿波房屋开发集团有限公司,沙河口,20190702,38.93851335419565,121.57334844377094,绿香花园,19,13325,大连大伟物业管理有限公司,0.4,辽宁,3,二手房,2001
甘井子区佳林北园2-7号,大连,大连瑞泰祥房地产开发有限公司,甘井子,20190702,38.96331610956877,121.52802328494242,缇香漫城,54,20855,大连瑞泰祥物业服务有限公司,2,辽宁,3,二手房,2013
无门店信息,大连,大连航宇房屋开发有限公司,甘井子,20190702,34.52713835999158,118.76812980670795,西郊棠梨园,14,12059,渤海吉祥物业管理有限公司,0.5,辽宁,3,二手房,2007
大连市甘井子区辛如街35号1单元1层1号,大连,大连新星房地产开发有限公司,甘井子,20190702,38.96862607066881,121.52294869064194,新星绿城四期,34,14667,大连生生物业管理有限公司,0.8,辽宁,3,二手房,2008
甘井子区泉水D1区37-7号,大连,大连运腾房地产开发有限公司,甘井子,20190702,39.013992871679214,121.61921940045104,锦泉源D4区,32,14023,大连嘉和物业管理有限公司,0.5,辽宁,3,二手房,2007
甘井子区泉水H3区15号3单元1层2号,大连,大连新型房地产开发有限公司,甘井子,20190702,39.00158439075201,121.62616882572375,龙畔金泉三期,57,13333,大连新型物业管理有限公司,0.5,辽宁,3,二手房,2004
中山区益民街16号1层1号,大连,中海地产,中山,20190702,38.93092761298906,121.66470740073377,中海海港城,80,19417,中海物业,4.2,辽宁,3,二手房,2015
甘井子区凌秀路37号-1链家地产,大连,大连九九集团有限公司,高新园区,20190702,38.883794285403965,121.52361997548515,文荟小区,10,12848,大连理工物业管理中心,0.5,辽宁,3,二手房,1990
西岗区黄河路362号公建,大连,大连万佳房地产开发有限公司,西岗,20190702,38.91819905243802,121.61365779430986,优豪斯,12,25347,大连万佳物业管理有限公司,1.2,辽宁,3,二手房,2003
沙河口区昌黎街22号,大连,大连城市建设集团有限公司,沙河口,20190702,38.91975785098891,121.59109628369768,天兴罗斯福,52,16215,大连天兴物业管理有限公司,1.6,辽宁,3,二手房,2004
西岗区八一路102号,大连,无开发商,西岗,20190702,38.92047268927287,121.61862512554262,杏环街,17,9834,无物业管理服务,-,辽宁,3,二手房,1994
西岗区新田巷11号三单元103,大连,无开发商,西岗,20190702,38.89276612016956,121.64190731791966,新船巷,31,9759,无物业管理服务,-,辽宁,3,二手房,1992
西岗区平等街21号1层2号,大连,裕景兴业（大连）有限公司,西岗,20190702,38.92251066253164,121.63236845125735,中心裕景,102,20968,第一太平戴维斯物业顾问（北京）有限公司大连分公司,3.8,辽宁,3,二手房,2012
甘井子区甘井子路32号楼1单元1楼9号,大连,无开发商,甘井子,20190702,38.982488275116516,121.63345389253514,杨柳街,14,10258,街道办事处（居委会）代管物业,0.5,辽宁,3,二手房,1990
甘井子区虹港路16号楼1层公建,大连,大连建园房地产开发有限公司,甘井子,20190702,38.9645939333502,121.553851837474,城市印象,48,15403,大连天兴物业管理有限公司,1.8,辽宁,3,二手房,2011
开发区正恒园1-16,大连,大连富华房地产有限公司,开发区,20190702,39.04823944344617,121.76165468797754,正泰园A区,15,12018,嘉泰物业管理有限公司,1.9,辽宁,3,二手房,2012
中山区同心街72号1楼公建,大连,无开发商,中山,20190702,38.91979245940674,121.64769198230202,南山里,16,18653,无物业管理服务,-,辽宁,3,二手房,1990
无门店信息,大连,大连腾达房地产开发有限公司,中山,20190702,34.52713835999158,118.76812980670795,紫竹轩,7,16845,大连市晟阳物业管理有限公司,1,辽宁,3,二手房,2003
甘井子金地艺境博艺西园2-1号,大连,大连天盛房地产开发有限公司,甘井子,20190702,39.04402110608829,121.665484498555,金地檀境,72,15072,大连金地物业管理有限公司,2.6,辽宁,3,二手房,2016
金州区光明街道育才街42-6号1-2层,大连,三门振兴房产开发公司,金州,20190702,39.109080894078986,121.7182584929096,育才小区,16,8161,无物业管理服务,-,辽宁,3,二手房,1989
甘井子区柳树南街45-11号,大连,大连顺达房屋开发有限公司,甘井子,20190702,38.92567666296449,121.4841330254372,顺达温泉花园二期,21,11776,大连顺达物业服务有限公司,0.6,辽宁,3,二手房,2004
开发区湾里南12栋-16-17-18号,大连,大连金湾实业有限公司,开发区,20190702,39.070782084451,121.8506739675913,湾里西,71,7688,广宜物业有限公司,0.2,辽宁,3,二手房,1996
开发区杏花里13#楼-7号,大连,无开发商,开发区,20190702,31.31075067906954,120.63127837058457,杏花里,65,6775,大连经济技术开发区杏林物业管理有限公司,0.3,辽宁,3,二手房,1993
无门店信息,大连,大连铁龙房地产开发有限公司,甘井子,20190702,34.52713835999158,118.76812980670795,连海金源,30,14140,大连铁龙安居物业管理有限公司,1.3,辽宁,3,二手房,2011
无门店信息,大连,大连乾豪集团有限公司,开发区,20190702,34.52713835999158,118.76812980670795,乾豪新界,81,11306,大连乾豪物业管理有限公司,1.7,辽宁,3,二手房,2015
金州区光明街道育才街42-6号1-2层,大连,无开发商,金州,20190702,39.109080894078986,121.7182584929096,光明小区(金州),11,8676,无物业管理服务,0.5,辽宁,3,二手房,1995
甘井子区虹港路16号楼1层公建,大连,亿达房地产开发有限公司,甘井子,20190702,38.9645939333502,121.553851837474,虹港路（机场商圈）,38,12865,亿达物业管理有限公司,0.2,辽宁,3,二手房,1996
大连市开发区湾里东5-6号,大连,大连明和房地产开发有限公司,开发区,20190702,39.07275772231556,121.85888789351343,青国青城,66,11358,大连豪斯沃克物业有限公司,1.5,辽宁,3,二手房,2014
经济技术开发区城润万家4-5号公建,大连,大连海汇房地产开发有限公司,开发区,20190702,39.05716325096989,121.75946281983826,正源吉祥e家,60,12308,大连正源物业服务有限公司,1,辽宁,3,二手房,2013
西岗区胜利路33号,大连,暂无信息,西岗,20190702,38.91309771954841,121.62500886627636,34中纪念街,61,25185,无物业管理服务,-,辽宁,3,二手房,1990
大连市金州新区友谊街道和平路59-10号1-2层公建,大连,无开发商,金州,20190702,39.112168401852266,121.72006917947859,古城乙区,195,7507,无物业管理服务,-,辽宁,3,二手房,1992
甘井子区甘井子街3号公建,大连,无开发商,甘井子,20190702,38.982086281836246,121.63426694995971,新街,16,9707,无物业管理服务,-,辽宁,3,二手房,1988
沙河口区五一路326号,大连,无开发商,高新园区,20190702,38.913544290955585,121.59450670056631,双语学校,14,22026,无物业管理服务,0.2,辽宁,3,二手房,1998
无门店信息,大连,大连市中联房地产开发有限公司,金州,20190702,34.52713835999158,118.76812980670795,卧龙园,27,6707,大连健龙物业管理有限公司,0.5,辽宁,3,二手房,2009
金州新区八一路金都嘉园1号楼1号公建,大连,大连市金州区房屋开发公司,金州,20190702,39.05525210261778,121.74865634199398,古城丁区,173,7360,街道办事处（居委会）代管物业,0.1,辽宁,3,二手房,1993
沙河口区知心园10号公建,大连,暂无信息,高新园区,20190702,38.893977135945136,121.55667141994431,亿达康派公寓,21,16907,亿达物业管理有限公司,2.2,辽宁,3,二手房,2006
开发区景和园1-7,大连,无开发商,开发区,20190702,30.41892168817929,120.30896459202738,古耕景和园,41,9428,街道办事处（居委会）代管物业,0.5,辽宁,3,二手房,2008
经济技术开发区红星海-A区81-2号1层,大连,远洋地产有限公司,开发区,20190702,39.027851194371685,121.80327394132297,红星海三期境界,96,14017,大连远洋基业物业管理有限公司,2.2,辽宁,3,二手房,2012
高新园区黄浦路901S号1单元1层3号,大连,大连金真源集团房地产开发有限公司,高新园区,20190702,38.85845801548294,121.51687109601923,山海一家一期,49,14416,大连龙海物业管理有限公司,0.6,辽宁,3,二手房,2005
甘井子区华龙南园12-4-3-1-3,大连,大连瑞祥房地产开发有限公司,甘井子,20190702,38.98528794231248,121.61028969481718,今都小区,48,12186,大连泰安物业管理有限公司,0.2,辽宁,3,二手房,1996
中山区爱华街13号,大连,无开发商,中山,20190702,38.92541607518685,121.6535728031028,九中安民街,27,37550,无物业管理服务,-,辽宁,3,二手房,1995
甘井子区锦城东园1号3单元1层2号,大连,大连鹏生房地产开发有限公司,甘井子,20190702,38.952805477462775,121.55656194973994,鹏辉新纪元,18,16340,大连鹏辉物业管理有限公司,0.5,辽宁,3,二手房,2006
无门店信息,大连,大连金地房地产开发有限公司,金州,20190702,34.52713835999158,118.76812980670795,金地新里程,45,6835,大连金铭物业管理有限公司,0.8,辽宁,3,二手房,2008
开发区黄海西路201号107公建,大连,开发区城建局,开发区,20190702,39.04942604506828,121.80126318235419,东阁里,45,6981,大连经济技术开发区海青物业有限公司,0.4,辽宁,3,二手房,1994
中山区职工街96号1-3层公建,大连,大连泛华房屋开发有限公司,中山,20190702,38.92565613737007,121.66193575790903,泛华领城,33,13485,无物业管理服务,3.2,辽宁,3,二手房,2012
沙河口区南沙街36号台二2号1-1-37,大连,大连鹏生房地产开发有限公司,沙河口,20190702,38.90741410359388,121.57685699961822,鹏顺园,51,25271,大连新型物业管理有限公司,0.5,辽宁,3,二手房,2000
中山区民建街10号1单元1号,大连,无开发商,中山,20190702,38.925444479476894,121.66915026954452,39中明阳街,36,19848,无物业管理服务,-,辽宁,3,二手房,1993
中山区爱华街13号,大连,无开发商,中山,20190702,38.92541607518685,121.6535728031028,九中安乐街,47,36686,无物业管理服务,-,辽宁,3,二手房,1990
开发区红星海B区212-1,大连,远洋地产有限公司,开发区,20190702,39.027851194371685,121.80327394132297,红星海五期岚谷,126,13881,大连远洋基业物业管理有限公司,2.2,辽宁,3,二手房,2012
甘井子区玉丽街39号楼3号公建,大连,大连润置房地产有限公司,甘井子,20190702,38.98706755029984,121.55605471197089,华润二十四城,24,19316,华润物业（大连）有限公司,3.1,辽宁,3,二手房,2018
中山区民建街10号1单元1号,大连,无开发商,中山,20190702,38.925444479476894,121.66915026954452,39中和阳街,17,18874,无物业管理服务,-,辽宁,3,二手房,1990
沙河口区恒利园42号-8,大连,大连三寰房屋开发有限公司,沙河口,20190702,38.93357562498634,121.57914091532649,三寰芳草园,23,16392,大连空港物业管理有限公司,0.4,辽宁,3,二手房,2003
金州区拥政街道733号-8号1-2层,大连,大连市金州区房屋开发公司,金州,20190702,39.11690610445662,121.73030803603723,桂林小区,82,7127,街道办事处（居委会）代管物业,0.3,辽宁,3,二手房,1993
沙河口区中山路417A-4号,大连,无开发商,沙河口,20190702,38.90740323140171,121.59484801084653,同泰街,22,12921,无物业管理服务,0.5,辽宁,3,二手房,1999
甘井子区泉水K4区1号2单元1层1号,大连,暂无信息,甘井子,20190702,39.01482019232349,121.63242049308988,龙畔金泉五期K3区,66,13938,大连新兴物业管理有限公司,0.5,辽宁,3,二手房,2008
甘井子区华东路22号公建,大连,无开发商,甘井子,20190702,38.97736184953593,121.5935814234334,秀山路,30,12110,街道办事处（居委会）代管物业,0.5,辽宁,3,二手房,1986
无门店信息,大连,北方沿海房地产开发（大连）有限公司,沙河口,20190702,34.52713835999158,118.76812980670795,星海大观,224,17428,北京世邦魏理仕物业管理服务有限公司大连分公司,4.4,辽宁,3,二手房,2008
甘井子区红旗花园23号楼19-24轴公建,大连,大连银泰房地产有限公司,甘井子,20190702,38.93108029984587,121.54902145022133,祥和园,21,14376,无物业管理服务,0.5,辽宁,3,二手房,2001
大连市开发区抚顺街30号,大连,无开发商,开发区,20190702,38.92272284555705,121.5977239817503,翠南管委会院,24,9745,街道办事处（居委会）代管物业,0.5,辽宁,3,二手房,1998
甘井子区柳树南街45-11号,大连,大连顺达房屋开发有限公司,甘井子,20190702,38.92567666296449,121.4841330254372,顺达温泉花园一期,9,11320,大连顺达物业服务有限公司,0.6,辽宁,2,二手房,2003
沙河口区鞍山路65号美都园7号1单元1层4号公建,大连,远洋地产有限公司,沙河口,20190702,38.92755211283745,121.60306664748275,绿都园,18,14421,大连峰霖物业管理有限公司,0.6,辽宁,2,二手房,2000
中山区清溪南街11号,大连,大连澳南房屋开发有限公司,中山,20190702,38.88919604283904,121.66466481004835,明秀嘉园,6,24705,大连澳南物业管理有限公司,1.2,辽宁,2,二手房,2007
无门店信息,大连,大连新兴海韵房地产开发有限公司,开发区,20190702,34.52713835999158,118.76812980670795,白石湾小区,15,9565,大连海韵物业管理有限公司,0.8,辽宁,2,二手房,2006
开发区大开高吉里33栋6号,大连,无开发商,开发区,20190702,39.07355836059941,121.8280439450145,高安里回迁楼,11,8330,大连华宸物业管理有限公司,0.2,辽宁,2,二手房,1998
沙河口区连山街10号2-1-2,大连,大连城市建设集团有限公司,沙河口,20190702,38.89637522563413,121.57143690983219,莱州街,39,11051,无物业管理服务,-,辽宁,2,二手房,1990
沙河口区黄河路535号,大连,大连金广地产集团有限公司,沙河口,20190702,38.91773777159567,121.60217159922856,79中美加华公寓,34,21615,大连亮泰安邦物业有限公司,2,辽宁,2,二手房,2008
中山区同心街72号1楼公建,大连,大连万达房地产开发有限公司,西岗,20190702,38.91979245940674,121.64769198230202,雍景台,7,18049,大连万达物业管理有限公司,3.5,辽宁,2,二手房,2000
无门店信息,大连,大连新兴海韵房地产开发有限公司,开发区,20190702,34.52713835999158,118.76812980670795,山海家园,17,15670,大连经济技术开发区通讯物业有限公司,0.5,辽宁,2,二手房,2004
甘井子辛吉街150号-7号,大连,大连新星房地产开发有限公司,甘井子,20190702,38.96368508446978,121.52671221254214,新星绿城一期,34,12082,大连生生物业管理有限公司,0.5,辽宁,2,二手房,2003
西岗区九三街64号,大连,大连金福星房地产开发有限公司,西岗,20190702,38.92047268927287,121.61862512554262,金福星大厦,7,8612,大连金星物业管理中心,2.2,辽宁,2,二手房,2001
大连市沙河口区西南路875号1层21号,大连,大连泰安房地产开发有限公司,沙河口,20190702,38.94485969061231,121.58418648447764,春柳河小区,17,11475,大连三宝物业有限公司,0.5,辽宁,2,二手房,2001
中山区民运巷 47号1层2号,大连,大连新型房地产开发总公司,中山,20190702,38.905955122300846,121.64798148011702,葵英小区,9,12925,街道办事处（居委会）代管物业,0.3,辽宁,2,二手房,1999
沙河口区连山街10号2-1-2,大连,无开发商,沙河口,20190702,38.89637522563413,121.57143690983219,桃山电业楼,4,13053,无物业管理服务,-,辽宁,2,二手房,1998
沙河口区长江路946号-9,大连,无开发商,沙河口,20190702,38.913544290955585,121.59450670056631,机车商厦,7,13943,街道办事处（居委会）代管物业,0.3,辽宁,2,二手房,1997
沙河口区黄河路883号,大连,无开发商,沙河口,20190702,38.919826721475204,121.57749657966676,黄河路（辽师商圈）,2,11804,大连辽南物业管理有限公司,0.5,辽宁,2,二手房,1970
中山区金城街26号一楼,大连,无开发商,中山,20190702,38.922282529515634,121.65214466263014,友好路,6,15207,无物业管理服务,-,辽宁,2,二手房,1990
沙河口区连山街44-2号半地下一层（地上一层部分）,大连,大连宏都房地产开发有限公司,沙河口,20190702,38.892991456958086,121.57299542767161,宏都筑景Ⅱ期,7,26233,东方百瑞物业有限公司,1.8,辽宁,2,二手房,2012
西岗区长春路334号,大连,无开发商,西岗,20190702,38.89807766522607,121.63221082858387,曙光巷,15,11257,无物业管理服务,-,辽宁,2,二手房,1990
中山区共建巷61号,大连,无开发商,中山,20190702,38.91828093658718,121.66259221532148,39中望海街,12,25842,街道办事处（居委会）代管物业,0.5,辽宁,2,二手房,1995
甘井子区华北路花锦园28号23-3-1-2建筑物,大连,大连东特房地产开发有限公司,甘井子,20190702,38.951627958411166,121.5739439799003,东特金星公馆,33,16191,大连东特祥禾物业管理有限公司,1.2,辽宁,2,二手房,2009
甘井子区华北路花锦园28号23-3-1-2建筑物,大连,大连东特房地产开发有限公司,甘井子,20190702,38.951627958411166,121.5739439799003,星加坡花园,22,18206,大连东特祥禾物业管理有限公司,0.6,辽宁,2,二手房,2004
金州新区先进街道五一路350-1号1-2层,大连,暂无信息,金州,20190702,39.078667146419825,121.77094423323935,聚鑫小区一期,58,7625,大连新生活物业管理有限公司,0.5,辽宁,2,二手房,1993
西岗区新田巷27号1-2,大连,大连海苑房屋开发有限公司,西岗,20190702,38.893215932589385,121.64103065169111,半岛故乡,5,16556,大连半岛物业管理有限公司,0.8,辽宁,2,二手房,2002
西岗区胜利路33号,大连,大连恒盛房屋开发有限公司,西岗,20190702,38.91309771954841,121.62500886627636,盛阳山庄,10,11298,大连佳捷物业管理有限公司,0.5,辽宁,2,二手房,1999
甘井子区鹏辉新世纪1幢1单元1-3号房屋（海口路99号）,大连,暂无信息,甘井子,20190702,38.96077365187575,121.60514653016222,鹏辉新世纪三期北园,21,16659,大连鹏辉物业管理有限公司,0.6,辽宁,2,二手房,2003
大连市金州新区中长街道碧海尚城5-4号1-2层,大连,大连微软房地产开发有限公司,金州,20190702,39.100290954587514,121.7304796052032,冠军大厦,13,7552,街道办事处（居委会）代管物业,1,辽宁,2,二手房,2002
甘井子区金家街17-7号,大连,暂无信息,甘井子,20190702,38.97493697764367,121.60110987128529,金源花园,9,19504,无物业管理服务,-,辽宁,2,二手房,2000
天河路173-2号 华润考拉22号公建,大连,大连华南房地产开发有限公司,甘井子,20190702,23.14720645345518,113.3277414923158,名贵山庄华丽园,15,13581,大连弘益达物业管理有限公司,0.5,辽宁,2,二手房,2002
甘井子区芳韵街31号,大连,亿达集团大连房地产开发有限公司,甘井子,20190702,38.95628814568166,121.59125586946814,亿达世纪城,56,24372,亿达物业管理有限公司,0.9,辽宁,2,二手房,2002
中山区南山路59号1层4号,大连,无开发商,中山,20190702,38.91992239075882,121.6479206962747,同心街（昆明街）,10,15779,无物业管理服务,-,辽宁,2,二手房,1991
无门店信息,大连,大连安邦房地产开发有限公司,甘井子,20190702,34.52713835999158,118.76812980670795,西郊闲庭,19,12586,大连龙城物业服务有限公司,1,辽宁,2,二手房,2010
沙河口区敦煌路357号10-11轴公建,大连,大连银泰房地产有限公司,沙河口,20190702,38.93891619583455,121.59150694046835,敦煌大厦,4,9936,大连银泰物业管理有限公司,0.5,辽宁,2,二手房,1999
开发区东北三街94号1层,大连,大连同济房地产开发有限公司,开发区,20190702,39.05723508011585,121.80570768630555,新东方公寓二期,48,5641,大连同济物业管理有限公司,1.5,辽宁,2,二手房,2007
甘井子区泉水P3区35-2号,大连,暂无信息,甘井子,20190702,39.01530162252779,121.63546089163083,泉水P2区,5,11389,暂无信息,1.2,辽宁,2,二手房,2014
西岗区绕山路31号公建一层东侧,大连,无开发商,西岗,20190702,38.90257514466717,121.61412736644739,槐花大厦,11,9299,无物业管理服务,-,辽宁,2,二手房,1997
中山区中南路226号,大连,大连亿成房屋开发有限公司,中山,20190702,38.90029610333926,121.68178899957817,亿成花园,5,14852,大连维尔利物业管理有限公司,0.8,辽宁,2,二手房,2000
开发区红梅小区19栋-2-1-1号,大连,无开发商,开发区,20190702,29.906498897603264,121.5913630631805,金玛海景,7,11941,街道办事处（居委会）代管物业,1,辽宁,2,二手房,2007
无门店信息,大连,暂无信息,旅顺口,20190702,34.52713835999158,118.76812980670795,熙龙山庄,88,8404,大连市辰馨物业服务有限公司,1,辽宁,2,二手房,2005
甘井子区红旗中路143号1层4号,大连,大连红旗兴达房地产开发有限公司,甘井子,20190702,38.93169566676921,121.5426632438217,吉祥街,7,11309,大连金诚物业管理有限公司,0.2,辽宁,2,二手房,1996
大连市甘井子区钻石湾和信园13-5,大连,远洋地产有限公司,甘井子,20190702,38.958699272665584,121.61903564217761,远洋钻石湾一期,88,23859,大连远洋基业物业管理有限公司,2.7,辽宁,2,二手房,2014
中山区民建街10号1单元1号,大连,无开发商,中山,20190702,38.925444479476894,121.66915026954452,39中民建街,10,19593,无物业管理服务,-,辽宁,2,二手房,1995
西岗区长红街4号1号公建,大连,暂无信息,西岗,20190702,38.91377414665191,121.6302525225721,34中长红街,28,24633,无物业管理服务,-,辽宁,2,二手房,1960
无门店信息,大连,无开发商,金州,20190702,34.52713835999158,118.76812980670795,金山名苑,20,9639,大连金山物业管理有限公司,0.5,辽宁,2,二手房,2009
无门店信息,大连,大连海华房地产开发有限公司,甘井子,20190702,34.52713835999158,118.76812980670795,丽湾海景,33,12111,大连海华房地产开发有限公司,0.5,辽宁,2,二手房,2010
沙河口区富国街34-3,大连,无开发商,沙河口,20190702,38.90159716600704,121.58930603357904,星海街,35,12282,无物业管理服务,-,辽宁,2,二手房,1990
甘井子区泉水P3区35-2号,大连,暂无信息,甘井子,20190702,39.01530162252779,121.63546089163083,泉水P1区,14,10905,暂无信息,1.2,辽宁,2,二手房,2012
中山区武昌街武昌公寓6号公建,大连,大连武昌房地产开发有限公司,中山,20190702,38.912280913445784,121.64921130527547,部居逸阁,25,13419,大连宜佳物业管理有限公司,1,辽宁,2,二手房,2005
金州区站前街道盛滨花园B区13号楼2号公建,大连,无开发商,金州,20190702,39.09609011892329,121.7335816409767,金源花园小区,20,6886,街道办事处（居委会）代管物业,0.5,辽宁,2,二手房,1998
中山区解放路604号,大连,无开发商,中山,20190702,38.89026319122045,121.66407876092346,鸣鹤街,8,15139,街道办事处（居委会）代管物业,0.5,辽宁,2,二手房,1998
沙河口区连山街10号2-1-2,大连,无开发商,沙河口,20190702,38.89637522563413,121.57143690983219,连山街,7,14382,街道办事处（居委会）代管物业,0.5,辽宁,2,二手房,1993
沙河口区中山路417A-4号,大连,大连电业房地产开发有限公司,沙河口,20190702,38.90740323140171,121.59484801084653,电力公寓,11,15937,街道办事处（居委会）代管物业,0.7,辽宁,2,二手房,2000
金州区拥政街道733号-8号1-2层,大连,大连盛铭资产管理有限公司,金州,20190702,39.11690610445662,121.73030803603723,安盛花园（金州）,22,10835,大连经济技术开发区海青物业有限公司,1,辽宁,2,二手房,2000
金州区光明街道育才街42-6号1-2层,大连,暂无信息,金州,20190702,39.109080894078986,121.7182584929096,芙蓉花园（金州）,28,9723,大连金州新区建房物业管理中心,0.6,辽宁,2,二手房,2007
甘井子区金北路17号,大连,暂无信息,甘井子,20190702,38.97553393692831,121.59969720502335,76中学桥南,73,16143,大连新华物业管理有限公司,0.2,辽宁,2,二手房,1970
中山区碧浪园4号-3号,大连,大连三寰房地产开发有限公司,中山,20190702,38.89147289460474,121.69329560326236,碧浪园二期,14,17002,大连峰霖物业管理有限公司,0.3,辽宁,2,二手房,2002
甘井子区锦城西园4#3-1-1,大连,大连锦绣房地产开发有限公司,沙河口,20190702,38.95286223185571,121.55129044777,锦华北园,85,14038,大连锦绣物业管理有限公司,0.6,辽宁,2,二手房,2002
西岗区新田巷27号1-2,大连,无开发商,西岗,20190702,38.893215932589385,121.64103065169111,新丽街,14,9651,无物业管理服务,-,辽宁,2,二手房,1992
大连市甘井子区逸林南园1-1号,大连,暂无信息,甘井子,20190702,38.95800216293212,121.53151895549547,三鼎春天B区,42,27791,瑞联德（大连）物业管理有限公司,3.2,辽宁,2,二手房,2015
金州新区八一路金都嘉园1号楼1号公建,大连,无开发商,金州,20190702,39.05525210261778,121.74865634199398,永安小区,47,6894,无物业管理服务,0.5,辽宁,2,二手房,1999
沙河口区新生路万客园3-7,大连,暂无信息,沙河口,20190702,38.94412875710208,121.57006756704837,中海天赋山二期,24,19730,大连中海物业管理有限公司,2.8,辽宁,2,二手房,2017
中山区中南路店212号门头房,大连,无开发商,中山,20190702,38.91149759691359,121.67700561077149,转山小区,18,12757,大连怡和物业服务有限公司,0.3,辽宁,2,二手房,1990
甘井子区金北街17号,大连,大连悦泰集团有限公司,甘井子,20190702,38.95800216293212,121.53151895549547,悦泰馨家,30,25332,大连优豪斯物业管理有限公司,0.5,辽宁,2,二手房,2003
中山区北斗街53号1层1号,大连,大连大森房地产开发有限公司,中山,20190702,38.92727355733075,121.67002970974048,东港林苑,21,17244,大连美心物业管理有限公司,2.8,辽宁,2,二手房,2013
大连市金州区友谊街道南金华城25号1-2层1号,大连,大连金华房地产开发有限公司,金州,20190702,39.128677228885614,121.71356109978767,金华小区二期,39,8216,大连金华兴物业有限公司,0.5,辽宁,2,二手房,2006
无门店信息,大连,大连光伸房地产开发有限公司,开发区,20190702,34.52713835999158,118.76812980670795,光伸卧龙港湾,19,9065,大连经济技术开发区光伸物业服务有限公司,1.5,辽宁,2,二手房,2014
金州区拥政街道733号-8号1-2层,大连,无开发商,金州,20190702,39.11690610445662,121.73030803603723,花园小区,20,8285,大连四通物业管理有限公司,0.1,辽宁,2,二手房,1993
无门店信息,大连,暂无信息,金州,20190702,34.52713835999158,118.76812980670795,天鸿展视界,31,7253,无物业管理服务,-,辽宁,2,二手房,-
无门店信息,大连,大连融和房地产开发有限公司,开发区,20190702,34.52713835999158,118.76812980670795,岚山著作,35,9632,大连昌和物业管理有限公司,1.3,辽宁,2,二手房,2014
大连市开发区裕民新苑42-7,大连,无开发商,开发区,20190702,39.070771020021674,121.85093056856022,澳东世纪,30,11390,街道办事处（居委会）代管物业,0.5,辽宁,2,二手房,2002
中山区解放路471-22号,大连,无开发商,中山,20190702,38.901309943567504,121.65419095766659,解放路（青云街商圈）,8,12043,街道办事处（居委会）代管物业,0.6,辽宁,2,二手房,1997
中山区职工街96号1-3层公建,大连,无开发商,中山,20190702,38.92565613737007,121.66193575790903,警后大院（三八广场）,19,15001,无物业管理服务,-,辽宁,2,二手房,1993
高新园区黄浦路901S号1单元1层3号,大连,大连金真源集团房地产开发有限公司,高新园区,20190702,38.85845801548294,121.51687109601923,山海一家二期,31,14032,大连龙海物业管理有限公司,0.8,辽宁,2,二手房,2005
高新园区火炬路18号,大连,大连千业房地产开发有限公司,高新园区,20190702,38.937738080520404,117.39340752036043,第8区,36,17585,大连大管家物业管理有限公司,1.9,辽宁,2,二手房,2010
无门店信息,大连,大连北方工业房屋开发公司,西岗,20190702,34.52713835999158,118.76812980670795,温馨花园（胜利桥北商圈）,3,10960,北方物业开发有限公司,0.5,辽宁,2,二手房,1999
大连市金州新区友谊街道和平路59-10号1-2层公建,大连,大连金连房地产开发有限公司,金州,20190702,39.112168401852266,121.72006917947859,金连佳地,18,11125,街道办事处（居委会）代管物业,1.5,辽宁,2,二手房,2010
中山区华乐街71号公建,大连,暂无信息,中山,20190702,38.923187679200566,121.6843197903016,东港印象A区,14,19499,大连众和物业管理有限公司,1.2,辽宁,2,二手房,2008
开发区大开高吉里33栋6号,大连,无开发商,开发区,20190702,39.07355836059941,121.8280439450145,高吉里,30,6578,广宜物业有限公司,0.2,辽宁,2,二手房,1998
大连市沙河口区知邻街50号,大连,大连亿达房地产股份有限公司,沙河口,20190702,38.913544290955585,121.59450670056631,东方圣荷西,35,24647,亿达物业管理有限公司,2.6,辽宁,2,二手房,2008
莲花山路89-3号,大连,无开发商,沙河口,20190702,38.902848261803356,121.6041720815823,新华街,15,13435,无物业管理服务,-,辽宁,2,二手房,1999
甘井子区玉丽街39号楼3号公建,大连,暂无信息,甘井子,20190702,38.98706755029984,121.55605471197089,泡崖康祥园,21,11513,大连新兴物业管理有限公司,0.5,辽宁,2,二手房,2005
沙河口区西南路643号,大连,大连澳南房屋开发公司,沙河口,20190702,38.943483429804665,121.5833555851182,金福小区,13,11240,无物业管理服务,-,辽宁,2,二手房,2000
沙河口区华北路404号,大连,无开发商,沙河口,20190702,38.8862815932937,121.59082948696123,华北路（春柳商圈）,12,10744,街道办事处（居委会）代管物业,0.1,辽宁,2,二手房,1980
中山区益民街16号1层1号,大连,大连三鑫房地产开发有限公司,中山,20190702,38.93092761298906,121.66470740073377,金和苑,16,22600,大连报业物业管理有限公司三鑫分公司,3.5,辽宁,2,二手房,2004
沙河口区黑石礁街3号1层1-1号,大连,无开发商,沙河口,20190702,38.880058010307856,121.56313403908827,东财烛光园,7,18285,无物业管理服务,-,辽宁,2,二手房,1988
开发区黄海西路201号107公建,大连,大连中信海港投资有限公司,开发区,20190702,39.04942604506828,121.80126318235419,润泽园小区,55,9676,大连新华物业管理有限公司,1.2,辽宁,2,二手房,2010
沙河口区五四路207-1-9号,大连,大连华邦房地产开发有限公司,沙河口,20190702,38.913544290955585,121.59450670056631,华邦上都,20,18806,大连华邦物业有限公司,1.7,辽宁,2,二手房,2006
沙河口区前程街15号1层E-C轴36-44轴公建,大连,大连安邦房地产开发有限公司,甘井子,20190702,38.91588050824643,121.60099647548584,阳光百合,12,17254,渤海吉祥物业管理有限公司,0.8,辽宁,2,二手房,2004
开发区安盛里5栋-4,大连,大连万晟房地产开发有限公司,开发区,20190702,23.112106678834838,113.27801046214822,宜家大院,18,8785,大连万晟置业有限公司,0.8,辽宁,2,二手房,2002
沙河口区黄浦路18号—5号公建,大连,大连良运房地产开发有限公司,高新园区,20190702,38.8771225143479,121.54427480390662,翰林观海,29,22733,大连良运物业管理有限公司,0.8,辽宁,2,二手房,2003
大连市甘井子区丰收路3-5号,大连,大连壹高房地产发展有限公司,甘井子,20190702,38.965377255081755,121.58288415324094,朗香小镇,17,22213,大连顶点物业管理有限公司,1.3,辽宁,2,二手房,2011
中山区清溪南街11号,大连,无开发商,中山,20190702,38.88919604283904,121.66466481004835,小龙街,15,17879,无物业管理服务,0.5,辽宁,2,二手房,1985
中山区爱华街13号,大连,大连华鹏房地产有限公司,中山,20190702,38.92541607518685,121.6535728031028,海派优座,14,15901,第一东方（大连）物业服务有限公司,2.5,辽宁,2,二手房,2008
沙河口区五四路207-1-9号,大连,无开发商,沙河口,20190702,38.913544290955585,121.59450670056631,五四路,15,12261,无物业管理服务,-,辽宁,2,二手房,1992
中山区虎滩路176号4-1-2,大连,大连国泰房地产开发有限公司,中山,20190702,38.890884710033156,121.69257379232747,帝柏湾,18,21664,加拿大高力国际物业服务有限公司,2,辽宁,2,二手房,2007
中山区共建巷61号,大连,无开发商,中山,20190702,38.91828093658718,121.66259221532148,39中明泽街,15,23422,无物业管理服务,-,辽宁,2,二手房,1993
无门店信息,大连,大连振富房屋开发有限公司,西岗,20190702,34.52713835999158,118.76812980670795,振富公寓（胜利桥北商圈）,38,8978,大连中海振富物业管理有限公司,1.1,辽宁,2,二手房,2002
经济技术开发区城润万家4-5号公建,大连,诠盛置业（大连）有限公司,开发区,20190702,39.05716325096989,121.75946281983826,清都记忆,44,12327,金科物业服务集团有限公司,0.5,辽宁,2,二手房,2010
中山区岭前街53-5,大连,大连铭泰房地产开发有限公司,中山,20190702,38.89487069426055,121.65795959631497,锦府桃源,21,24150,大连意美物业服务有限公司,1.2,辽宁,2,二手房,2009
无门店信息,大连,大连宝泰华置业发展有限公司,金州,20190702,34.52713835999158,118.76812980670795,海天富地,36,12799,大连戴德梁行物业管理有限公司,1.6,辽宁,2,二手房,2012
沙河口区连山街44-2号半地下一层（地上一层部分）,大连,大连亿达房地产股份有限公司,沙河口,20190702,38.892991456958086,121.57299542767161,星海小区,22,11457,无物业管理服务,-,辽宁,2,二手房,1996
开发区小孤山西里3栋-11号,大连,大连开发区世元房地产开发有限公司,开发区,20190702,39.02715282297674,121.80682183666346,东庭印象,27,10062,大连经济技术开发区鹏达物业管理有限公司,1.2,辽宁,2,二手房,2007
中山区华乐街71号公建,大连,大连中银房地产开发有限公司,中山,20190702,38.923187679200566,121.6843197903016,澳景园,37,17752,大连衡德物业管理有限公司,1,辽宁,2,二手房,2003
金州新区八一路金都嘉园1号楼1号公建,大连,大连天程置业有限公司,金州,20190702,39.05525210261778,121.74865634199398,御河壹號,11,10001,大连天程置业有限公司,1.2,辽宁,2,二手房,2015
沙河口区五一路110-4号,大连,大连大重房屋开发有限公司,沙河口,20190702,38.913544290955585,121.59450670056631,星台花园一期,34,16088,大连大重房屋开发公司物业管理中心,-,辽宁,2,二手房,1998
中山区民建街10号1单元1号,大连,无开发商,中山,20190702,38.925444479476894,121.66915026954452,39中顺阳街,36,20264,无物业管理服务,-,辽宁,2,二手房,1995
中山区华乐街93—1号,大连,大连鸿雁房地产开发公司,中山,20190702,38.921950924512124,121.68673151242629,海之恋花园,28,16853,大连鸿雁物业有限公司,0.8,辽宁,2,二手房,2001
中山区中青街43号,大连,大连亿达房地产股份有限公司,中山,20190702,38.90150598268117,121.65711014604845,青云映山,20,27168,亿达物业管理有限公司,1.3,辽宁,2,二手房,2005
中山区民建街10号1单元1号,大连,无开发商,中山,20190702,38.925444479476894,121.66915026954452,39中爱阳街,25,20201,无物业管理服务,-,辽宁,2,二手房,1993
开发区润海园中区62-9,大连,暂无信息,开发区,20190702,39.04047273176333,121.76392358042445,大连海湾城二期,45,13370,大连金广物业服务有限公司,2.6,辽宁,2,二手房,2012
沙河口区五一路109-4号,大连,大连正源房地产开发有限公司,沙河口,20190702,38.913544290955585,121.59450670056631,幸福e家一期,22,31353,大连正源物业服务有限公司,0.8,辽宁,2,二手房,2002
开发区松苑街23号,大连,无开发商,开发区,20190702,22.52087435807652,113.40156105086167,松峪里一期,15,12259,大连中信物业管理有限公司,0.5,辽宁,2,二手房,2000
甘井子区华龙南园34-5号34-库4号34-5号,大连,中信集团大连中信房地产开发公司,甘井子,20190702,38.98270467597865,121.6117222765123,惠丰小区,26,10001,大连中信物业管理有限公司,0.2,辽宁,2,二手房,1989
无门店信息,大连,大连软件园恒荣开发有限公司,高新园区,20190702,34.52713835999158,118.76812980670795,亿达普罗旺斯三期,28,21049,亿达物业管理有限公司,2.6,辽宁,2,二手房,2017
沙河口区黑石礁街5号1层1号,大连,大连鹏生房地产开发有限公司,沙河口,20190702,38.879813345473714,121.56313742300513,鹏莱花园,13,14874,大连新兴物业管理有限公司,0.3,辽宁,2,二手房,1998
沙河口区昌黎街77号楼第1层公建,大连,大连城市建设集团有限公司,沙河口,20190702,38.91974518366595,121.5902918379551,79中君安公寓,10,18039,大连广安物业有限公司,1.2,辽宁,2,二手房,1998
金州新区站前街道生辉第一城5号楼1-2层4号,大连,大连博洋房地产开发有限公司,金州,20190702,39.05819721414208,121.74650438736514,金洋小区,24,6647,街道办事处（居委会）代管物业,0.1,辽宁,2,二手房,2000
金州区小平岛B组团4号楼3号商铺,大连,大连安达房地产开发有限公司,高新园区,20190702,39.05643299166072,121.78943558267059,小平岛E东组团,34,21609,大连凯尔富物业管理有限公司,1.3,辽宁,2,二手房,2007
沙河口区富国街14号1-1-2,大连,无开发商,沙河口,20190702,38.901027106600836,121.59047734850638,星月街,9,11754,街道办事处（居委会）代管物业,0.5,辽宁,2,二手房,-
中山区华乐街71号公建,大连,大连环海房地产开发有限公司,中山,20190702,38.923187679200566,121.6843197903016,华乐小区,17,14448,大连景和物业管理有限公司,0.5,辽宁,2,二手房,2000
中山区鲁迅路184号1层B—A,大连,无开发商,中山,20190702,38.92590875965419,121.67594393403164,39中山岳街,14,17671,无物业管理服务,-,辽宁,2,二手房,1998
红星海A区126-4,大连,大连光伸房地产开发有限公司,开发区,20190702,39.027851194371685,121.80327394132297,绿洲半岛三期,41,10083,大连经济技术开发区光伸物业服务有限公司,0.6,辽宁,2,二手房,2005
高新园区红凌路732-4号,大连,大华集团大连房地产开发有限公司,高新园区,20190702,38.90204708664442,121.53244406374695,大华爱琴湾,43,21161,大连大华物业管理有限公司,1.8,辽宁,2,二手房,2016
大连市开发区湾里东5-6号,大连,大连德玉隆房地产开发有限公司,开发区,20190702,39.07275772231556,121.85888789351343,康馨壹品,45,11066,大连亚航物业管理有限公司,1,辽宁,2,二手房,2014
甘井子区柳树南街45-11号,大连,中海新海汇（大连）置业有限公司,甘井子,20190702,38.92567666296449,121.4841330254372,中海御湖熙谷,76,15124,大连中海物业管理有限公司,2.2,辽宁,2,二手房,2013
高新园区火炬路18号,大连,大连海创房地产开发有限公司,高新园区,20190702,38.937738080520404,117.39340752036043,芝麻街,66,14115,大连海创物业管理有限公司,2.4,辽宁,2,二手房,2010
西岗区新田巷27号1-2,大连,无开发商,西岗,20190702,38.893215932589385,121.64103065169111,新昌街,20,10161,无物业管理服务,-,辽宁,2,二手房,1996
莲花山路89-3号,大连,无开发商,沙河口,20190702,38.902848261803356,121.6041720815823,拥民巷,4,11067,无物业管理服务,-,辽宁,2,二手房,2000
甘井子区泉水P3区35-2号,大连,大连鑫成置业有限公司,甘井子,20190702,39.01530162252779,121.63546089163083,欧尚广场,48,17894,大连宏华物业服务有限公司,1.5,辽宁,2,二手房,2009
无门店信息,大连,暂无信息,开发区,20190702,34.52713835999158,118.76812980670795,十里岗小区,65,5870,大连经济技术开发区盛辉物业服务有限公司,0.5,辽宁,2,二手房,1996
沙河口区星海广场B3区14-2号1层,大连,大连友谊合升房地产开发有限公司,沙河口,20190702,38.88693148294673,121.58735631267305,壹品星海一期,51,23338,大连友谊物业服务有限公司,1.3,辽宁,2,二手房,2004
沙河口区星海广场B3区14-2号1层,大连,大连万达房地产开发有限公司,沙河口,20190702,38.88693148294673,121.58735631267305,大连明珠,69,26727,大连万象美物业管理有限公司,3.5,辽宁,2,二手房,2008
无门店信息,大连,大连鹏辉房地产开发有限公司,甘井子,20190702,34.52713835999158,118.76812980670795,鹏辉新天居三期,55,14040,大连鹏辉物业管理有限公司,0.8,辽宁,2,二手房,2009
中山区高尚路28-1号,大连,无开发商,中山,20190702,38.892673425111305,121.67148833870213,高原街,30,10259,街道办事处（居委会）代管物业,0.5,辽宁,2,二手房,1996
沙河口区中山路417A-4号,大连,无开发商,沙河口,20190702,38.90740323140171,121.59484801084653,连华街,14,15981,无物业管理服务,-,辽宁,2,二手房,1995
金州区同济路44号,大连,大连金开信都房地产开发有限公司,金州,20190702,39.10476859984152,121.71234684495865,海天新界,52,8272,大连西海岸物业管理有限公司,1,辽宁,2,二手房,2009
西岗区长春路334号,大连,无开发商,西岗,20190702,38.89807766522607,121.63221082858387,南石巷,11,11441,无物业管理服务,0.5,辽宁,2,二手房,1992
开发区杏树里10栋-14,大连,大连经济技术开发区城市建设开发有限公司,开发区,20190702,39.08113818354046,121.78505742127606,颐馨园,12,9105,大连经济技术开发区杏林物业管理有限公司,0.8,辽宁,2,二手房,2005
大连市金州新区中长街道碧海尚城5-4号1-2层,大连,无开发商,金州,20190702,39.100290954587514,121.7304796052032,于洼小区,63,7267,街道办事处（居委会）代管物业,0.1,辽宁,2,二手房,1990
沙河口区鞍山路65号美都园7号1单元1层4号公建,大连,大连良运房地产开发有限公司,沙河口,20190702,38.92755211283745,121.60306664748275,良运缤纷四季,38,21769,大连良运物业管理有限公司,0.8,辽宁,2,二手房,2006
甘井子区柳树南街45-10号,大连,大连顺达房屋开发有限公司,甘井子,20190702,38.92567666296449,121.4841330254372,顺达温泉花园三期,35,11863,大连顺达物业服务有限公司,0.6,辽宁,2,二手房,2005
甘井子区迎客路郭东街一品蓝天公建14号,大连,沈阳军区后勤部,甘井子,20190702,38.958456949708726,121.556756277476,金寓花园三期,6,17243,大连瑞祥物业管理有限公司,1,辽宁,2,二手房,2009
沙河口区西南路40号楼,大连,大连金通房屋开发有限公司,沙河口,20190702,38.94143337232082,121.58616557598133,海韵花园,13,13703,大连金通物业管理有限公司,0.4,辽宁,2,二手房,2000
开发区高新里6栋-8,大连,无开发商,开发区,20190702,39.0710895068195,121.82860134358343,怡海花园一期,26,7380,街道办事处（居委会）代管物业,0.2,辽宁,2,二手房,2001
甘井子区华北路花锦园28号23-3-1-2建筑物,大连,无开发商,甘井子,20190702,38.951627958411166,121.5739439799003,久胜街,23,16358,街道办事处（居委会）代管物业,0.1,辽宁,2,二手房,1989
中山区岭前街53-5,大连,无开发商,中山,20190702,38.89487069426055,121.65795959631497,岭前街,15,14790,街道办事处（居委会）代管物业,0.4,辽宁,2,二手房,1995
无门店信息,大连,大连金石文化旅游投资有限公司,金州,20190702,34.52713835999158,118.76812980670795,大连金石天成,47,8610,大连万达物业管理有限公司,1.8,辽宁,2,二手房,2009
金州区小平岛B组团4号楼3号商铺,大连,安达圣岛开发有限公司,高新园区,20190702,39.05643299166072,121.78943558267059,小平岛亲海园,65,17359,大连凯尔富物业管理有限公司,1.3,辽宁,2,二手房,2007
中山区民建街10号1单元1号,大连,无开发商,中山,20190702,38.925444479476894,121.66915026954452,39中学士街,36,19431,无物业管理服务,-,辽宁,2,二手房,1995
金州区同济路44号,大连,大连永乐房地产开发有限公司,金州,20190702,39.10476859984152,121.71234684495865,永乐金庭,38,9955,大连天河物业管理有限公司,0.8,辽宁,2,二手房,2006
甘井子区亿家缘虹韵路205,大连,大连耕海置业有限公司,甘井子,20190702,38.95647848453699,121.53130152244339,国民院子,33,21082,大连耕海物业管理有限公司,2,辽宁,2,二手房,2012
无门店信息,大连,大连招源房地产有限公司,甘井子,20190702,34.52713835999158,118.76812980670795,招商海德公园,23,17704,招商局物业管理有限公司大连分公司,2.6,辽宁,2,二手房,2018
甘井子区祥龙街2号楼1单元1楼1号,大连,大连源隆房地产开发有限公司,甘井子,20190702,38.988045874482445,121.60439401971377,鑫汇茗苑,13,16899,大连佳和物业管理有限公司,1.6,辽宁,2,二手房,2011
中山区东港龙湖水晶郦湾7-102,大连,大连德威佳业投资有限公司,中山,20190702,38.924700620463895,121.70344398518496,东港天鹅湾,95,27783,哈尔滨德润物业管理有限公司大连分公司,4.8,辽宁,2,二手房,2018
西岗区平等街21号1层2号,大连,辽宁宁安房地产开发有限公司,西岗,20190702,38.92251066253164,121.63236845125735,良玖国际,38,16244,大连良玖物业管理有限责任公司,3.7,辽宁,2,二手房,2005
西岗区鞍山路29号龙畔锦城东门,大连,大连铁路房地产开发有限责任公司,西岗,20190702,38.92763470697088,121.61498923399098,龙畔锦城,48,19890,大连亚航物业管理有限公司,1.2,辽宁,2,二手房,2009
西岗区中山路158号唐山街市场外14号,大连,暂无信息,西岗,20190702,38.91688106727098,121.63201298398174,34中松花街,13,27035,无物业管理服务,-,辽宁,2,二手房,1980
西岗区新田巷27号1-2,大连,无开发商,西岗,20190702,38.893215932589385,121.64103065169111,新河街,15,10675,无物业管理服务,-,辽宁,2,二手房,1995
中山区清溪南街11号,大连,大连澳南房屋开发有限公司,中山,20190702,38.88919604283904,121.66466481004835,明秀山庄B区,31,35494,绿城物业服务集团有限公司大连分公司,1.9,辽宁,2,二手房,2008
无门店信息,大连,大连盈丰置业有限公司,金州,20190702,34.52713835999158,118.76812980670795,尚海华庭,40,9183,大连盈丰置业有限公司,1.3,辽宁,2,二手房,2014
金州区光明街道育才街42-6号1-2层,大连,大连市金州区光明房地产开发有限公司,金州,20190702,39.109080894078986,121.7182584929096,学府世家,2,11598,大连永和物业管理有限公司,1.2,辽宁,1,二手房,2011
甘井子区泉水H3区15号3单元1层2号,大连,大连新型房地产开发有限公司,甘井子,20190702,39.00158439075201,121.62616882572375,龙畔金泉一期,11,10969,大连新型物业管理有限公司,0.5,辽宁,1,二手房,2002
沙河口区五四路207-1-9号,大连,无开发商,沙河口,20190702,38.913544290955585,121.59450670056631,新生巷,1,12325,街道办事处（居委会）代管物业,0.5,辽宁,1,二手房,-
无门店信息,大连,大连裕安房地产开发有限公司,甘井子,20190702,34.52713835999158,118.76812980670795,金塘裕墅,6,27173,大连旺宇物业有限公司,3.5,辽宁,1,二手房,2014
中山区清溪南街11号,大连,大连澳南房屋开发有限公司,中山,20190702,38.88919604283904,121.66466481004835,清溪南苑,3,19376,大连中园房地产物业公司,0.6,辽宁,1,二手房,2003
中山区武昌街武昌公寓6号公建,大连,无开发商,中山,20190702,38.912280913445784,121.64921130527547,绿山巷,1,15488,无物业管理服务,-,辽宁,1,二手房,1986
中山区中青街87号一单元107,大连,无开发商,中山,20190702,38.90213494248529,121.65806522267005,光华巷,4,10943,无物业管理服务,-,辽宁,1,二手房,1990
中山区民运巷 47号1层2号,大连,大连连城房地产开发有限公司,中山,20190702,38.905955122300846,121.64798148011702,葵英林苑,6,16565,无物业管理服务,-,辽宁,1,二手房,2003
中山区中青街87号一单元107,大连,无开发商,中山,20190702,38.90213494248529,121.65806522267005,葵英街（青云街商圈）,5,11025,无物业管理服务,-,辽宁,1,二手房,1992
中山区山屏街116号1-1,大连,暂无信息,中山,20190702,38.90729438486833,121.68598159980013,山屏美境,6,16978,无物业管理服务,3.5,辽宁,1,二手房,2009
甘井子区华北路花锦园28号23-3-1-2建筑物,大连,暂无信息,甘井子,20190702,38.951627958411166,121.5739439799003,周水子广场,0,14654,无物业管理服务,0.5,辽宁,1,二手房,1990
中山区杏林街66—5号,大连,无开发商,中山,20190702,38.92572771377599,121.66490555592502,39中丰阳巷,5,29214,街道办事处（居委会）代管物业,0.5,辽宁,1,二手房,1995
西岗区平等街21号1层2号,大连,无开发商,西岗,20190702,38.92251066253164,121.63236845125735,兴业街（大菜市商圈）,7,11771,无物业管理服务,0.5,辽宁,1,二手房,1996
无门店信息,大连,暂无信息,金州,20190702,34.52713835999158,118.76812980670795,金馨园一区,2,6806,暂无信息,-,辽宁,1,二手房,-
大连市沙河口区西南路875号1层21号,大连,暂无信息,沙河口,20190702,38.94485969061231,121.58418648447764,凌云一街,0,9602,暂无信息,-,辽宁,1,二手房,-
中山区鲁迅路204号百盛新药特药商店一楼西侧部分,大连,暂无信息,中山,20190702,38.9258993614899,121.6768880001226,华山街,0,10335,无物业管理服务,-,辽宁,1,二手房,-
中山区中南路店212号门头房,大连,大连金广地产集团有限公司,中山,20190702,38.91149759691359,121.67700561077149,迎宾花园,1,13515,大连德一物业管理有限公司,1.2,辽宁,1,二手房,2003
中山区同心街72号1楼公建,大连,无开发商,中山,20190702,38.91979245940674,121.64769198230202,胜利东路,0,15082,无物业管理服务,-,辽宁,1,二手房,1988
甘井子区华北路花锦园28号23-3-1-2建筑物,大连,无开发商,甘井子,20190702,38.951627958411166,121.5739439799003,华北路（周水子商圈）,11,15525,无物业管理服务,-,辽宁,1,二手房,1995
中山区民建街10号1单元1号,大连,无开发商,中山,20190702,38.925444479476894,121.66915026954452,39中鲁迅路（三八广场）,1,20250,无物业管理服务,-,辽宁,1,二手房,1995
西岗区康平街2号（5号楼3-1-3号）,大连,暂无信息,西岗,20190702,38.91044414697888,121.61980769264477,胜利路（莲花白云商圈）,1,10716,无物业管理服务,-,辽宁,1,二手房,1999
沙河口区连山街10号2-1-2,大连,大连宝嘉房地产有限公司,沙河口,20190702,38.89637522563413,121.57143690983219,星海名庭,8,22793,大连斌宏物业管理有限公司,0.6,辽宁,1,二手房,2005
沙河口区知心园10号公建,大连,亿达房地产开发有限公司,高新园区,20190702,38.893977135945136,121.55667141994431,亿达康派,6,18894,亿达物业管理有限公司,1.5,辽宁,1,二手房,2006
中山区职工街96号1-3层公建,大连,大连天通房地产开发有限公司,中山,20190702,38.92565613737007,121.66193575790903,天通金融大厦,5,11468,无物业管理服务,-,辽宁,1,二手房,1998
中山区爱华街13号,大连,无开发商,中山,20190702,38.92541607518685,121.6535728031028,九中一德街,14,41523,无物业管理服务,-,辽宁,1,二手房,1984
中山区三八广场5号,大连,大连宏正房地产开发有限公司,中山,20190702,38.92540000551715,121.6642911149562,宏都嘉园,1,22368,大连宏进物业管理有限公司,1.5,辽宁,1,二手房,2002
金州新区八一路金都嘉园1号楼1号公建,大连,大连海洋房地产开发有限公司,金州,20190702,39.05525210261778,121.74865634199398,金都嘉园,6,8965,街道办事处（居委会）代管物业,0.5,辽宁,1,二手房,2009
开发区大开高吉里33栋6号,大连,大连联富地产有限公司,开发区,20190702,39.07355836059941,121.8280439450145,城宁家园,6,9407,大连联富物业有限公司,1.5,辽宁,1,二手房,2015
高新园区敬贤街25-9,大连,中海东丰地产（大连）有限公司,高新园区,20190702,38.86879447142154,121.53007349209936,中海紫御观邸一期,10,25851,大连中海物业管理有限公司,2.6,辽宁,1,二手房,2010
沙河口区绿清街12号,大连,大连绿波房屋开发集团有限公司,沙河口,20190702,38.93851335419565,121.57334844377094,绿波公寓,6,9016,大连绿波建设发展有限公司,0.5,辽宁,1,二手房,1999
大连经济技术开发区同和里7栋-9号,大连,无开发商,开发区,20190702,39.04901984220615,121.7885236929847,山水花园小区,7,12874,大连经济技术开发区白石物业管理有限公司,0.5,辽宁,1,二手房,2000
中山区山屏街116号1-1,大连,无开发商,中山,20190702,38.90729438486833,121.68598159980013,怡梦园,6,15158,无物业管理服务,-,辽宁,1,二手房,1900
开发区安盛里5栋-4,大连,大连光伸房地产开发有限公司,开发区,20190702,23.112106678834838,113.27801046214822,光伸外企公寓,13,6539,无物业管理服务,0.5,辽宁,1,二手房,2001
沙河口区西南路851号3单元1层3号,大连,无开发商,沙河口,20190702,38.94344210837944,121.58246796944378,凌山二街,8,11192,无物业管理服务,-,辽宁,1,二手房,1985
开发区金源南里14栋-11号一层部分，14号-12号一层部分,大连,暂无信息,开发区,20190702,39.06148862675436,121.82503941311765,瑞景园,4,7645,暂无信息,0.8,辽宁,1,二手房,1998
甘井子区华北路花锦园28号23-3-1-2建筑物,大连,大连鼎新恒盛房地产开发有限公司,甘井子,20190702,38.951627958411166,121.5739439799003,鼎新悦府,9,24105,大连万润物业服务有限公司,1.5,辽宁,1,二手房,2012
无门店信息,大连,大连外贸集团开发公司,中山,20190702,34.52713835999158,118.76812980670795,山岭巷,9,12703,无物业管理服务,-,辽宁,1,二手房,1994
金州区南棉路310号,大连,暂无信息,金州,20190702,39.09939229372624,121.72414976100345,金乾公馆,8,8060,无物业管理服务,-,辽宁,1,二手房,-
中山区金城街26号一楼,大连,暂无信息,中山,20190702,38.922282529515634,121.65214466263014,39中哈尔滨街,3,23952,无物业管理服务,-,辽宁,1,二手房,1981
甘井子区促进路30号2-1-1,大连,无开发商,甘井子,20190702,38.954133128707575,121.58355746311207,柳河小区,12,11580,大连衡德物业管理有限公司,0.2,辽宁,1,二手房,1995
沙河口区长江路738号,大连,大连国合置业有限公司,西岗,20190702,38.913544290955585,121.59450670056631,国合锦里,17,30204,大连国合物业管理有限公司,3.5,辽宁,1,二手房,-
西岗区大同街125号,大连,大连名仕房地产开发有限公司,西岗,20190702,38.920458602340894,121.61445835429899,中央复兴里,13,24273,大连名仕物业管理有限公司,2.1,辽宁,1,二手房,2010
西岗区中山路158号唐山街市场外14号,大连,暂无信息,西岗,20190702,38.91688106727098,121.63201298398174,34中安宁巷,2,29989,无物业管理服务,-,辽宁,1,二手房,1985
甘井子区海口路77—5号,大连,暂无信息,甘井子,20190702,38.960286398428124,121.60305183172997,八十中汉德花园,13,14434,街道办事处（居委会）代管物业,0.3,辽宁,1,二手房,2000
中山区南山路59号1层4号,大连,暂无信息,中山,20190702,38.91992239075882,121.6479206962747,仁义街（昆明街）,3,15921,暂无信息,-,辽宁,1,二手房,1988
中山区杏林街66—5号,大连,无开发商,中山,20190702,38.92572771377599,121.66490555592502,39中安民街（三八广场）,9,25946,街道办事处（居委会）代管物业,0.2,辽宁,1,二手房,1995
中山区南山路59号1层4号,大连,无开发商,中山,20190702,38.91992239075882,121.6479206962747,昆明街（独立街）,11,19968,无物业管理服务,-,辽宁,1,二手房,1988
中山区北斗街53号1层1号,大连,无开发商,中山,20190702,38.92727355733075,121.67002970974048,鲁迅路（二七商圈）,4,11654,无物业管理服务,-,辽宁,1,二手房,1999
甘井子区锦城西园4#3-1-1,大连,大连锦绣房地产开发有限公司,甘井子,20190702,38.95286223185571,121.55129044777,锦城西园,24,19208,大连锦绣锦城园物业,0.6,辽宁,1,二手房,2006
中山区共建巷61号,大连,暂无信息,中山,20190702,38.91828093658718,121.66259221532148,山林街（三八商圈）,2,25944,无物业管理服务,-,辽宁,1,二手房,1990
金州区南棉路310号,大连,大连阿尔滨集团房地产开发有限公司,金州,20190702,39.09939229372624,121.72414976100345,荣盛小区,8,8960,街道办事处（居委会）代管物业,1,辽宁,1,二手房,2009
中山区共建巷61号,大连,无开发商,中山,20190702,38.91828093658718,121.66259221532148,39中七七街,9,25058,街道办事处（居委会）代管物业,0.5,辽宁,1,二手房,1995
中山区岭前街53-5,大连,大连市桃源雅居房地产开发有限公司,中山,20190702,38.89487069426055,121.65795959631497,桃源雅居,6,19128,大连远洋基业物业管理有限公司,1,辽宁,1,二手房,2010
甘井子区惠泽南园3-4号,大连,大连长鹭房屋开发有限公司,甘井子,20190702,38.939326611323615,121.52337842113351,晶品缘林,14,16894,大连三和住邦物业管理有限公司,1,辽宁,1,二手房,2008
沙河口区兰田街33号,大连,大连大力房地产开发有限公司,沙河口,20190702,38.926138912221084,121.56486022834609,电业逸彩园,7,17038,大连亿安物业管理有限公司,0.5,辽宁,1,二手房,2002
中山区爱华街13号,大连,无开发商,中山,20190702,38.92541607518685,121.6535728031028,万民街（三八广场）,4,12573,无物业管理服务,-,辽宁,1,二手房,1993
甘井子区汇仁街19号12号楼1单元102室,大连,大连华南房地产开发有限公司,甘井子,20190702,38.99746297497168,121.58917714380617,名贵山庄华春园,3,13031,大连弘益达物业管理有限公司,0.5,辽宁,1,二手房,2004
中山区碧浪园4号-3号,大连,大连三寰房地产开发有限公司,中山,20190702,38.89147289460474,121.69329560326236,碧浪园三期,15,16472,大连峰霖物业管理有限公司,0.3,辽宁,1,二手房,2002
大连市甘井子 区和通南园17-1号第S5幢1单元1层1号,大连,暂无信息,甘井子,20190702,38.9636787276397,121.6294044574927,青秀蓝湾二期,14,21606,中国铁建地产集团物业公司,2.6,辽宁,1,二手房,2016
沙河口区长江路738号,大连,大连泰达新城建设发展有限公司,沙河口,20190702,38.913544290955585,121.59450670056631,五一广场长江路北,15,12894,无物业管理服务,-,辽宁,1,二手房,1994
沙河口区西南路40号楼,大连,亿达集团大连房地产开发有限公司,沙河口,20190702,38.94143337232082,121.58616557598133,亿达海月公寓,12,16593,大连华艺物业管理有限公司,0.5,辽宁,1,二手房,1999
莲花山路89-3号,大连,大连铁路房地产开发有限责任公司,西岗,20190702,38.902848261803356,121.6041720815823,新华小区(西岗),10,13384,大连铁路物业管理有限公司,0.3,辽宁,1,二手房,1998
"西岗区泰公街20号2层7号 西岗区久寿街22号1层14号""",大连,大连锦绣大厦有限公司,西岗,20190702,38.92600196862723,121.62141976476381,锦绣大厦,10,8033,大连锦绣物业管理有限公司,1,辽宁,1,二手房,2000
沙河口区锦江园30号1层公建,大连,大连市经济适用房建设发展中心,沙河口,20190702,38.949985113183935,121.56560955976859,锦绣园,29,13379,大连锦绣物业管理有限公司,0.5,辽宁,1,二手房,2000
西岗区中山路158号唐山街市场外14号,大连,海运集团大连房屋开发有限公司,西岗,20190702,38.91688106727098,121.63201298398174,宝居佳苑,8,27033,大连城建开发集团物业管理有限公司,2,辽宁,1,二手房,2011
沙河口区兰田街33号,大连,无开发商,沙河口,20190702,38.926138912221084,121.56486022834609,西苑新区,5,14024,街道办事处（居委会）代管物业,0.3,辽宁,1,二手房,2000
中山区中南路226号,大连,万科中山置业有限公司,中山,20190702,38.90029610333926,121.68178899957817,万科中南府,2,28513,大连万科物业服务有限公司,5,辽宁,1,二手房,2018
沙河口区长江路738号,大连,大连城市建设集团有限公司,沙河口,20190702,38.913544290955585,121.59450670056631,21中广电中心,22,18314,无物业管理服务,-,辽宁,1,二手房,1992
西岗区鞍山路65-5号,大连,大连中盛集团有限公司,沙河口,20190702,38.926971569913064,121.60260230348328,中盛家园,14,20879,大和中盛物业管理有限公司,1.5,辽宁,1,二手房,2002
"西岗区泰公街20号2层7号 西岗区久寿街22号1层14号""",大连,大连万达房地产开发有限公司,西岗,20190702,38.92600196862723,121.62141976476381,新春小区,5,15315,大连长青物业管理中心,0.2,辽宁,1,二手房,1997
甘井子区辛寨子街道中冶蓝城辛虹园39-7号公建,大连,大连中冶京诚置业有限公司,甘井子,20190702,38.98155611421408,121.49259383356096,中冶蓝城,20,12190,大连添翼物业服务有限公司,2,辽宁,1,二手房,2013
中山区中青街87号一单元107,大连,无开发商,中山,20190702,38.90213494248529,121.65806522267005,中青街,5,15676,无物业管理服务,-,辽宁,1,二手房,1996
西岗区绕山路31号公建一层东侧,大连,大连胜利路拓宽改造工程建设有限公司,西岗,20190702,38.90257514466717,121.61412736644739,星海绿山城D区,13,21340,无物业管理服务,1.5,辽宁,1,二手房,2015
开发区红星海-B区89-1号,大连,远洋地产有限公司,开发区,20190702,39.027851194371685,121.80327394132297,红星海五期鼎墅,30,25911,大连远洋基业物业管理有限公司,4.8,辽宁,1,二手房,2012
中山区高尚路28-1号,大连,大连海华房地产开发有限公司,中山,20190702,38.892673425111305,121.67148833870213,海贝花园,10,11470,街道办事处（居委会）代管物业,1,辽宁,1,二手房,1995
沙河口区西南路358号1—2号,大连,大连中城房地产开发有限公司,沙河口,20190702,38.90839654326566,121.56908246905662,中城公园里,12,21675,渤海吉祥物业管理有限公司,1.8,辽宁,1,二手房,2008
高新园区海苑街36号1单元2号公建,大连,大连百思泰置业有限公司,高新园区,20190702,20.06392317589085,110.32302599457326,柏林水郡,22,20087,大连百嘉物业管理有限公司,1,辽宁,1,二手房,2007
西岗区新田巷27号1-2,大连,无开发商,西岗,20190702,38.893215932589385,121.64103065169111,新环巷,4,11250,无物业管理服务,-,辽宁,1,二手房,1990
开发区金源南里14栋-11号一层部分，14号-12号一层部分,大连,大连经济技术开发区金源实业有限公司,开发区,20190702,39.06148862675436,121.82503941311765,金源名府,24,10944,街道办事处（居委会）代管物业,1,辽宁,1,二手房,2009
沙河口区连山街10号2-1-2,大连,大连城市建设集团有限公司,沙河口,20190702,38.89637522563413,121.57143690983219,城建花园,10,17360,大连城建开发集团物业管理有限公司,0.5,辽宁,1,二手房,2002
开发区金源南里14栋-11号一层部分，14号-12号一层部分,大连,商金源地产,开发区,20190702,39.06148862675436,121.82503941311765,金苑新居,21,8535,嘉兴物业管理有限公司,0.3,辽宁,1,二手房,2004
西岗区新田巷11号三单元103,大连,大连市中联房地产开发有限公司,西岗,20190702,38.89276612016956,121.64190731791966,卧龙山庄,7,13860,大连健龙物业管理有限公司,0.5,辽宁,1,二手房,2001
金州新区先进街道五一路350-1号1-2层,大连,辽宁宝林集团大连房地产开发公司,金州,20190702,39.078667146419825,121.77094423323935,宝林凤凰城,23,9149,宝林集团物业管理有限公司,0.5,辽宁,1,二手房,2012
西岗区长春路334号,大连,无开发商,西岗,20190702,38.89807766522607,121.63221082858387,桥东巷,5,12008,无物业管理服务,-,辽宁,1,二手房,1982
沙河口区西南路358号1—2号,大连,大连三寰房地产开发有限公司,沙河口,20190702,38.90839654326566,121.56908246905662,市场公寓,11,13326,大连上达物业管理有限公司,0.4,辽宁,1,二手房,1999
金州区南棉路310号,大连,暂无信息,金州,20190702,39.09939229372624,121.72414976100345,连胜小区,6,6128,无物业管理服务,0.5,辽宁,1,二手房,1995
沙河口区西南路358号1—2号,大连,大连弘晟房地产开发有限公司,沙河口,20190702,38.90839654326566,121.56908246905662,明月山庄,18,15057,大连衡德物业管理有限公司,0.6,辽宁,1,二手房,2003
大连市甘井子区辛如街35号1单元1层1号,大连,暂无信息,甘井子,20190702,38.96862607066881,121.52294869064194,苹果公寓（住宅）,44,11541,大连生生物业有限公司,0.8,辽宁,1,二手房,2009
西岗区鞍山路29号龙畔锦城东门,大连,大连铁龙房地产开发有限公司,西岗,20190702,38.92763470697088,121.61498923399098,北岗新居,20,15667,大连铁龙物业管理有限公司,0.5,辽宁,1,二手房,2002
西岗区鞍山路65-5号,大连,大连华阳房地产开发有限公司,沙河口,20190702,38.926971569913064,121.60260230348328,华阳风尚,22,17602,北京凯莱物业管理有限公司大连分公司,1.3,辽宁,1,二手房,2009
西岗区鞍山路65-5号,大连,大连恒利房屋开发有限公司,沙河口,20190702,38.926971569913064,121.60260230348328,中长花园,10,13700,大连金星物业管理中心,0.5,辽宁,1,二手房,2000
经济技术开发区红星海-A区81-2号1层,大连,无开发商,开发区,20190702,39.027851194371685,121.80327394132297,西雅图,41,10516,大连维泰物业管理有限公司,0.8,辽宁,1,二手房,2004
无门店信息,大连,暂无信息,金州,20190702,34.52713835999158,118.76812980670795,金海人家,35,6738,无物业管理服务,0.5,辽宁,1,二手房,2008
金州区拥政街道733号-8号1-2层,大连,暂无信息,金州,20190702,39.11690610445662,121.73030803603723,八一花园,14,7989,暂无信息,0.2,辽宁,1,二手房,2000
沙河口区五一路96B-8号,大连,大连正源房地产开发有限公司,沙河口,20190702,38.913544290955585,121.59450670056631,幸福e家三期,74,39583,大连正源物业服务有限公司,1,辽宁,1,二手房,2004
中山区民建街10号1单元1号,大连,无开发商,中山,20190702,38.925444479476894,121.66915026954452,建华巷（三八广场）,9,14442,无物业管理服务,-,辽宁,1,二手房,1994
大连市金州新区友谊街道和平路59-10号1-2层公建,大连,大连金华房地产开发有限公司,金州,20190702,39.112168401852266,121.72006917947859,金爵世家,10,7989,街道办事处（居委会）代管物业,0.9,辽宁,1,二手房,2000
甘井子区惠泽南园3-4号,大连,大连航宇房屋开发有限公司,甘井子,20190702,38.939326611323615,121.52337842113351,水畔精品,10,14173,大连旺宇物业有限公司,1.5,辽宁,1,二手房,2014
金州新区八一路金都嘉园1号楼1号公建,大连,大连市金州区房屋开发公司,金州,20190702,39.05525210261778,121.74865634199398,平安小区,18,7823,无物业管理服务,0.2,辽宁,1,二手房,1994
中山区解放路471-22号,大连,大连长策房屋开发有限公司,西岗,20190702,38.901309943567504,121.65419095766659,捷山观海,10,19466,大连鑫晟物业管理有限公司,2,辽宁,1,二手房,2009
大连市甘井子区七贤路8-3号,大连,大连树源世嘉房地产开发有限公司,高新园区,20190702,38.86602612116956,121.53842265737707,国滨馆,20,24966,大连树源物业管理有限公司,3.5,辽宁,1,二手房,2010
沙河口区恒利园42号-8,大连,无开发商,沙河口,20190702,38.93357562498634,121.57914091532649,大庆街,3,12260,无物业管理服务,-,辽宁,1,二手房,1982
沙河口区华新苑10号楼4号公建,大连,大连新型房地产开发有限公司,沙河口,20190702,38.94033750532864,121.58990295130229,华新苑,8,13665,大连新型物业管理有限公司,0.5,辽宁,1,二手房,2003
沙河口区五一路110-4号,大连,大连市中联房地产开发有限公司,沙河口,20190702,38.913544290955585,121.59450670056631,星海中龙园,21,20577,大连斌弘物业管理有限公司,0.6,辽宁,1,二手房,2004
沙河口区连山街44-2号半地下一层（地上一层部分）,大连,大连宏都房地产开发有限公司,沙河口,20190702,38.892991456958086,121.57299542767161,宏都筑景Ⅰ期,42,23092,大连东方百瑞物业管理有限公司,1.4,辽宁,1,二手房,2008
沙河口区西南路358号1—2号,大连,大连恒安房地产开发有限公司,沙河口,20190702,38.90839654326566,121.56908246905662,水芙山竹,9,21914,大连上达物业管理有限公司,0.6,辽宁,1,二手房,2005
沙河口区连山街10号2-1-2,大连,大连国合嘉汇房地产开发有限公司,沙河口,20190702,38.89637522563413,121.57143690983219,嘉汇星海,7,18935,大连国合物业管理有限公司,0.5,辽宁,1,二手房,2004
沙河口区连山街44-2号半地下一层（地上一层部分）,大连,大连远东房屋开发有限公司,沙河口,20190702,38.892991456958086,121.57299542767161,星海大第,13,22973,大连斌宏物业管理有限公司,1,辽宁,1,二手房,2005
金州区同济路44号,大连,大连金州金山房地产开发有限公司,金州,20190702,39.10476859984152,121.71234684495865,金山苑小区,23,9079,大连金山物业管理有限公司,-,辽宁,1,二手房,2000
甘井子区西南路979-7号公建,大连,暂无信息,甘井子,20190702,38.96275592929325,121.5958698791777,八十中周家街,80,17086,街道办事处（居委会）代管物业,0.2,辽宁,1,二手房,1990
中山区解放路604号,大连,无开发商,中山,20190702,38.89026319122045,121.66407876092346,山海巷,11,9917,街道办事处（居委会）代管物业,0.5,辽宁,1,二手房,1990
甘井子区汇仁街19号12号楼1单元102室,大连,大连华南房地产开发有限公司,甘井子,20190702,38.99746297497168,121.58917714380617,名贵山庄华彩园,10,14160,大连弘益达物业管理有限公司,0.5,辽宁,1,二手房,2003
大连市金州区友谊街道南金华城25号1-2层1号,大连,无开发商,金州,20190702,39.128677228885614,121.71356109978767,金园新村,36,7443,大连金州友谊物业公司,0.5,辽宁,1,二手房,2004
沙河口区联合路133号,大连,大连建兴房屋开发有限公司,沙河口,20190702,38.91608561262676,121.60480987310456,21中学中山南苑,3,22483,大连自然物业管理有限公司,1.3,辽宁,1,二手房,2001
无门店信息,大连,大连康阳房屋开发有限公司,甘井子,20190702,34.52713835999158,118.76812980670795,南岭新城二期,51,14574,大连鸿诚物业管理有限公司,0.4,辽宁,1,二手房,2005
甘井子区促进路30号2-1-1,大连,大连大骏达房地产开发有限公司,甘井子,20190702,38.954133128707575,121.58355746311207,骏达绅士花园,2,18774,大连骏达物业管理有限公司,1.7,辽宁,1,二手房,2012
中山区解放路471-22号,大连,无开发商,中山,20190702,38.901309943567504,121.65419095766659,广兴巷,5,12442,街道办事处（居委会）代管物业,-,辽宁,1,二手房,1990
西岗区新田巷27号1-2,大连,无开发商,西岗,20190702,38.893215932589385,121.64103065169111,新联巷,6,11317,无物业管理服务,-,辽宁,1,二手房,1996
无门店信息,大连,无开发商,西岗,20190702,34.52713835999158,118.76812980670795,付家庄街,15,11504,无物业管理服务,-,辽宁,1,二手房,1990
沙河口区富国街14号1-1-2,大连,无开发商,沙河口,20190702,38.901027106600836,121.59047734850638,西安路（和平广场商圈）,5,13172,无物业管理服务,-,辽宁,1,二手房,1996
无门店信息,大连,大连光伸企业集团有限公司,开发区,20190702,34.52713835999158,118.76812980670795,名品公寓,38,6652,大连大管家物业管理有限公司,1.2,辽宁,1,二手房,2010
中山区北斗街53号1层1号,大连,无开发商,中山,20190702,38.92727355733075,121.67002970974048,北斗街（二七商圈）,4,14020,无物业管理服务,-,辽宁,1,二手房,1990
西岗区八一路102号,大连,无开发商,西岗,20190702,38.92047268927287,121.61862512554262,群英阁,2,17856,无物业管理服务,-,辽宁,1,二手房,2000
西岗区胜利路33号,大连,暂无信息,西岗,20190702,38.91309771954841,121.62500886627636,34中云山街,2,39413,暂无信息,-,辽宁,1,二手房,1990
无门店信息,大连,大连宸泰房地产开发有限公司,旅顺口,20190702,34.52713835999158,118.76812980670795,丽水佳园,9,8019,暂无信息,-,辽宁,1,二手房,-
大连市甘井子区柳林园8-7号,大连,大连西成房地产开发有限公司,甘井子,20190702,38.91290525308349,121.47673750074993,恒大檀溪郡,21,13554,金碧物业有限公司大连分公司,2.4,辽宁,1,二手房,2016
甘井子区西南路芳茗园30号楼,大连,大连泰华房地产开发有限公司,甘井子,20190702,38.961395177040636,121.59546002818708,泰华府邸,17,18870,大连华安物业管理有限公司,1.5,辽宁,1,二手房,2009
甘井子区海口路77—5号,大连,暂无信息,甘井子,20190702,38.960286398428124,121.60305183172997,鹏辉新世纪五期,12,19330,大连鹏辉物业管理有限公司,0.6,辽宁,1,二手房,2009
中山区北斗街53号1层1号,大连,无开发商,中山,20190702,38.92727355733075,121.67002970974048,丹东街（二七商圈）,8,13947,无物业管理服务,-,辽宁,1,二手房,1990
西岗区康平街2号（5号楼3-1-3号）,大连,暂无信息,西岗,20190702,38.91044414697888,121.61980769264477,34中长春路,9,27278,无物业管理服务,-,辽宁,1,二手房,1990
沙河口区西南路851号3单元1层3号,大连,暂无信息,沙河口,20190702,38.94344210837944,121.58246796944378,学工街,5,9541,大连新兴物业管理有限公司,0.3,辽宁,1,二手房,1993
金州新区八一路金都嘉园1号楼1号公建,大连,大连锦阳房地产开发有限公司,金州,20190702,39.05525210261778,121.74865634199398,古城天下,7,7341,大连锦阳房地产开发有限公司,1,辽宁,1,二手房,2004
沙河口区星海广场B3区14-2号1层,大连,华润置地（大连）有限公司,沙河口,20190702,38.88693148294673,121.58735631267305,星海湾壹号,45,52007,华润物业（大连）有限公司,4.8,辽宁,1,二手房,2008
开发区杏花里13#楼-7号,大连,大连经济技术开发区城市建设开发有限公司,开发区,20190702,31.31075067906954,120.63127837058457,杏林山庄一期,14,9042,大连经济技术开发区杏林物业管理有限公司,0.8,辽宁,1,二手房,2005
沙河口区兰田街33号,大连,无开发商,沙河口,20190702,38.926138912221084,121.56486022834609,兰玉小区,4,11173,街道办事处（居委会）代管物业,0.4,辽宁,1,二手房,1990
沙河口区民权街324号,大连,暂无信息,沙河口,20190702,38.92064616208148,121.59777611850379,79中民权小区,15,16162,大连福港物业管理有限公司,0.2,辽宁,1,二手房,1997
大连经济技术开发区同和里7栋-9号,大连,无开发商,开发区,20190702,39.04901984220615,121.7885236929847,新月里,19,9120,街道办事处（居委会）代管物业,0.5,辽宁,1,二手房,2000
开发区黄海西路201号107公建,大连,开发区城建局,开发区,20190702,39.04942604506828,121.80126318235419,金湖里,60,6909,大连中信物业管理有限公司,0.1,辽宁,1,二手房,1998
中山区南山路59号1层4号,大连,无开发商,中山,20190702,38.91992239075882,121.6479206962747,麒麟西巷,19,12882,无物业管理服务,-,辽宁,1,二手房,1990
大连市高新园区七贤中路63号,大连,大连鑫亿房屋开发有限公司,高新园区,20190702,38.86053006357667,121.53273606963094,瑞丰园,16,14677,无物业管理服务,0.8,辽宁,1,二手房,1999
大连市高新园区七贤中路63号,大连,大连招宇房地产有限公司,高新园区,20190702,38.86053006357667,121.53273606963094,招商兰溪谷,31,22912,招商局物业管理有限公司大连分公司,2.6,辽宁,1,二手房,2015
沙河口区成仁街91号,大连,"大连峰景房地产开发有限公司,无开发商",沙河口,20190702,38.91539947107844,121.59585638842556,科技广场,28,10721,街道办事处（居委会）代管物业,0.8,辽宁,1,二手房,2001
金州新区先进街道五一路350-1号1-2层,大连,大连鸿德置业有限公司,金州,20190702,39.078667146419825,121.77094423323935,左岸阳光,21,8627,大连鸿德物业管理有限公司,1.2,辽宁,1,二手房,2014
中山区鲁迅路184号1层B—A,大连,无开发商,中山,20190702,38.92590875965419,121.67594393403164,荣民街（二七商圈）,9,12536,无物业管理服务,-,辽宁,1,二手房,1999
沙河口区联合路133号,大连,无开发商,沙河口,20190702,38.91608561262676,121.60480987310456,21中同泰街,3,20130,无物业管理服务,-,辽宁,1,二手房,1984
开发区金马路169-2-6号房屋,大连,无开发商,开发区,20190702,39.057398235688176,121.78261137849105,收获公寓,14,7064,街道办事处（居委会）代管物业,0.5,辽宁,1,二手房,2000
无门店信息,大连,暂无信息,西岗,20190702,34.52713835999158,118.76812980670795,华良海景花园,7,22429,香港侨乐物业管理（中国）有限公司,1.5,辽宁,1,二手房,2004
金州区光明街道育才街42-6号1-2层,大连,大连金华房地产开发有限公司,金州,20190702,39.109080894078986,121.7182584929096,金华小区一期,82,7685,大连金华兴物业有限公司,0.4,辽宁,1,二手房,2003
大连市金州区友谊街道南金华城25号1-2层1号,大连,大连金华房地产开发有限公司,金州,20190702,39.128677228885614,121.71356109978767,金华小区三期,11,9274,大连金华兴物业有限公司,1.2,辽宁,1,二手房,2009
西岗区长春路334号,大连,无开发商,西岗,20190702,38.89807766522607,121.63221082858387,长春路（石道街商圈）,21,11924,无物业管理服务,-,辽宁,1,二手房,1989
无门店信息,大连,无开发商,金州,20190702,34.52713835999158,118.76812980670795,香山翌景,20,7224,街道办事处（居委会）代管物业,0.5,辽宁,1,二手房,2010
中山区高尚路28-1号,大连,大连丰源房地产有限公司,中山,20190702,38.892673425111305,121.67148833870213,丰源海景,11,15723,大连丰源海景物业管理有限公司,0.5,辽宁,1,二手房,2000
开发区东北三街94号1层,大连,大连新天润企业集团有限公司,开发区,20190702,39.05723508011585,121.80570768630555,天都花园,14,8585,大连银海物业管理有限公司,0.5,辽宁,1,二手房,2002
中山区华乐街71号公建,大连,大连新型房地产开发有限公司,中山,20190702,38.923187679200566,121.6843197903016,春海街,6,11122,无物业管理服务,-,辽宁,1,二手房,1992
沙河口区黄河路883号,大连,大连安邦房地产开发有限公司,沙河口,20190702,38.919826721475204,121.57749657966676,阳光小筑,6,19165,大连远洋基业物业管理有限公司,0.8,辽宁,1,二手房,2007
甘井子区金家街17-7号,大连,大连衡锐房屋开发有限公司,甘井子,20190702,38.97493697764367,121.60110987128529,衡逸园一期,29,19063,大连衡锐物业管理公司,1,辽宁,1,二手房,2008
开发区东北三街94号1层,大连,大连盛和房地产开发有限公司,开发区,20190702,39.05723508011585,121.80570768630555,盛和派帝盟,21,5825,街道办事处（居委会）代管物业,0.5,辽宁,1,二手房,1999
经济技术开发区城润万家4-5号公建,大连,恒安房地产,开发区,20190702,39.05716325096989,121.75946281983826,中环嘉园,6,9644,大连大连开发区杰佳物业管理有限公司,0.5,辽宁,1,二手房,2001
金州新区先进街道五一路350-1号1-2层,大连,无开发商,金州,20190702,39.078667146419825,121.77094423323935,八里河小区,31,7007,街道办事处（居委会）代管物业,0.5,辽宁,1,二手房,2009
金州区小平岛B组团4号楼3号商铺,大连,大连圣岛房地产开发有限公司,高新园区,20190702,39.05643299166072,121.78943558267059,小平岛揽海名寓,32,20470,大连凯尔富物业管理有限公司,1.7,辽宁,1,二手房,2010
开发区东北三街94号1层,大连,无开发商,开发区,20190702,39.05723508011585,121.80570768630555,华冠大厦,27,7156,街道办事处（居委会）代管物业,1.2,辽宁,1,二手房,2003
沙河口区红凌路137号,大连,大连大实企业集团房屋开发有限公司,甘井子,20190702,38.922699288974506,121.54713601744747,泊林阳光B区,11,14434,大连弘实物业管理有限公司,0.6,辽宁,1,二手房,2007
西岗区八一路196号1-3,大连,无开发商,西岗,20190702,38.92047268927287,121.61862512554262,三环街（八一路商圈）,4,12296,无物业管理服务,-,辽宁,1,二手房,1990
甘井子区迎客路郭东街一品蓝天公建14号,大连,沈阳军区后勤部,甘井子,20190702,38.958456949708726,121.556756277476,虹桥干休所,8,13607,大连虹桥物业管理中心,0.1,辽宁,1,二手房,2000
西岗区绕山路31号公建一层东侧,大连,无开发商,西岗,20190702,38.90257514466717,121.61412736644739,彩云路,11,8987,无物业管理服务,-,辽宁,1,二手房,1990
甘井子区玉湖街25号2单元1层3号,大连,大连恒峰房地产开发有限公司,甘井子,20190702,38.97626265183615,121.54617349027997,恒峰天泉小镇,19,18851,大连恒新物业管理有限公司,2,辽宁,1,二手房,2017
中山区共建巷61号,大连,大连新型房地产开发总公司,中山,20190702,38.91828093658718,121.66259221532148,南山苑,10,33381,大连新型物业管理有限公司,1.5,辽宁,1,二手房,1990
甘井子区金北街17号,大连,大连恒新房地产开发有限公司,甘井子,20190702,38.95800216293212,121.53151895549547,福佳绿都,29,26816,大连福佳物业管理有限公司,1.3,辽宁,1,二手房,2008
中山区鲁迅路184号1层B—A,大连,大连绿地新城置业有限公司,中山,20190702,38.92590875965419,121.67594393403164,大连绿地中心,19,19520,上海科瑞物业管理发展有限公司大连第二分公司,4.2,辽宁,1,二手房,2015
沙河口区连山街44-2号半地下一层（地上一层部分）,大连,大连大和中盛房地产有限公司,沙河口,20190702,38.892991456958086,121.57299542767161,颐和星海,103,24482,大连颐和物业管理有限公司,2.5,辽宁,1,二手房,2012
金州新区八一路金都嘉园1号楼1号公建,大连,大连友谊合升房地产开发有限公司,金州,20190702,39.05525210261778,121.74865634199398,龙祥嘉园,77,8073,大连天河物业管理有限公司,0.5,辽宁,1,二手房,1999
甘井子区华北路花锦园28号23-3-1-2建筑物,大连,无开发商,甘井子,20190702,38.951627958411166,121.5739439799003,大连门广场,10,16711,街道办事处（居委会）代管物业,0.1,辽宁,1,二手房,2003
开发区东北三街94号1层,大连,无开发商,开发区,20190702,39.05723508011585,121.80570768630555,倚山花园,12,9280,街道办事处（居委会）代管物业,1.1,辽宁,1,二手房,2000
无门店信息,大连,大连奥泰房地产开发有限公司,金州,20190702,34.52713835999158,118.76812980670795,亿达蓝筹海,25,8012,大连奥泰物业服务有限公司,1.6,辽宁,1,二手房,2009
开发区黄海西路201号107公建,大连,无开发商,开发区,20190702,39.04942604506828,121.80126318235419,新云里,24,7815,街道办事处（居委会）代管物业,0.5,辽宁,1,二手房,2000
无门店信息,大连,大华集团大连置业有限公司,高新园区,20190702,34.52713835999158,118.76812980670795,大华锦绣华城三期,45,22800,大连大华物业管理有限公司,2.5,辽宁,1,二手房,2012
