address,city,developer,district,index_date,lat,lng,name,osv,price,property,property_fee,province,tv,type,year
大连经济技术开发区东城天下98-14,大连,大连乾豪集团有限公司,开发区,20190623,39.069195091289004,121.8502099927954,东城天下,362,8752,大连远洋基业物业管理有限公司,0.9,辽宁,46,二手房,2005
大连经济技术开发区时代城4-3号1-2号,大连,远洋地产有限公司,开发区,20190623,39.0992481321252,121.83007860699459,远洋时代城一期,174,9325,大连远洋基业物业管理有限公司,1.5,辽宁,28,二手房,2012
沙河口区沙能街101号1单元1层1号,大连,大连新型房地产开发有限公司,沙河口,20190623,38.9366316275348,121.59031205759763,侯二小区,174,11129,街道办事处（居委会）代管物业,0.1,辽宁,39,二手房,1985
开发区湾里南12栋-16-17-18号,大连,大连金湾实业有限公司,开发区,20190623,39.070782084451,121.8506739675913,湾里南小区,374,8744,大连金湾物业管理有限公司,0.3,辽宁,36,二手房,2003
沙河口区华新苑10号楼4号公建,大连,大连新型房地产开发有限公司,沙河口,20190623,38.94033750532864,121.58990295130229,侯一小区,147,11324,大连新兴物业管理有限公司,0.3,辽宁,30,二手房,1989
开发区正恒园1-16,大连,大连华宇房地产开发有限公司,开发区,20190623,39.04823944344617,121.76165468797754,左岸经典,250,9016,大连豪之英物业管理有限公司,1.8,辽宁,26,二手房,2009
甘井子区榆林街37号-12公建,大连,新型房地产开发有限公司,甘井子,20190623,38.980133141940186,121.52779506952932,泡崖美林园,255,11604,新兴物业,0.6,辽宁,64,二手房,2003
甘井子区宜居园10-1号房屋,大连,大连万科房地产开发有限公司,甘井子,20190623,38.99913094587405,121.52084969112292,万科魅力之城,196,14645,大连万科物业服务有限公司,1.5,辽宁,40,二手房,2012
甘井子区泉水D1区37-7号,大连,大连运腾房地产开发有限公司,甘井子,20190623,39.013992871679214,121.61921940045104,锦泉源D2区,222,13209,大连嘉毅物业管理有限公司,0.5,辽宁,27,二手房,2005
甘井子区玉湖街25号2单元1层3号,大连,大连新型房地产开发有限公司,甘井子,20190623,38.97626265183615,121.54617349027997,泡崖四区,180,10648,大连新型物业管理有限公司,0.5,辽宁,26,二手房,2002
沙河口区昌黎街22号,大连,大连城市建设集团有限公司,沙河口,20190623,38.91975785098891,121.59109628369768,北昌平小区,132,12872,无物业管理服务,-,辽宁,27,二手房,1983
开发区湾里南12栋-16-17-18号,大连,大连金湾实业有限公司,开发区,20190623,39.070782084451,121.8506739675913,湾里东,207,8156,大连金湾物业管理有限公司,0.5,辽宁,28,二手房,2004
大连开发区金马路169-2-8号,大连,大连亿锋房地产实业有限公司,开发区,20190623,39.057398235688176,121.78261137849105,亿锋现代城,157,10136,亿锋豪景物业管理有限公司,1.1,辽宁,28,二手房,2006
甘井子区泡崖六小区6号楼1单元1层2号,大连,大连新型房地产开发有限公司,甘井子,20190623,38.98033159306754,121.55920598894072,泡崖五区,80,11390,大连新兴物业管理有限公司,0.5,辽宁,22,二手房,1990
甘井子区静林街34号4单元1层2,大连,大连祥盛房屋开发有限公司,甘井子,20190623,38.98321485010885,121.58185179833856,千山心城,129,14577,大连百特物业管理有限公司,0.5,辽宁,22,二手房,2003
甘井子区祥溢园4号1单元1层9号公建,大连,"大连鹏德房屋开发有限公司,大连长鹭房屋开发有限公司,大连均卫达房地产开发有限公司,大连福田房屋开发有限公司,大连航宇房屋开发有限公司",甘井子,20190623,38.92981664067587,121.54940314023253,亲亲家园,65,15377,渤海吉祥物业管理有限公司,0.5,辽宁,23,二手房,2004
甘井子区华北路花锦园28号23-3-1-2建筑物,大连,大连东特房地产开发有限公司,甘井子,20190623,38.951627958411166,121.5739439799003,东特新天地,61,16530,大连瑞祥物业管理有限公司,0.5,辽宁,19,二手房,2003
金州新区先进街道渤海街7-4号1-2层、7-3号1-2层,大连,原金州纺织厂房地产公司,金州,20190623,39.09342713035472,121.74590886291374,金纺小区,188,6895,街道办事处（居委会）代管物业,0.5,辽宁,20,二手房,1985
沙河口区五一路177-1-1-1,大连,无开发商,沙河口,20190623,38.913544290955585,121.59450670056631,台山,94,11776,街道办事处（居委会）代管物业,0.5,辽宁,20,二手房,1987
沙河口区马栏北街186号,大连,大连渤海红旗集团有限公司,甘井子,20190623,38.913544290955585,121.59450670056631,马栏北街,43,11381,大连辽南物业管理有限公司,0.2,辽宁,20,二手房,1993
甘井子区祥龙街2号楼1单元1楼1号,大连,大连恒新房地产开发有限公司,甘井子,20190623,38.988045874482445,121.60439401971377,华东人家,41,14405,大连福佳物业管理有限公司,1,辽宁,20,二手房,2007
甘井子区红旗花园23号楼19-24轴公建,大连,大连红旗兴达房地产开发有限公司,甘井子,20190623,38.93108029984587,121.54902145022133,兴达花园,87,12802,大连万泰物业管理有限公司,0.3,辽宁,20,二手房,2000
甘井子区玉丽街2号楼1单元4号公建,大连,大连新型房地产开发总公司,甘井子,20190623,38.98705071699301,121.55513043130172,泡崖康顺园,147,11178,大连新兴物业管理有限公司,0.5,辽宁,21,二手房,2007
开发区兴城路29-81层,大连,大连亿锋房地产实业有限公司,开发区,20190623,39.050214252167194,121.75835946441768,亿锋广场一期,79,14632,大连广恒物业管理有限公司,2.5,辽宁,21,二手房,2013
金州区鹏程家园53#-8,大连,大连光伸房地产开发有限公司,开发区,20190623,39.03523987258615,121.80826248065051,绿洲半岛北岸,130,9292,大连经济技术开发区光伸物业服务有限公司,1.2,辽宁,21,二手房,2007
沙河口区新生路万客园3-7,大连,大连绿波房屋开发集团有限公司,沙河口,20190623,38.94412875710208,121.57006756704837,绿波小区,157,10999,大连绿波建设发展有限公司,0.2,辽宁,22,二手房,1998
沙河口区富民路120号4-1-1,大连,大连渤海红旗集团有限公司,沙河口,20190623,38.930937859528605,121.5647274237578,马栏小学北,89,10588,街道办事处（居委会）代管物业,0.2,辽宁,24,二手房,1994
甘井子区宜居园10-1号房屋,大连,大连万科房地产开发有限公司,甘井子,20190623,38.99913094587405,121.52084969112292,万科朗润园,103,15030,大连万科物业服务有限公司,1.5,辽宁,25,二手房,2010
大连市甘井子区柳林园8-7号,大连,大连万科置业有限公司,甘井子,20190623,38.91290525308349,121.47673750074993,万科溪之谷,205,14571,大连万科物业服务有限公司,0.6,辽宁,26,二手房,2007
金州区金润花园B区47号1单元1层1号2号,大连,大连辽大房地产开发有限公司,金州,20190623,39.10434716151341,121.74517862677146,金润小区B区,184,8370,大连新兴物业管理有限公司,0.4,辽宁,25,二手房,2005
大连市金州区站前街道生辉第一城14-3号1-2层,大连,大连新希望家园房地产有限公司,金州,20190623,39.0569681786798,121.74773530665969,新希望家园,200,8772,大连新希望物业服务有限公司,1.2,辽宁,19,二手房,2009
开发区东北三街94号1层,大连,大连欣达房地产开发有限公司,开发区,20190623,39.05723508011585,121.80570768630555,倚山里小区,231,7479,大连经济技术开发区聚盛达物业管理有限公司,0.2,辽宁,19,二手房,1996
沙河口区西南路643号,大连,无开发商,沙河口,20190623,38.943483429804665,121.5833555851182,北甸街,39,11663,无物业管理服务,-,辽宁,19,二手房,1983
西岗区香炉礁24号1-1,大连,无开发商,西岗,20190623,38.92047268927287,121.61862512554262,香炉礁,210,11042,街道办事处（居委会）代管物业,0.1,辽宁,19,二手房,1979
无门店信息,大连,无开发商,甘井子,20190623,34.52713835999158,118.76812980670795,石油六闾,67,9327,街道办事处（居委会）代管物业,0.5,辽宁,19,二手房,1989
沙河口区西南路643号,大连,无开发商,沙河口,20190623,38.943483429804665,121.5833555851182,交通大学,80,12804,无物业管理服务,-,辽宁,19,二手房,1955
沙河口区长江路946号-9,大连,大连机车商业城有限公司,沙河口,20190623,38.913544290955585,121.59450670056631,兴工街,65,13185,街道办事处（居委会）代管物业,0.2,辽宁,14,二手房,1985
甘井子区甘井子街3号公建,大连,无开发商,甘井子,20190623,38.982086281836246,121.63426694995971,文体街,128,10311,街道办事处（居委会）代管物业,0.1,辽宁,14,二手房,1985
无门店信息,大连,大连航逸房地产开发有限公司,甘井子,20190623,34.52713835999158,118.76812980670795,中航华府,47,15212,中航物业管理有限公司大连分公司,2.5,辽宁,14,二手房,2016
大连市开发区左岸经典正恒园1-17,大连,大连神洲众益集团有限公司,开发区,20190623,39.049057070649155,121.76187404250511,万国宫馆一期,125,13132,加拿大高力国际物业服务有限公司,2.4,辽宁,14,二手房,2009
无门店信息,大连,大连金湾实业有限公司,开发区,20190623,34.52713835999158,118.76812980670795,金湾山城,154,9344,大连金湾物业管理有限公司,0.5,辽宁,14,二手房,2009
开发区安盛里5栋-4,大连,大连盛铭资产管理有限公司,开发区,20190623,23.112106678834838,113.27801046214822,安盛花园,83,9311,大连经济技术开发区海青物业有限公司,1.1,辽宁,14,二手房,2003
甘井子区红凌路109号,大连,大连锦联地产集团有限公司,甘井子,20190623,38.923388478439314,121.54860212120927,锦绣暖山,78,15298,大连锦明物业服务有限公司,1.2,辽宁,15,二手房,2007
甘井子区泉水D6区51号,大连,大连锦丰和源祥房地产开发有限公司,甘井子,20190623,39.00897610161069,121.61789300655198,泉水家年华,109,13695,街道办事处（居委会）代管物业,0.9,辽宁,15,二手房,2009
开发区润海园中区30-1,大连,华润（大连）房地产有限公司,开发区,20190623,39.04047273176333,121.76392358042445,华润海中国三期,170,14383,华润物业（大连）有限公司,3.1,辽宁,15,二手房,2011
沙河口区前程街46号4—1—2号,大连,大连银地置业发展有限公司,沙河口,20190623,38.913544290955585,121.59450670056631,观山满庭芳,89,17920,大连新展物业管理有限公司,1,辽宁,15,二手房,2008
开发区润海园中区62-9,大连,华润（大连）房地产有限公司,开发区,20190623,39.04047273176333,121.76392358042445,华润海中国四期,121,14074,华润物业（大连）有限公司,3.1,辽宁,15,二手房,2014
金州区金润小区B区861单元102,大连,大连辽大房地产开发有限公司,金州,20190623,39.10615165380565,121.74639264534615,金润小区A区,143,8618,大连新兴物业管理有限公司,0.4,辽宁,15,二手房,2005
大连市甘井子区七贤路8-3号,大连,大连万达商业地产有限公司,高新园区,20190623,38.86602612116956,121.53842265737707,万达海景公寓,124,11933,大连万达物业管理有限公司,2.9,辽宁,15,二手房,2013
沙河口区红凌路137号,大连,大连大实企业集团房屋开发有限公司,甘井子,20190623,38.922699288974506,121.54713601744747,叠翠山庄,37,11113,大连弘实物业管理有限公司,0.4,辽宁,15,二手房,2000
甘井子区汇仁街22号,大连,远洋地产有限公司,甘井子,20190623,38.99712640764999,121.58834420439493,远洋广场,179,17473,大连远洋基业物业管理有限公司,1.4,辽宁,16,二手房,2010
经济技术开发区城润万家62-8公建,大连,大连海汇房地产开发有限公司,开发区,20190623,39.06883436780937,117.72669530355309,城润万家,113,9543,大连正源物业服务有限公司,1,辽宁,16,二手房,2007
甘井子区玉丽街2号楼1单元4号公建,大连,大连新型房地产开发有限公司,甘井子,20190623,38.98705071699301,121.55513043130172,泡崖七区,122,10916,大连新兴物业管理有限公司,0.3,辽宁,16,二手房,1999
甘井子区中华路泉水A1区86号4单元1层1号,大连,大连运泽房地产开发有限公司,甘井子,20190623,39.0040531092963,121.60742125620513,润泽园,99,16780,大连城建开发集团物业管理有限公司,1.4,辽宁,16,二手房,2012
沙河口区华北路448号楼1-4公建,大连,无开发商,沙河口,20190623,38.903224944733765,121.56809734950556,刘家桥,100,10838,街道办事处（居委会）代管物业,0.1,辽宁,16,二手房,1981
沙河口区数码路北段18—20号,大连,大连软景房地产开发有限公司,高新园区,20190623,38.892000603999115,121.5494486394066,软景E居,93,27371,亿达物业管理有限公司,2.6,辽宁,16,二手房,2011
天河路173-2号 华润考拉22号公建,大连,华润置地（大连）开发有限公司,甘井子,20190623,23.14720645345518,113.3277414923158,华润考拉住区,87,15472,华润物业（大连）有限公司,2.5,辽宁,17,二手房,2015
大连市甘井子中华路街道汇畅街48号,大连,远洋地产有限公司,甘井子,20190623,39.0059299196697,121.59621871231741,远洋荣域,164,18769,远洋亿家物业服务股份有限公司大连分公司,2.8,辽宁,17,二手房,2016
无门店信息,大连,大连一方生态城房地产开发有限公司,开发区,20190623,34.52713835999158,118.76812980670795,一方天鹅湖,205,8103,大连一方物业管理有限公司,1.9,辽宁,18,二手房,2010
无门店信息,大连,大连益宁房地产开发有限公司,开发区,20190623,34.52713835999158,118.76812980670795,岭湾峰尚一期,129,8654,大连鸿达物业管理有限公司,1.3,辽宁,18,二手房,2010
甘井子区千山路26号,大连,大连市大钢集团,甘井子,20190623,38.985697948031984,121.58768860037272,山东路,86,12669,街道办事处（居委会）代管物业,0.2,辽宁,14,二手房,1986
高新园区聚贤路36号5幢1单元1层1号,大连,大连法马克房地产开发有限公司,高新园区,20190623,32.31472011562832,119.46141263909165,中铁诺德滨海花园,74,19854,大连中铁诺德物业服务有限公司,2.3,辽宁,11,二手房,2012
沙河口区敦煌路357号10-11轴公建,大连,无开发商,沙河口,20190623,38.93891619583455,121.59150694046835,车家村,28,10492,街道办事处（居委会）代管物业,0.5,辽宁,12,二手房,1989
开发区松苑街23号,大连,大连盛和房地产开发有限公司,开发区,20190623,22.52087435807652,113.40156105086167,北欧假日,124,12001,大连鸿达物业管理有限公司,1.1,辽宁,12,二手房,2005
甘井子区虹韵路114号,大连,大连亿达美加房地产开发有限公司,甘井子,20190623,38.95653310483457,121.5329869995972,第五郡五号地,83,27348,亿达物业管理有限公司,2,辽宁,11,二手房,2009
沙河口区黄浦路18号—5号公建,大连,无开发商,高新园区,20190623,38.8771225143479,121.54427480390662,凌源街,32,13514,大连凌电物业管理有限公司,0.1,辽宁,11,二手房,1981
甘井子区柳树南街45-10号,大连,大连都源置业有限公司,甘井子,20190623,38.92567666296449,121.4841330254372,依云溪谷,65,14998,大连远洋物业管理有限公司,1.2,辽宁,11,二手房,2008
沙河口区五一路219-1,大连,大连亿达房地产股份有限公司,沙河口,20190623,38.913544290955585,121.59450670056631,桃山小区,80,9846,街道办事处（居委会）代管物业,0.5,辽宁,12,二手房,1998
沙河口区富静街26号1单元1层5号,大连,大连正源房地产开发有限公司,沙河口,20190623,38.908727606250466,121.58667844684369,幸福e家五期,193,37811,大连正源物业服务有限公司,1.8,辽宁,12,二手房,2008
金州新区先进街道渤海街7-4号1-2层、7-3号1-2层,大连,大连九鼎置地有限公司,金州,20190623,39.09342713035472,121.74590886291374,万科城,81,11147,大连万科物业服务有限公司,2.2,辽宁,12,二手房,2015
沙河口区联合路133号,大连,无开发商,沙河口,20190623,38.91608561262676,121.60480987310456,79中永平,103,26911,无物业管理服务,-,辽宁,12,二手房,1994
大连市开发区左岸经典正恒园1-17,大连,大连神洲众益集团有限公司,开发区,20190623,39.049057070649155,121.76187404250511,万国宫馆二期,128,14134,加拿大高力国际物业服务有限公司,2.4,辽宁,12,二手房,2009
大连经济技术开发区时代城4-3号1-2号,大连,远洋地产有限公司,开发区,20190623,39.0992481321252,121.83007860699459,远洋时代城三期,91,8712,大连远洋基业物业管理有限公司,1.5,辽宁,12,二手房,2012
金州新区站前街道生辉第一城5号楼1-2层4号,大连,大连新希望家园房地产有限公司,金州,20190623,39.05819721414208,121.74650438736514,新希望乐城,69,10251,大连新希望物业服务有限公司,1.6,辽宁,12,二手房,2013
西岗区平等街21号1层2号,大连,无开发商,西岗,20190623,38.92251066253164,121.63236845125735,实验小学同庆街,82,22691,无物业管理服务,-,辽宁,12,二手房,1990
大连市开发区湾里东5-6号,大连,大连宏港房地产开发有限公司,开发区,20190623,39.07275772231556,121.85888789351343,都悦里,212,6846,大连宏港物业管理有限公司,0.3,辽宁,12,二手房,1992
大连市开发区左岸经典正恒园1-17,大连,大连众益神州地产开发有限公司,开发区,20190623,39.049057070649155,121.76187404250511,万国宫馆三期,117,14321,大连万佳物业管理有限公司,2,辽宁,12,二手房,2011
甘井子金地艺境博艺西园2-1号,大连,大连恒昇房地产开发有限公司,甘井子,20190623,39.04402110608829,121.665484498555,福佳新城一期,64,9191,暂无信息,0.9,辽宁,12,二手房,2010
甘井子区泉水H3区15号3单元1层2号,大连,大连新型房地产开发有限公司,甘井子,20190623,39.00158439075201,121.62616882572375,龙畔金泉四期,71,13072,大连新型物业管理有限公司,0.4,辽宁,12,二手房,2005
甘井子区泉水D1区37-7号,大连,大连运腾房地产开发有限公司,甘井子,20190623,39.013992871679214,121.61921940045104,锦泉源D1区,78,14112,大连嘉合物业管理有限公司,0.5,辽宁,13,二手房,2005
开发区景和园1-7,大连,大连市政府工程建设指挥部,开发区,20190623,30.41892168817929,120.30896459202738,小孤山中里,111,7743,大连广谊物业管理有限公司,0.4,辽宁,13,二手房,1999
沙河口区南沙街36号台二2号1-1-37,大连,无开发商,沙河口,20190623,38.90741410359388,121.57685699961822,南沙,84,11316,无物业管理服务,1,辽宁,13,二手房,1995
甘井子金地艺境博艺西园2-1号,大连,暂无信息,甘井子,20190623,39.04402110608829,121.665484498555,欣家园二期,33,9269,街道办事处（居委会）代管物业,0.5,辽宁,11,二手房,2000
金州区金润小区B区861单元102,大连,大连中连房地产开发有限公司,金州,20190623,39.10615165380565,121.74639264534615,自然天城B区,71,7293,大连新生活物业管理有限公司,0.4,辽宁,10,二手房,2010
开发区安盛里5栋-4,大连,大连汽贸房屋开发有限公司,开发区,20190623,23.112106678834838,113.27801046214822,东北明珠,61,12335,大连汽贸物业管理有限公司,1.5,辽宁,10,二手房,2007
沙河口区南沙街36号台二2号1-1-37,大连,大连康加立置业有限公司,沙河口,20190623,38.90741410359388,121.57685699961822,台四小区,37,13110,大连弘达物业管理有限公司,-,辽宁,10,二手房,1996
沙河口区锦石路8号,大连,大连锦绣房地产开发有限公司,沙河口,20190623,38.94771288948481,121.56110903658733,锦泉南园,50,11442,大连锦绣物业管理有限公司,0.3,辽宁,10,二手房,1996
西岗区香炉礁24号1-1,大连,无开发商,西岗,20190623,38.92047268927287,121.61862512554262,工人村,60,10449,街道办事处（居委会）代管物业,0.5,辽宁,10,二手房,1980
无门店信息,大连,大连万德房地产集团有限公司,开发区,20190623,34.52713835999158,118.76812980670795,万德悦城,111,8321,大连万德物业管理有限公司,1.5,辽宁,10,二手房,2010
金州区金润小区B区861单元102,大连,大连新型房地产开发有限公司,金州,20190623,39.10615165380565,121.74639264534615,糖果小区,70,9013,大连新兴物业管理有限公司,0.5,辽宁,10,二手房,2011
沙河口区黑石礁街3号1层1-1号,大连,无开发商,沙河口,20190623,38.880058010307856,121.56313403908827,浪花街,41,11752,无物业管理服务,-,辽宁,10,二手房,1991
无门店信息,大连,大连乐启房地产开发有限公司,甘井子,20190623,34.52713835999158,118.76812980670795,三寰融创城南园,71,13040,融创物业,2.2,辽宁,10,二手房,2015
开发区红梅小区19栋-2-1-1号,大连,香港北海集团,开发区,20190623,29.906498897603264,121.5913630631805,君悦豪庭,72,11706,街道办事处（居委会）代管物业,1.2,辽宁,10,二手房,2004
甘井子区千山路26号,大连,大连嘉兴房地产开发有限公司,甘井子,20190623,38.985697948031984,121.58768860037272,千山路,70,12119,无物业管理服务,0.5,辽宁,10,二手房,1989
中山区华乐街107-115号,大连,大连海昌房地产开发有限公司,中山,20190623,38.92093821499401,121.68879267531725,海昌欣城,104,17186,大连海昌欣城物业管理有限公司,1.2,辽宁,10,二手房,2002
无门店信息,大连,大连环宇置业有限公司,开发区,20190623,34.52713835999158,118.76812980670795,环宇品阁,86,6208,大连环宇物业管理有限公司,1.5,辽宁,10,二手房,2010
开发区润海园中区30-1,大连,华润置地（大连）开发有限公司,开发区,20190623,39.04047273176333,121.76392358042445,华润海中国一期,151,16198,华润物业（大连）有限公司,1.8,辽宁,10,二手房,2009
沙河口区星海广场B3区20—3号,大连,大连飞通房地产开发有限公司,沙河口,20190623,38.88782715536473,121.5869168319735,东方星海,127,17879,大连兆恒物业管理有限公司,2.9,辽宁,10,二手房,2009
甘井子区甘井子路32号楼1单元1楼9号,大连,无开发商,甘井子,20190623,38.982488275116516,121.63345389253514,松江小区,38,10174,街道办事处（居委会）代管物业,0.5,辽宁,10,二手房,1990
中山区解放路604号,大连,无开发商,西岗,20190623,38.89026319122045,121.66407876092346,桃源小学,18,15653,无物业管理服务,-,辽宁,10,二手房,1990
大连经济技术开发区东城天下98-14,大连,大连富远房地产开发有限公司,开发区,20190623,39.069195091289004,121.8502099927954,一河两公园,70,10143,大连锦明物业服务有限公司,1.7,辽宁,11,二手房,2016
甘井子区泉水A2区10-3号,大连,源祥房地产开发有限公司,甘井子,20190623,39.00419463553784,121.61128690376383,美域盛景,162,12911,大连新华物业管理有限公司,0.8,辽宁,11,二手房,2008
沙河口区锦江园30号1层公建,大连,大连锦绣房地产开发有限公司,沙河口,20190623,38.949985113183935,121.56560955976859,锦江园,90,10672,大连锦绣物业管理有限公司,0.3,辽宁,11,二手房,1983
开发区润海园中区30-1,大连,暂无信息,开发区,20190623,39.04047273176333,121.76392358042445,华润海中国七期,71,16265,华润物业（大连）有限公司开发区分公司,3.1,辽宁,11,二手房,2016
甘井子区泉水D6区51号,大连,大连锦丰和源祥房地产开发有限公司,甘井子,20190623,39.00897610161069,121.61789300655198,泉水人家幸福里,130,13936,大连泽霖物业管理有限公司,0.9,辽宁,11,二手房,2009
甘井子区千山路66号楼2单元1楼2号,大连,大连宜和房地产开发有限公司,甘井子,20190623,38.985716774397915,121.58287796391829,盛世闲庭,56,15287,大连衡德物业管理有限公司,0.5,辽宁,11,二手房,2003
中山区益民街16号1层1号,大连,大连恒力德实业开发有限公司,中山,20190623,38.93092761298906,121.66470740073377,港湾壹号,74,14156,大连日航酒店物业管理有限公司,3.8,辽宁,11,二手房,2009
开发区红星海-B区89-1号,大连,远洋地产有限公司,开发区,20190623,39.027851194371685,121.80327394132297,红星海五期青屿蓝,222,14898,大连远洋基业物业管理有限公司,2.2,辽宁,11,二手房,2012
沙河口区绿清街12号,大连,大连绿波房屋开发集团有限公司,沙河口,20190623,38.93851335419565,121.57334844377094,绿波花园,31,13609,大连绿波建设发展有限公司,0.6,辽宁,9,二手房,2001
沙河口区锦霞南园13号4单元1层3号,大连,大连锦绣房地产开发有限公司,沙河口,20190623,38.947634390493555,121.5510543155904,锦华中园,54,12261,大连锦绣物业管理有限公司,0.5,辽宁,9,二手房,2001
无门店信息,大连,大连聚达房地产开发有限公司,旅顺口,20190623,34.52713835999158,118.76812980670795,海尚明珠,165,9831,大连合生物业管理有限公司,1.5,辽宁,9,二手房,2012
大连市甘井子区辛如街35号1单元1层1号,大连,大连新星房地产开发有限公司,甘井子,20190623,38.96862607066881,121.52294869064194,新星绿城五期,68,14004,大连生生物业有限公司,0.8,辽宁,9,二手房,2009
甘井子区锦城西园4#3-1-1,大连,大连锦绣房地产开发有限公司,沙河口,20190623,38.95286223185571,121.55129044777,锦霞北园,107,11785,大连锦绣物业管理有限公司,0.3,辽宁,9,二手房,1998
开发区鹏程家园66#-6、66#-7公建,大连,大连海富花园开发有限公司,开发区,20190623,37.92440451755906,112.59861436589645,海富经典,126,10078,大连银帆物业管理有限公司,1.2,辽宁,9,二手房,2009
西岗区黄河路90号公建部分,大连,大连鼎森房地产开发有限公司,西岗,20190623,38.92234529815978,121.62829331825485,金宸国际,50,17962,英联华（香港）物业管理顾问有限公司,2.2,辽宁,9,二手房,2004
金州区金湾路132-2号,大连,大连金新房地产开发有限公司,金州,20190623,39.10269111644727,121.72221060686516,金州福佳新天地广场,116,8386,大连福佳物业管理有限公司,1.8,辽宁,9,二手房,2011
甘井子区新兴路36号3-1-3,大连,大连新型房地产开发有限公司,甘井子,20190623,38.95800216293212,121.53151895549547,泡崖一区,105,10693,大连新兴物业管理有限公司,0.5,辽宁,9,二手房,1992
甘井子区美域盛景A2区10-6,大连,大连泉水园房屋开发有限公司,甘井子,20190623,39.006221362805846,121.61022278003976,骏腾名苑,72,13962,大连衡德物业管理有限公司,0.5,辽宁,9,二手房,2006
大连市甘井子区泉水R2区33-4号第8幢1单元1跃2层9号,大连,大连天意房地产开发有限公司,甘井子,20190623,39.00961080610692,121.63892035059047,金地檀溪,92,17684,大连金地物业管理有限公司,2.6,辽宁,9,二手房,2014
中山区爱华街13号,大连,大连锦联地产集团有限公司,中山,20190623,38.92541607518685,121.6535728031028,经典生活,38,8649,大连锦联物业管理有限公司,2.2,辽宁,9,二手房,2003
甘井子区泉水H3区15号3单元1层2号,大连,大连新型房地产开发有限公司,甘井子,20190623,39.00158439075201,121.62616882572375,龙畔金泉二期,97,12902,大连新型物业管理有限公司,0.5,辽宁,9,二手房,2003
沙河口区兰田街33号,大连,无开发商,沙河口,20190623,38.926138912221084,121.56486022834609,辽师,47,12217,无物业管理服务,-,辽宁,9,二手房,1970
沙河口区锦石路8号,大连,大连锦绣房地产开发有限公司,沙河口,20190623,38.94771288948481,121.56110903658733,锦云中园,69,10637,大连锦绣物业管理有限公司,0.3,辽宁,9,二手房,1996
沙河口区富民路249号,大连,大连文路建设集团有限公司,沙河口,20190623,38.93341510428133,121.5770130002514,阳光月秀,50,16319,大连丰泽物业管理有限公司,0.6,辽宁,9,二手房,2006
甘井子区红南东街7-7号,大连,大连均卫达房地产开发有限公司,甘井子,20190623,38.92880462247992,121.54144910207062,亲亲阳光,10,13031,大连万泰物业管理有限公司,0.5,辽宁,9,二手房,2004
甘井子区泉水K2区1号-7,大连,大连新型房地产开发有限公司,甘井子,20190623,39.01148211821007,121.63131997900962,龙畔金泉五期K4区,140,12540,大连新兴物业管理有限公司,0.5,辽宁,9,二手房,2008
大连市甘井子区椒房街24号楼2-104链家地产,大连,无开发商,甘井子,20190623,38.985363789837166,121.61034055597686,椒房,87,14102,无物业管理服务,0.5,辽宁,9,二手房,1985
金州区同济路44号,大连,大连阿尔滨中辰置业有限公司,金州,20190623,39.10476859984152,121.71234684495865,瀛海金洲,97,8444,大连阿尔滨汇城物业服务有限公司,0.5,辽宁,9,二手房,2011
甘井子区千山路26号,大连,大连市大钢集团,甘井子,20190623,38.985697948031984,121.58768860037272,华中街,31,12993,街道办事处（居委会）代管物业,0.1,辽宁,9,二手房,1986
甘井子区惠泽南园3-4号,大连,大连鹏德房屋开发有限公司,甘井子,20190623,38.939326611323615,121.52337842113351,西山阳光水岸,48,16936,大连三和住邦物业管理有限公司,1,辽宁,9,二手房,2007
大连市甘井子区丰收路3-5号,大连,无开发商,甘井子,20190623,38.965377255081755,121.58288415324094,王家桥,69,15672,大连铁路物业管理有限公司,0.1,辽宁,8,二手房,1989
沙河口区中山路417A-4号,大连,大连海孚房地产开发有限公司,沙河口,20190623,38.90740323140171,121.59484801084653,华业玫瑰东方,73,26471,深圳华业物业管理有限公司大连分公司,3.5,辽宁,9,二手房,2011
甘井子区山东路商业街D区12号公建,大连,无开发商,甘井子,20190623,39.001060021502965,121.58883960371418,兴华路,56,12463,街道办事处（居委会）代管物业,0.5,辽宁,8,二手房,1989
金州区凤翔路220号,大连,大连润景房地产开发有限公司,金州,20190623,39.08410553937731,121.77700083356399,恒盛阳光美麓,154,9643,沈阳阳光鑫地物业管理有限公司大连分公司,1.6,辽宁,8,二手房,2011
甘井子区虹城路503号1-1号,大连,大连易和房地产集团有限公司,甘井子,20190623,38.981193588625004,121.49964051837122,岭秀滨城悦和东园,71,15331,大连易兴物业服务有限公司,1.3,辽宁,8,二手房,2010
甘井子区山东路315号14栋1单元1跃2层13号,大连,华润置地（大连）开发有限公司,甘井子,20190623,39.00206212579579,121.59357231641214,华润置地广场一期,51,19886,华润物业（大连）有限公司,2.8,辽宁,8,二手房,2013
甘井子区祥龙街2号楼1单元1楼1号,大连,大连美辰房地产开发有限公司,甘井子,20190623,38.988045874482445,121.60439401971377,美辰香醒,49,15565,大连众和物业管理有限公司,1.4,辽宁,8,二手房,2012
甘井子金地艺境博艺西园2-1号,大连,暂无信息,甘井子,20190623,39.04402110608829,121.665484498555,欣家园一期,26,9303,街道办事处（居委会）代管物业,0.9,辽宁,8,二手房,2004
甘井子区促进路30号2-1-1,大连,福佳集团有限公司,甘井子,20190623,38.954133128707575,121.58355746311207,府佳名都,48,18138,大连富佳物业管理有限公司,0.5,辽宁,8,二手房,2002
沙河口区五一路326号,大连,大连亿达房地产股份有限公司,高新园区,20190623,38.913544290955585,121.59450670056631,亿达学清园,25,22982,大连软件园物业管理有限公司,1.2,辽宁,8,二手房,2001
大连市经济技术开发区东城园98-14,大连,大连金湾实业有限公司,开发区,20190623,39.06925526014871,121.8505146710752,裕民新苑,55,8367,大连金湾物业管理有限公司,0.3,辽宁,8,二手房,2006
甘井子区华北路花锦园28号23-3-1-2建筑物,大连,大连东特房地产开发有限公司,甘井子,20190623,38.951627958411166,121.5739439799003,东特爱俪舍,43,15916,大连东特祥禾物业管理有限公司,0.6,辽宁,8,二手房,2004
沙河口区星海广场B3区20—3号,大连,大连亿达房地产股份有限公司,沙河口,20190623,38.88782715536473,121.5869168319735,亿达杰特,127,19776,亿达物业管理有限公司,3.8,辽宁,8,二手房,2005
开发区小孤山西里3栋-11号,大连,大连九龙汇房地产开发有限公司,开发区,20190623,39.02715282297674,121.80682183666346,九龙汇,56,8910,大连宏亮红物业管理有限公司,1.9,辽宁,8,二手房,2009
高新园区硅谷假日小区25号楼地下室,大连,大连志恒房地产开发有限公司,高新园区,20190623,38.86467854992112,121.53720784613759,菁英汇,53,15524,大连海创物业管理有限公司,1.2,辽宁,8,二手房,2007
甘井子区红旗西路104-7,大连,大连盛达基业房地产开发有限公司,甘井子,20190623,38.940335495502666,121.52722586363274,依山云水,23,14555,大连盛新物业管理有限公司,0.4,辽宁,8,二手房,2004
开发区黄海西路54号,大连,开发区城建局,开发区,20190623,39.047714586087785,121.76688238228269,青松南里,87,8021,大连经济技术开发区中强物业管理有限公司,0.5,辽宁,8,二手房,2003
无门店信息,大连,大连乾豪集团有限公司,开发区,20190623,34.52713835999158,118.76812980670795,格林小镇,189,8134,沈阳瑞码阁物业管理有限公司大连分公司,0.6,辽宁,8,二手房,2002
开发区黄海西路54号,大连,大连凯伦房地产开发股份有限公司,开发区,20190623,39.047714586087785,121.76688238228269,凯伦凯悦,102,8722,大连凯悦物业管理有限公司,3.1,辽宁,8,二手房,2008
沙河口区西南路161号,大连,无开发商,沙河口,20190623,38.89269676588945,121.56639953951542,孙家沟,79,12329,无物业管理服务,-,辽宁,9,二手房,1990
开发区黄海西路54号,大连,中国铁路十三局,开发区,20190623,39.047714586087785,121.76688238228269,翠竹小区,124,7954,大连经济技术开发区中强物业管理有限公司,0.3,辽宁,8,二手房,1996
甘井子区华龙南园12-4-3-1-3,大连,大连长鹭房屋开发有限公司,甘井子,20190623,38.98528794231248,121.61028969481718,晶品枫林,49,13577,北京房修一物业管理有限公司,0.5,辽宁,8,二手房,2008
无门店信息,大连,大连龙湖西城置业有限公司,甘井子,20190623,34.52713835999158,118.76812980670795,龙湖滟澜山,59,20527,大连龙湖物业服务有限公司,6.6,辽宁,7,二手房,2015
无门店信息,大连,无开发商,金州,20190623,34.52713835999158,118.76812980670795,滨海丰园,113,8242,街道办事处（居委会）代管物业,0.5,辽宁,7,二手房,2011
沙河口区红凌路137号,大连,大连大实企业集团房屋开发有限公司,甘井子,20190623,38.922699288974506,121.54713601744747,泊林阳光A区,13,13893,大连弘实物业管理有限公司,0.6,辽宁,7,二手房,2007
甘井子区甘井子街3号公建,大连,无开发商,甘井子,20190623,38.982086281836246,121.63426694995971,北山小区,24,8869,无物业管理服务,0.2,辽宁,7,二手房,1988
中山区清溪南街11号,大连,无开发商,中山,20190623,38.88919604283904,121.66466481004835,桃仙小区,21,13333,街道办事处（居委会）代管物业,-,辽宁,7,二手房,1992
中山区东港龙湖水晶郦湾7-102,大连,大连龙湖东港房地产有限公司,中山,20190623,38.924700620463895,121.70344398518496,龙湖水晶郦湾,72,28174,大连龙湖物业服务有限公司,4.5,辽宁,7,二手房,2015
西岗区九三街64号,大连,润德集团有限公司,西岗,20190623,38.92047268927287,121.61862512554262,润德广场,66,15357,大连润德物业管理有限公司,3.8,辽宁,7,二手房,2011
甘井子区惠泽南园3-4号,大连,大连鹏德房屋开发有限公司,甘井子,20190623,38.939326611323615,121.52337842113351,西山逸林,36,15084,大连三和住邦物业管理有限公司,1.3,辽宁,7,二手房,2009
无门店信息,大连,大连海脉房地产开发有限公司,金州,20190623,34.52713835999158,118.76812980670795,海脉未来城,28,8179,大连豪斯威物业管理有限公司,1,辽宁,7,二手房,2013
经济技术开发区城润万家62-8公建,大连,大连海汇房地产开发有限公司,开发区,20190623,39.06883436780937,117.72669530355309,正源吉祥e家祥福园,53,11387,大连正源物业服务有限公司,1.5,辽宁,8,二手房,2015
西岗区长红街4号1号公建,大连,无开发商,西岗,20190623,38.91377414665191,121.6302525225721,34中林荫巷,12,26101,无物业管理服务,-,辽宁,7,二手房,1997
沙河口区富国街14号1-1-2,大连,大连永辉房地产开发有限公司,沙河口,20190623,38.901027106600836,121.59047734850638,百年汇,122,18502,大连百年城物业管理有限公司,2.8,辽宁,8,二手房,2007
高新园区火炬路18号,大连,大连海脉房地产开发有限公司,高新园区,20190623,38.937738080520404,117.39340752036043,MINI印象,141,15151,大连豪斯威物业管理有限公司,2.2,辽宁,8,二手房,2012
开发区大开高吉里33栋6号,大连,大连金港集团有限公司,开发区,20190623,39.07355836059941,121.8280439450145,高祥里,63,7830,街道办事处（居委会）代管物业,0.3,辽宁,8,二手房,1992
开发区红梅小区19栋-2-1-1号,大连,无开发商,开发区,20190623,29.906498897603264,121.5913630631805,古耕国际酒店公寓,66,10800,街道办事处（居委会）代管物业,3,辽宁,8,二手房,2010
金州新区站前街道生辉第一城5号楼1-2层4号,大连,大连公路工程集团生辉房地产开发有限公司,金州,20190623,39.05819721414208,121.74650438736514,生辉第一城,128,10953,大连生辉物业管理有限公司,1.2,辽宁,8,二手房,2007
开发区润海园中区65-7号1-2号,大连,华润（大连）房地产有限公司,开发区,20190623,39.04047273176333,121.76392358042445,华润海中国五期,106,14592,华润物业（大连）有限公司,3.1,辽宁,8,二手房,2015
甘井子区祥龙街2号楼1单元1楼1号,大连,大连市大钢集团,甘井子,20190623,38.988045874482445,121.60439401971377,华南沃尔玛六一路,25,11691,街道办事处（居委会）代管物业,0.5,辽宁,6,二手房,1990
高新园区黄浦路901S号1单元1层3号,大连,大连海创房地产开发有限公司,高新园区,20190623,38.85845801548294,121.51687109601923,谷歌里,53,14940,大连海创物业管理有限公司,1.2,辽宁,7,二手房,2009
沙河口区前程街46号4—1—2号,大连,大连渤海红旗集团有限公司,甘井子,20190623,38.913544290955585,121.59450670056631,彩霞园,14,11745,渤海吉祥物业管理有限公司,0.4,辽宁,6,二手房,2000
沙河口区西南路161号,大连,无开发商,沙河口,20190623,38.89269676588945,121.56639953951542,大医物业,8,13544,街道办事处（居委会）代管物业,0.5,辽宁,6,二手房,1990
沙河口区黄浦路18号—5号公建,大连,大连良运房地产开发有限公司,高新园区,20190623,38.8771225143479,121.54427480390662,翰林观海公寓,22,18255,大连良运物业管理有限公司,0.8,辽宁,6,二手房,2003
开发区黄海西路54号,大连,无开发商,开发区,20190623,39.047714586087785,121.76688238228269,翠南隆达院,22,8032,嘉兴物业管理有限公司,0.5,辽宁,6,二手房,1998
金州新区先进街道五一路350-1号1-2层,大连,暂无信息,金州,20190623,39.078667146419825,121.77094423323935,聚鑫小区三期,62,7058,大连新生活物业管理有限公司,0.5,辽宁,8,二手房,2008
高新园区书香街1A#1-1-2,大连,大连金弘基房地产开发有限公司,高新园区,20190623,38.880372108393104,121.55218773010999,弘基三期,57,20271,大连金弘基物业管理有限公司,0.5,辽宁,7,二手房,2005
大连市甘井子区钻石湾和信园13-5,大连,远洋地产有限公司,甘井子,20190623,38.958699272665584,121.61903564217761,远洋钻石湾三期,66,21109,远洋亿家物业服务股份有限公司大连分公司,1.5,辽宁,8,二手房,2014
西岗区黄河路90号公建部分,大连,暂无信息,西岗,20190623,38.92234529815978,121.62829331825485,实验小学市场街,54,22443,无物业管理服务,-,辽宁,7,二手房,1990
大连市金州新区中长街道碧海尚城5-4号1-2层,大连,无开发商,金州,20190623,39.100290954587514,121.7304796052032,碧海尚城,131,8256,街道办事处（居委会）代管物业,0.8,辽宁,7,二手房,2007
金州区先进街道渤海街1-4号1-2层,大连,无开发商,金州,20190623,39.09512910553563,121.74578812616167,金元小区,63,7095,街道办事处（居委会）代管物业,0.1,辽宁,7,二手房,1993
沙河口区富国街34-3,大连,大连万达房地产开发有限公司,沙河口,20190623,38.90159716600704,121.58930603357904,星海人家,66,27323,大连万景物业管理有限公司,1.2,辽宁,7,二手房,2001
无门店信息,大连,大连馨悦房地产开发有限公司,金州,20190623,34.52713835999158,118.76812980670795,悦泰山里,94,10417,大连百安物业管理有限公司,0.5,辽宁,7,二手房,2009
金州区先进街道陶然居公建2-2号1层,大连,大连金信集团房地产有限公司,金州,20190623,39.08283372756215,121.76170982507143,金信陶然居,77,9454,北京瑞思特物业管理有限公司,0.5,辽宁,7,二手房,2007
中山区共建巷61号,大连,无开发商,中山,20190623,38.91828093658718,121.66259221532148,39中共建巷,25,26628,街道办事处（居委会）代管物业,0.5,辽宁,7,二手房,1990
金州新区先进街道五一路350-1号1-2层,大连,大连中连房地产开发有限公司,金州,20190623,39.078667146419825,121.77094423323935,聚鑫小区二期,31,7866,大连新生活物业管理有限公司,0.5,辽宁,7,二手房,2008
沙河口区富民路120号4-1-1,大连,大连银地置业发展有限公司,沙河口,20190623,38.930937859528605,121.5647274237578,观山蝶恋花,41,14867,大连新展物业管理有限公司,1,辽宁,7,二手房,2011
红星海A区126-4,大连,远洋地产有限公司,开发区,20190623,39.027851194371685,121.80327394132297,红星海一期城市别馆,109,13753,大连远洋基业物业管理有限公司,2,辽宁,7,二手房,2010
沙河口区华新苑10号楼4号公建,大连,大连祥盛房屋开发有限公司,沙河口,20190623,38.94033750532864,121.58990295130229,香洲心城,25,18770,大连百特物业管理有限公司,1,辽宁,7,二手房,2011
开发区红梅小区19栋-2-1-1号,大连,开发区城建局,开发区,20190623,29.906498897603264,121.5913630631805,红梅小区,50,12683,街道办事处（居委会）代管物业,0.3,辽宁,7,二手房,1995
开发区兴城路29-81层,大连,大连兆佳房地产开发有限公司,开发区,20190623,39.050214252167194,121.75835946441768,自由向,56,14424,大连华安物业管理有限公司,2.4,辽宁,7,二手房,2008
大连市甘井子区泉水N2区3-13号,大连,大连金广地产集团有限公司,甘井子,20190623,39.021116079001885,121.64659997607325,泉水N3区,89,10743,大连鹏辉物业管理有限公司,0.7,辽宁,7,二手房,2000
甘井子区玉丽街2号楼1单元4号公建,大连,大连新型房地产开发有限公司,甘井子,20190623,38.98705071699301,121.55513043130172,泡崖康居园,50,10479,大连新兴物业管理有限公司,0.5,辽宁,6,二手房,2000
开发区兴城路29-81层,大连,大连亿锋房地产实业有限公司,开发区,20190623,39.050214252167194,121.75835946441768,亿锋广场二期,52,14891,大连广恒物业管理有限公司,2.5,辽宁,6,二手房,2015
西岗区平等街21号1层2号,大连,"无开发商,大连永欣香榭里实业有限公司",西岗,20190623,38.92251066253164,121.63236845125735,香榭里,60,10280,大连金地物业管理有限公司,3.6,辽宁,6,二手房,2010
金州区小平岛B组团4号楼3号商铺,大连,大连圣岛房地产开发有限公司,高新园区,20190623,39.05643299166072,121.78943558267059,小平岛海角七号,51,21435,大连凯尔富物业管理有限公司,1.7,辽宁,6,二手房,2011
甘井子区西南路979-7号公建,大连,暂无信息,甘井子,20190623,38.96275592929325,121.5958698791777,八十中红咀街,133,15657,街道办事处（居委会）代管物业,0.2,辽宁,6,二手房,1988
甘井子区山东路315号14栋1单元1跃2层13号,大连,华润置地（大连）有限公司,甘井子,20190623,39.00206212579579,121.59357231641214,华润置地广场二期,48,20315,华润物业（大连）有限公司,2.9,辽宁,6,二手房,2013
大连市甘井子区泉水N2区3-13号,大连,暂无信息,甘井子,20190623,39.021116079001885,121.64659997607325,泉水N2区,51,10870,无物业管理服务,0.7,辽宁,6,二手房,2009
无门店信息,大连,大连亿达房地产股份有限公司,高新园区,20190623,34.52713835999158,118.76812980670795,亿达悦龙居,17,14509,亿达物业管理有限公司,2.8,辽宁,6,二手房,2015
甘井子区圣林南园3-3号,大连,大连广泰房屋开发有限公司,甘井子,20190623,38.95191781681833,121.54394961192217,美树日记,74,22490,大连华安物业管理有限公司,1.6,辽宁,6,二手房,2009
甘井子区华龙南园12-4-3-1-3,大连,大连鹏德房屋开发有限公司,甘井子,20190623,38.98528794231248,121.61028969481718,乐活源,66,12952,大连三和住邦物业管理有限公司,0.5,辽宁,6,二手房,2009
开发区润海园中区62-9,大连,大连金广嘉亿置地有限公司,开发区,20190623,39.04047273176333,121.76392358042445,大连海湾城一期,105,12431,大连金广物业服务有限公司,2.6,辽宁,6,二手房,2012
大连市沙河口区黄河路729号,大连,无开发商,沙河口,20190623,38.91710565765228,121.58954758972729,南昌平小区,59,12972,街道办事处（居委会）代管物业,0.8,辽宁,6,二手房,1986
中山区杏林街66—5号,大连,嘉和房地产集团有限公司,中山,20190623,38.92572771377599,121.66490555592502,嘉和花样年华三期,51,24046,大连嘉和物业管理有限公司,3.5,辽宁,6,二手房,2007
甘井子区汇仁街22号,大连,中铁建（大连）置业有限公司,甘井子,20190623,38.99712640764999,121.58834420439493,动力院景三期汇善园,46,15398,大连铁龙安居物业管理有限公司,0.9,辽宁,6,二手房,2007
大连市金州新区中长街道碧海尚城5-4号1-2层,大连,大连集品置业有限公司,金州,20190623,39.100290954587514,121.7304796052032,东林世家,44,14807,大连百安物业管理有限公司,1,辽宁,6,二手房,2008
沙河口区西南路40号楼,大连,无开发商,沙河口,20190623,38.94143337232082,121.58616557598133,星海公园,52,12809,无物业管理服务,0.5,辽宁,6,二手房,1990
高新园区硅谷假日小区25号楼地下室,大连,大连鑫亿房屋开发有限公司,高新园区,20190623,38.86467854992112,121.53720784613759,硅谷假日,54,19918,大连斌弘物业管理有限公司,0.8,辽宁,6,二手房,2005
沙河口区红旗东路18-22号2单元1楼3号,大连,无开发商,甘井子,20190623,38.913544290955585,121.59450670056631,天泉山庄,17,12713,大连铁龙安居物业管理有限公司,0.5,辽宁,6,二手房,2000
甘井子区山东路398号,大连,大连盛铭资产管理有限公司,甘井子,20190623,38.99821826443242,121.59274974973462,亿合城,80,18504,大连盛安物业管理有限公司,1.5,辽宁,6,二手房,2013
沙河口区恒利园42号-8,大连,大连新型房地产开发有限公司,沙河口,20190623,38.93357562498634,121.57914091532649,中铁十三局,15,13117,大连新兴物业管理有限公司,0.3,辽宁,6,二手房,1993
大连市金州区友谊街道南金华城25号1-2层1号,大连,大连友谊合升房地产开发有限公司,金州,20190623,39.128677228885614,121.71356109978767,恒达花园,75,8194,街道办事处（居委会）代管物业,0.5,辽宁,6,二手房,2004
开发区大开高吉里33栋6号,大连,无开发商,开发区,20190623,39.07355836059941,121.8280439450145,高泰里,15,6227,无物业管理服务,-,辽宁,6,二手房,1998
甘井子区西南路979-7号公建,大连,大连祥盛房屋开发有限公司,甘井子,20190623,38.96275592929325,121.5958698791777,金盛家园,54,17137,大连宏华物业管理有限公司,0.5,辽宁,6,二手房,2001
开发区金源南里14栋-11号一层部分，14号-12号一层部分,大连,无开发商,开发区,20190623,39.06148862675436,121.82503941311765,金源南里,91,8865,嘉兴物业管理有限公司,0.3,辽宁,6,二手房,2001
无门店信息,大连,大连宏港房地产开发有限公司,开发区,20190623,34.52713835999158,118.76812980670795,港湾观海,75,8750,大连宏港物业管理有限公司,0.5,辽宁,6,二手房,2013
金州新区先进街道五一路350-1号1-2层,大连,大连市金州区育才房地产开发有限公司,金州,20190623,39.078667146419825,121.77094423323935,康居小区,56,7647,街道办事处（居委会）代管物业,-,辽宁,6,二手房,1998
金州区凤翔路220号,大连,大连德泰控股有限公司,金州,20190623,39.08410553937731,121.77700083356399,德泰岭秀逸城B区,76,10724,大连德泰物业管理有限公司,1.9,辽宁,6,二手房,2013
沙河口区黄河路562号,大连,大连新型房地产开发有限公司,沙河口,20190623,38.9167961764482,121.60352063132478,79中科学家公寓,41,21076,大连新兴物业管理有限公司,0.8,辽宁,6,二手房,1995
中山区山屏街116号1-1,大连,大连中信海港投资有限公司,中山,20190623,38.90729438486833,121.68598159980013,山屏街,41,11819,暂无信息,-,辽宁,6,二手房,1988
无门店信息,大连,大连亿达房地产股份有限公司,旅顺口,20190623,34.52713835999158,118.76812980670795,亿达玉龙湾,48,9338,亿达物业管理有限公司,1.5,辽宁,6,二手房,2013
无门店信息,大连,大连中连房地产开发有限公司,金州,20190623,34.52713835999158,118.76812980670795,憬园河畔,63,7974,大连新生活物业管理有限公司,0.4,辽宁,6,二手房,2000
无门店信息,大连,大连新跃房地产开发有限公司,金州,20190623,34.52713835999158,118.76812980670795,金海国际花园,227,8030,盘锦瀚新物业管理有限公司,1,辽宁,6,二手房,2010
甘井子区海口路77—5号,大连,暂无信息,甘井子,20190623,38.960286398428124,121.60305183172997,鹏辉新世纪四期,51,17552,大连鹏辉物业管理有限公司,0.6,辽宁,6,二手房,2003
开发区正恒园1-16,大连,暂无信息,开发区,20190623,39.04823944344617,121.76165468797754,正泰园B区,36,11860,无物业管理服务,-,辽宁,6,二手房,2000
沙河口区红旗东路18-22号2单元1楼3号,大连,大连益嘉房屋开发有限公司,沙河口,20190623,38.913544290955585,121.59450670056631,益嘉广场,51,17023,大连益嘉物业管理有限公司,1.8,辽宁,6,二手房,2012
无门店信息,大连,大连鹏玥房地产开发有限公司,开发区,20190623,34.52713835999158,118.76812980670795,中环城市广场,26,9177,大连鹏玥物业公司,1.5,辽宁,6,二手房,2015
甘井子区泉水D1区10-2#1-1-7,大连,大连运达房地产集团有限公司,甘井子,20190623,39.01504676175047,121.61751269364314,锦泉源B4区,65,11256,大连佳泰物业管理有限公司,0.5,辽宁,6,二手房,2002
金州区南棉路310号,大连,大连金连房地产开发有限公司,金州,20190623,39.09939229372624,121.72414976100345,金连福地,29,8141,街道办事处（居委会）代管物业,0.5,辽宁,6,二手房,2010
沙河口区五一路270-274号,大连,大连亿达房地产股份有限公司,高新园区,20190623,38.913544290955585,121.59450670056631,city one,18,14270,亿达物业管理有限公司,0.5,辽宁,6,二手房,2006
沙河口区新生路万客园3-7,大连,大连万科锦绣花城开发有限公司,沙河口,20190623,38.94412875710208,121.57006756704837,万科城市花园,48,20419,大连万科物业服务有限公司,1.5,辽宁,6,二手房,2005
大连市甘井子区融田西园52-11,大连,大连圣安房地产开发有限公司,甘井子,20190623,38.95800216293212,121.53151895549547,亿达春田晴湾,74,17119,亿达物业管理有限公司,2.2,辽宁,6,二手房,2013
甘井子区芳韵街31号,大连,大连亿达房地产股份有限公司,甘井子,20190623,38.95628814568166,121.59125586946814,唯美品格,100,30094,亿达物业管理有限公司,1.5,辽宁,6,二手房,2009
中山区武昌街武昌公寓6号公建,大连,无开发商,中山,20190623,38.912280913445784,121.64921130527547,宪立巷,19,10256,无物业管理服务,-,辽宁,5,二手房,1988
中山区中南路226号,大连,大连亿泰房屋开发有限公司,中山,20190623,38.90029610333926,121.68178899957817,亿泰庄园,13,15158,大连远洋基业物业管理有限公司,0.7,辽宁,5,二手房,1999
大连市甘井子区燕南园50号,大连,大连软件园发展有限公司,高新园区,20190623,38.90172480153224,121.5363466289672,东方圣克拉二期,53,27501,亿达物业管理有限公司,2.6,辽宁,5,二手房,2011
沙河口区民权街324号,大连,大连天河房地产开发集团有限公司,沙河口,20190623,38.92064616208148,121.59777611850379,民权小区,39,12698,大连福港物业管理有限公司,0.2,辽宁,5,二手房,1992
甘井子金地艺境博艺西园2-1号,大连,大连丰达房地产开发有限公司,甘井子,20190623,39.04402110608829,121.665484498555,益丰乾城,22,12801,大连逸佳物业管理有限公司,1.6,辽宁,5,二手房,2015
开发区鹏程家园66#-6、66#-7公建,大连,大连神洲众益集团有限公司,开发区,20190623,37.92440451755906,112.59861436589645,众益阳光海岸,95,10575,大连万佳物业管理有限公司,1.2,辽宁,5,二手房,2005
开发区杏树里10栋-14,大连,无开发商,开发区,20190623,39.08113818354046,121.78505742127606,松苑山庄,79,5933,大连市金州区先进物业管理中心,0.5,辽宁,5,二手房,1999
"西岗区泰公街20号2层7号 西岗区久寿街22号1层14号""",大连,未知,西岗,20190623,38.92600196862723,121.62141976476381,北京街南,55,14219,大连长青物业管理中心,0.2,辽宁,5,二手房,1975
经济技术开发区城润万家4-5号公建,大连,无开发商,开发区,20190623,39.05716325096989,121.75946281983826,西山小区,5,7765,街道办事处（居委会）代管物业,0.5,辽宁,5,二手房,1996
开发区松苑街23号,大连,大连泰乐房地产开发有限公司,开发区,20190623,22.52087435807652,113.40156105086167,碧海华庭,47,6807,大连海滨物业管理有限公司,0.5,辽宁,5,二手房,2005
沙河口区展望街29,大连,大连嘉源置业发展有限公司,沙河口,20190623,38.93473052900021,121.57390298303343,御园,39,18083,大连御博物业,2,辽宁,5,二手房,2015
沙河口区成仁街91号,大连,无开发商,沙河口,20190623,38.91539947107844,121.59585638842556,西安路公寓,15,13897,大连协和物业管理有限公司,0.5,辽宁,5,二手房,2000
沙河口区黄河路883号,大连,无开发商,沙河口,20190623,38.919826721475204,121.57749657966676,沙区医院,29,13135,无物业管理服务,-,辽宁,5,二手房,1990
甘井子区祥龙街2号楼1单元1楼1号,大连,大连世隆房地产开发有限公司,甘井子,20190623,38.988045874482445,121.60439401971377,玉树临居,16,13833,北京房修一物业管理有限公司,1.3,辽宁,5,二手房,2009
高新园区黄浦路600-602号,大连,大连鑫亿房屋开发有限公司,高新园区,20190623,38.86342472318123,121.53493189660259,新科花园,37,18283,大连鑫晟物业管理有限公司,0.6,辽宁,5,二手房,2003
金州区光明街道育才街42-6号1-2层,大连,大连市金州区育才房地产开发有限公司,金州,20190623,39.109080894078986,121.7182584929096,职高小区,47,8615,大连金州育才物业管理有限公司,0.5,辽宁,5,二手房,1996
开发区高新里6栋-8,大连,无开发商,开发区,20190623,39.0710895068195,121.82860134358343,高民里,72,6767,街道办事处（居委会）代管物业,0.2,辽宁,5,二手房,1996
金州区金湾路132-2号,大连,无开发商,金州,20190623,39.10269111644727,121.72221060686516,胜利西小区,108,7586,街道办事处（居委会）代管物业,0.5,辽宁,5,二手房,1992
甘井子区金家街17-7号,大连,暂无信息,甘井子,20190623,38.97493697764367,121.60110987128529,金二街,40,19658,无物业管理服务,-,辽宁,5,二手房,1970
中山区同心街72号1楼公建,大连,大连泰宸房地产开发有限责任公司,中山,20190623,38.91979245940674,121.64769198230202,伊景华园,68,25974,街道办事处（居委会）代管物业,2.2,辽宁,5,二手房,2006
沙河口区绿清街12号,大连,大连中海新城置业有限公司,沙河口,20190623,38.93851335419565,121.57334844377094,中海英伦观邸,55,22665,大连中海物业管理有限公司,1.8,辽宁,5,二手房,2009
甘井子区山东路商业街D区12号公建,大连,无开发商,甘井子,20190623,39.001060021502965,121.58883960371418,七绣路,22,11732,街道办事处（居委会）代管物业,0.5,辽宁,5,二手房,1996
大连市甘井子区辛如街35号1单元1层1号,大连,大连新星房地产开发有限公司,甘井子,20190623,38.96862607066881,121.52294869064194,新星绿城六期,39,15153,大连生生物业管理有限公司,1,辽宁,5,二手房,2008
开发区黄海西路201号107公建,大连,无开发商,开发区,20190623,39.04942604506828,121.80126318235419,岗松里小区,110,7132,大连经济技术开发区海青物业有限公司,0.5,辽宁,5,二手房,1999
大连市金州新区中长街道碧海尚城5-4号1-2层,大连,无开发商,金州,20190623,39.100290954587514,121.7304796052032,体育场小区,68,7319,街道办事处（居委会）代管物业,2,辽宁,5,二手房,1995
沙河口区长江路738号,大连,大连大世界房地产开发有限公司,西岗,20190623,38.913544290955585,121.59450670056631,第九频道,43,25996,大世界商业联合机构,3.6,辽宁,5,二手房,2014
西岗区八一路196号1-3,大连,大连三环置业有限公司,西岗,20190623,38.92047268927287,121.61862512554262,桃花源小区,49,10159,大连三寰物业管理有限公司,0.5,辽宁,5,二手房,1996
大连市甘井子区椒房街24号楼2-104链家地产,大连,中铁建（大连）置业有限公司,甘井子,20190623,38.985363789837166,121.61034055597686,青秀蓝湾一期,29,20130,中国铁建地产集团物业公司,1.5,辽宁,5,二手房,2016
无门店信息,大连,大连长鹭房屋开发有限公司,甘井子,20190623,34.52713835999158,118.76812980670795,晶品森岚,12,15948,大连旺宇物业有限公司,1.3,辽宁,5,二手房,2009
无门店信息,大连,大连唐银盛兴置业有限公司,开发区,20190623,34.52713835999158,118.76812980670795,钻石9座,41,10045,大连佳家物业管理有限公司,1.5,辽宁,5,二手房,2014
甘井子区泉水H1区54号3单元1层1号,大连,暂无信息,甘井子,20190623,39.0074937564393,121.62382856020916,龙畔金泉五期K1区,35,13476,大连新兴物业管理有限公司,0.5,辽宁,5,二手房,2008
甘井子区中华路泉水A1区86号4单元1层1号,大连,大连科技园房地产开发有限公司,甘井子,20190623,39.0040531092963,121.60742125620513,奥林园,43,14161,大连衡德物业管理有限公司,0.5,辽宁,5,二手房,2004
甘井子区甘井子街3号公建,大连,无开发商,甘井子,20190623,38.982086281836246,121.63426694995971,甘泉小区,18,11713,街道办事处（居委会）代管物业,0.5,辽宁,5,二手房,2000
沙河口区红旗东路18-22号2单元1楼3号,大连,大连渤海红旗集团有限公司,甘井子,20190623,38.913544290955585,121.59450670056631,红旗东路,44,11784,渤海吉祥物业管理有限公司,0.4,辽宁,5,二手房,1992
甘井子区海口路77—5号,大连,大连圣韬房地产开发有限公司,甘井子,20190623,38.960286398428124,121.60305183172997,万福居,53,18596,大连圣韬物业管理有限公司,0.5,辽宁,5,二手房,2006
无门店信息,大连,大连世茂嘉年华置业有限公司,金州,20190623,34.52713835999158,118.76812980670795,世茂御龙海湾,262,11445,经纬物业(中国)有限公司,2,辽宁,5,二手房,2014
中山区金城街26号一楼,大连,无开发商,中山,20190623,38.922282529515634,121.65214466263014,九中洛川街,21,35775,无物业管理服务,-,辽宁,5,二手房,1995
无门店信息,大连,大连宏鼎房地产开发有限公司,旅顺口,20190623,34.52713835999158,118.76812980670795,国宝星月湾,63,11964,大连星海国宝物业管理有限公司,2.5,辽宁,5,二手房,2015
"西岗区泰公街20号2层7号 西岗区久寿街22号1层14号""",大连,大连润德君城房地产开发有限公司,西岗,20190623,38.92600196862723,121.62141976476381,北京公园,41,24158,大连润德物业管理有限公司,2.2,辽宁,5,二手房,2010
中山区杏林街66—5号,大连,大连开建集团有限公司,中山,20190623,38.92572771377599,121.66490555592502,花香维也纳,48,23325,大连开利物业管理有限公司,0.5,辽宁,5,二手房,2003
西岗区香炉礁24号1-1,大连,大连新型房地产开发有限公司,西岗,20190623,38.92047268927287,121.61862512554262,金海花园西园,46,12034,无物业管理服务,0.5,辽宁,5,二手房,2001
西岗区鞍山路29号龙畔锦城东门,大连,大连凯润房屋开发有限公司,西岗,20190623,38.92763470697088,121.61498923399098,景润一期,41,11769,无物业管理服务,-,辽宁,5,二手房,2000
沙河口区锦霞南园13号3-1-1,大连,大连锦绣房地产开发有限公司,沙河口,20190623,38.94761264366187,121.55126272246873,锦霞南园,47,11344,大连锦绣物业管理有限公司,0.3,辽宁,5,二手房,1998
无门店信息,大连,大连亚联房地产开发有限公司,甘井子,20190623,34.52713835999158,118.76812980670795,翡翠春城,80,14633,大连亚联物业管理有限公司,1.6,辽宁,5,二手房,2012
甘井子区金家街17-7号,大连,大连嘉兴房地产开发有限公司,甘井子,20190623,38.97493697764367,121.60110987128529,青林美地,38,21153,大连嘉盛物业管理有限公司,0.5,辽宁,5,二手房,2003
金州区南棉路310号,大连,无开发商,金州,20190623,39.09939229372624,121.72414976100345,胜利小区,111,7975,无物业管理服务,0.5,辽宁,5,二手房,1986
中山区北斗街53号1层1号,大连,大连运达房地产集团有限公司,中山,20190623,38.92727355733075,121.67002970974048,运达嘉洲阳光,29,18949,大连运达物业有限公司,1.8,辽宁,5,二手房,2007
沙河口区兰田街33号,大连,无开发商,沙河口,20190623,38.926138912221084,121.56486022834609,兰玉街,26,11910,街道办事处（居委会）代管物业,0.4,辽宁,5,二手房,1990
甘井子金地艺境博艺西园2-1号,大连,大连天意房地产开发有限公司,甘井子,20190623,39.04402110608829,121.665484498555,金地艺境,152,14948,大连金地物业管理有限公司,0.5,辽宁,5,二手房,2011
沙河口区五一路177-1-1-1,大连,大华集团大连房地产开发有限公司,沙河口,20190623,38.913544290955585,121.59450670056631,大华御庭,50,22229,大连乐尔居物业服务有限公司,1.4,辽宁,5,二手房,2009
无门店信息,大连,大连明和房地产开发有限公司,开发区,20190623,34.52713835999158,118.76812980670795,知语山园,33,10946,大连大众物业管理有限公司,1.3,辽宁,5,二手房,2012
沙河口区五一路270-274号,大连,无开发商,高新园区,20190623,38.913544290955585,121.59450670056631,由家村,29,12755,无物业管理服务,-,辽宁,5,二手房,1990
大连市甘井子区椒房街24号楼2-104链家地产,大连,大连港置地有限公司,甘井子,20190623,38.985363789837166,121.61034055597686,大连港天下粮仓,24,20095,大连万科物业服务有限公司,2.2,辽宁,5,二手房,2017
无门店信息,大连,无开发商,甘井子,20190623,34.52713835999158,118.76812980670795,七星广场,17,9154,街道办事处（居委会）代管物业,0.2,辽宁,5,二手房,1995
甘井子区泉水B2区19-1号,大连,大连运达房地产集团有限公司,甘井子,20190623,39.0101309886317,121.60812584213187,锦泉源B1区,64,13480,大连佳泰物业管理有限公司,0.5,辽宁,5,二手房,2001
中山区中南路店212号门头房,大连,无开发商,中山,20190623,38.91149759691359,121.67700561077149,中南路,60,12826,街道办事处（居委会）代管物业,-,辽宁,5,二手房,1989
无门店信息,大连,大连众仕房地产开发有限公司,开发区,20190623,34.52713835999158,118.76812980670795,山河御景,26,8071,大连山河物业管理有限公司,1.5,辽宁,5,二手房,2015
无门店信息,大连,大连运达房地产集团有限公司,甘井子,20190623,34.52713835999158,118.76812980670795,运达诺维溪谷一期,46,16725,大连运达物业有限公司,1.8,辽宁,5,二手房,2010
甘井子区虹城路503号1-1号,大连,大连易和房地产集团有限公司,甘井子,20190623,38.981193588625004,121.49964051837122,岭秀滨城悦和中园,36,16073,大连易兴物业服务有限公司,1.3,辽宁,5,二手房,2009
无门店信息,大连,开发区城建局,开发区,20190623,34.52713835999158,118.76812980670795,东居里,133,7018,大连经济技术开发区海青物业有限公司,0.2,辽宁,5,二手房,1996
甘井子区汇仁街22号,大连,大连永高房屋开发有限公司,甘井子,20190623,38.99712640764999,121.58834420439493,加州洋房,80,14932,大连怡和物业服务有限公司,0.9,辽宁,5,二手房,2008
大连市金州新区友谊街道和平路59-10号1-2层公建,大连,无开发商,金州,20190623,39.112168401852266,121.72006917947859,和平小区,25,8162,街道办事处（居委会）代管物业,0.1,辽宁,5,二手房,1996
甘井子区鹏辉新世纪1幢1单元1-3号房屋（海口路99号）,大连,暂无信息,甘井子,20190623,38.96077365187575,121.60514653016222,鹏辉新世纪三期,20,17429,大连鹏辉物业管理有限公司,0.6,辽宁,5,二手房,2003
沙河口区前程街46号4—1—2号,大连,大连台安房屋开发有限公司开发,甘井子,20190623,38.913544290955585,121.59450670056631,彩虹园,37,11016,渤海吉祥物业管理有限公司,0.4,辽宁,5,二手房,2000
沙河口区锦霞南园1号1层公建,大连,大连锦绣房地产开发有限公司,沙河口,20190623,38.947367114450536,121.55342584213675,锦虹北园,20,11855,大连锦绣物业管理有限公司,0.3,辽宁,5,二手房,1998
大连市甘井子区丰收路3-5号,大连,大连铁路房地产开发有限责任公司,甘井子,20190623,38.965377255081755,121.58288415324094,王家桥小区,25,12843,大连铁路物业管理有限公司,0.1,辽宁,4,二手房,1989
中山区鲁迅路184号1层B—A,大连,大连环海房地产开发有限公司,中山,20190623,38.92590875965419,121.67594393403164,环海公寓,15,11031,大连富民物业管理有限公司,0.5,辽宁,4,二手房,2002
甘井子区红旗中路143号1层4号,大连,亿海房地产开发有限公司,甘井子,20190623,38.93169566676921,121.5426632438217,红旗西路,4,12312,大连万泰物业管理有限公司,0.2,辽宁,4,二手房,1997
甘井子区亿家缘虹韵路205,大连,大连亿达美加房地产开发有限公司,甘井子,20190623,38.95647848453699,121.53130152244339,第五郡四号地,51,27972,亿达物业管理有限公司,2,辽宁,4,二手房,2010
中山区三八广场5号,大连,无开发商,中山,20190623,38.92540000551715,121.6642911149562,良运四季汇,60,22056,大连良运物业管理有限公司,0.8,辽宁,4,二手房,2010
金州区光明街道育才街42-6号1-2层,大连,无开发商,金州,20190623,39.109080894078986,121.7182584929096,职高西小区,21,8648,街道办事处（居委会）代管物业,0.5,辽宁,4,二手房,1989
甘井子区山东路137号,大连,无开发商,甘井子,20190623,38.99129404608926,121.59172125999353,天河路,17,12644,街道办事处（居委会）代管物业,0.1,辽宁,4,二手房,1998
沙河口区长江路738号,大连,无开发商,西岗,20190623,38.913544290955585,121.59450670056631,21中五一广场,29,20550,无物业管理服务,-,辽宁,4,二手房,1976
大连市沙河口区西南路875号1层21号,大连,大连新型房地产开发有限公司,沙河口,20190623,38.94485969061231,121.58418648447764,春晖巷,8,10736,无物业管理服务,-,辽宁,4,二手房,1990
甘井子区金家街17-7号,大连,无开发商,甘井子,20190623,38.97493697764367,121.60110987128529,金二小学北,15,22032,无物业管理服务,-,辽宁,4,二手房,1970
沙河口区前程街46号4—1—2号,大连,大连欧兰房地产开发有限公司,甘井子,20190623,38.913544290955585,121.59450670056631,耕海山尚,27,16971,大连耕海物业管理有限公司,1.5,辽宁,4,二手房,2010
甘井子辛吉街150号-7号,大连,"大连新界置业有限公司,大连新星房地产开发有限公司",甘井子,20190623,38.96368508446978,121.52671221254214,新星绿城三期,69,12827,大连生生物业管理有限公司,0.5,辽宁,4,二手房,2006
开发区东北三街94号1层,大连,大连同济房地产开发有限公司,开发区,20190623,39.05723508011585,121.80570768630555,新东方公寓一期,40,5617,大连同济物业管理有限公司,1.5,辽宁,4,二手房,2005
西岗区绕山路31号公建一层东侧,大连,无开发商,西岗,20190623,38.90257514466717,121.61412736644739,和云巷,20,10147,无物业管理服务,-,辽宁,4,二手房,1990
高新园区红凌路732-4号,大连,大华集团大连置业有限公司,高新园区,20190623,38.90204708664442,121.53244406374695,大华锦绣华城二期,47,26060,大连大华物业管理有限公司,2.5,辽宁,4,二手房,2013
开发区安盛里5栋-4,大连,中房集团大连房地产有限公司,开发区,20190623,23.112106678834838,113.27801046214822,盛德嘉洲,11,14013,大连中鸣物业服务有限公司,1.8,辽宁,4,二手房,2009
甘井子区辛寨子街道中冶蓝城辛虹园39-7号公建,大连,大连中冶京诚置业有限公司,甘井子,20190623,38.98155611421408,121.49259383356096,中冶蓝城D区,37,15572,大连添翼物业服务有限公司,2,辽宁,4,二手房,2011
甘井子区柳树南街45-10号,大连,中体产业集团大连乐百年置业有限公司,甘井子,20190623,38.92567666296449,121.4841330254372,水木清华,31,13468,大连辰谊物业管理有限公司,1.2,辽宁,4,二手房,2009
甘井子区泉水D1区10-2#1-1-7,大连,大连春达房屋开发有限公司,甘井子,20190623,39.01504676175047,121.61751269364314,景富铭苑,17,12362,庄河金城物业管理有限公司,0.5,辽宁,4,二手房,2004
沙河口区兰田街33号,大连,无开发商,沙河口,20190623,38.926138912221084,121.56486022834609,马栏广场东,17,11193,大连辽南物业管理有限公司,0.2,辽宁,4,二手房,1995
甘井子区山东路127-2号,大连,大连市大钢集团,甘井子,20190623,38.99065559549029,121.59126483545545,苍山路,39,12531,街道办事处（居委会）代管物业,0.4,辽宁,4,二手房,1989
中山区民建街10号1单元1号,大连,大连港连房地产开发有限公司,中山,20190623,38.925444479476894,121.66915026954452,海港公寓（三八广场）,24,21935,大连海港物业管理有限公司,0.2,辽宁,4,二手房,1996
沙河口区联合路133号,大连,大连万达房地产开发有限公司,沙河口,20190623,38.91608561262676,121.60480987310456,79中万泰花园,36,26380,大连万泰物业管理有限公司,0.8,辽宁,4,二手房,1998
西岗区平等街21号1层2号,大连,辽宁宁安房地产开发有限公司,西岗,20190623,38.92251066253164,121.63236845125735,赛维利大厦,24,20044,大连良玖物业管理有限责任公司,1.5,辽宁,4,二手房,2004
沙河口区黄河路535号,大连,大连城市建设集团有限公司,沙河口,20190623,38.91773777159567,121.60217159922856,79中金光小区,39,25464,无物业管理服务,-,辽宁,4,二手房,1993
中山区鲁迅路204号百盛新药特药商店一楼西侧部分,大连,无开发商,中山,20190623,38.9258993614899,121.6768880001226,鲁迅路（寺儿沟商圈）,14,11945,无物业管理服务,-,辽宁,4,二手房,1990
甘井子区华东路22号公建,大连,大连凯祥房地产开发有限公司,甘井子,20190623,38.97736184953593,121.5935814234334,环馨山庄,24,13262,大连凯祥物业管理有限公司,0.5,辽宁,4,二手房,2000
"西岗区泰公街20号2层7号 西岗区久寿街22号1层14号""",大连,大连万达房地产开发有限公司,西岗,20190623,38.92600196862723,121.62141976476381,万达高层,16,11606,大连白云物业管理公司,0.3,辽宁,4,二手房,1995
沙河口区锦石园24-7号第A2-13幢1单元1层1号,大连,大连锦绣房地产开发有限公司,沙河口,20190623,38.913544290955585,121.59450670056631,锦城园C区,27,15322,大连锦绣物业管理有限公司,0.6,辽宁,4,二手房,2006
金州区南棉路310号,大连,无开发商,金州,20190623,39.09939229372624,121.72414976100345,南山路（金州）,52,7349,街道办事处（居委会）代管物业,0.5,辽宁,4,二手房,1988
甘井子区红旗西路104-23,大连,大连鹏德房屋开发有限公司,甘井子,20190623,38.94013845868325,121.5282577714263,逸林派,27,14901,大连三和住邦物业管理有限公司,1.6,辽宁,4,二手房,2011
大连市甘井子区丰收路3-5号,大连,大连智和房地产开发有限公司,甘井子,20190623,38.965377255081755,121.58288415324094,华锦铭苑,42,18725,大连东昌物业管理有限公司,1.3,辽宁,4,二手房,2009
无门店信息,大连,大连中政房地产开发有限公司,中山,20190623,34.52713835999158,118.76812980670795,中政小区,14,12280,大连中政物业管理有限公司,0.3,辽宁,4,二手房,1996
甘井子区华龙南园34-5号34-库4号34-5号,大连,大连运达房地产集团有限公司,甘井子,20190623,38.98270467597865,121.6117222765123,泊岭紫郡,35,13498,大连怡和物业服务有限公司,0.9,辽宁,4,二手房,2009
沙河口区黄埔路427号,大连,大连名仕房地产开发有限公司,高新园区,20190623,38.913544290955585,121.59450670056631,名仕乐居,19,20386,大连万祥物业管理有限公司,1.3,辽宁,4,二手房,2008
甘井子区泉水K2区1号-7,大连,暂无信息,甘井子,20190623,39.01148211821007,121.63131997900962,龙畔金泉五期K2区,55,13079,大连新兴物业管理有限公司,0.5,辽宁,4,二手房,2008
大连市金州区站前街道生辉第一城14-3号1-2层,大连,大连新天润企业集团有限公司,开发区,20190623,39.0569681786798,121.74773530665969,凯旋国际,112,7138,第一东方(大连)物业服务有限公司,2.3,辽宁,4,二手房,2008
无门店信息,大连,昕德（大连）房地产开发有限公司,金州,20190623,34.52713835999158,118.76812980670795,伟桥金北嘉园,66,7417,街道办事处（居委会）代管物业,0.5,辽宁,4,二手房,2012
开发区兴城路29-81层,大连,大连华宇房地产开发有限公司,开发区,20190623,39.050214252167194,121.75835946441768,华宇梧桐苑,20,13114,大连永嘉物业管理公司,1.9,辽宁,4,二手房,2013
甘井子区促进路200号,大连,大连亿达房地产股份有限公司,甘井子,20190623,38.95810188892782,121.58530036264898,林语家话,40,25752,亿达物业管理有限公司,1.2,辽宁,4,二手房,2005
甘井子区汇达园26号,大连,大连红星美凯龙投资发展有限公司,甘井子,20190623,38.99704654604941,121.59758808878767,红星国际广场,154,14708,红星物业管理有限公司,1.5,辽宁,4,二手房,2014
沙河口区锦石路8号,大连,大连运腾房地产开发有限公司,沙河口,20190623,38.94771288948481,121.56110903658733,锦云南园,69,10159,大连锦绣物业管理有限公司,0.3,辽宁,4,二手房,1996
甘井子区山东路398号,大连,华润置地（大连）开发有限公司,甘井子,20190623,38.99821826443242,121.59274974973462,华润置地广场三期,54,22769,华润物业（大连）有限公司,2.9,辽宁,4,二手房,2016
中山区爱华街13号,大连,无开发商,中山,20190623,38.92541607518685,121.6535728031028,39中安阳街,32,25816,无物业管理服务,-,辽宁,4,二手房,1990
甘井子区惠泽南园3-4号,大连,大连九衡房地产开发有限公司,甘井子,20190623,38.939326611323615,121.52337842113351,易和熙园,26,19995,大连易兴物业服务有限公司,2.3,辽宁,4,二手房,2013
大连市甘井子区泉水N2区3-13号,大连,大连半岛集团有限公司,甘井子,20190623,39.021116079001885,121.64659997607325,半岛泉水欣座,31,14928,大连半岛物业管理有限公司,1.5,辽宁,4,二手房,2010
金州新区先进街道渤海街7-4号1-2层、7-3号1-2层,大连,大连海洋房地产开发有限公司,金州,20190623,39.09342713035472,121.74590886291374,金海嘉园,18,8285,大连辽渔物业管理有限公司,0.8,辽宁,4,二手房,2007
开发区兴城路29-81层,大连,中合北大荒（大连）置业有限公司,开发区,20190623,39.050214252167194,121.75835946441768,银帆国际,39,12402,大连中合物业管理有限公司,2,辽宁,4,二手房,2015
开发区兴城路29-81层,大连,大连亿锋集团有限公司,开发区,20190623,39.050214252167194,121.75835946441768,亿锋广场三期,54,15118,大连广恒物业管理有限公司,2.8,辽宁,4,二手房,2015
沙河口区鞍山路65号美都园7号1单元1层4号公建,大连,大连美辰房地产开发有限公司,沙河口,20190623,38.92755211283745,121.60306664748275,丽景春天,32,18887,大连远洋基业物业管理有限公司,0.8,辽宁,4,二手房,2003
大连市沙河口区知邻街50号,大连,大连软件园开发有限公司,沙河口,20190623,38.913544290955585,121.59450670056631,宅语原,66,20405,亿达物业管理有限公司,2,辽宁,4,二手房,2008
甘井子区美域盛景A2区10-6,大连,大连百思泰置业有限公司,甘井子,20190623,39.006221362805846,121.61022278003976,钰桥中央庭院,45,18271,大连百嘉物业管理有限公司,1.8,辽宁,4,二手房,2014
金州区站前街道盛滨花园B区13号楼2号公建,大连,大连建兴房屋开发有限公司,金州,20190623,39.09609011892329,121.7335816409767,建兴花园,41,7342,街道办事处（居委会）代管物业,0.5,辽宁,4,二手房,1999
沙河口区黄河路883号,大连,大连正源房地产开发有限公司,沙河口,20190623,38.919826721475204,121.57749657966676,幸福e家四期,67,33208,大连正源物业服务有限公司,1.2,辽宁,4,二手房,2007
大连经济技术开发区时代城4-3号1-2号,大连,暂无信息,开发区,20190623,39.0992481321252,121.83007860699459,摩宿公寓,76,7467,大连远洋基业物业管理有限公司,1.5,辽宁,4,二手房,2012
甘井子区泉水B2区19-1号,大连,大连金广集团,甘井子,20190623,39.0101309886317,121.60812584213187,金色阳光家园,58,13790,大连金广物业服务有限公司,0.5,辽宁,4,二手房,2002
甘井子区玉丽街2号楼1单元4号公建,大连,大连新型房地产开发有限公司,甘井子,20190623,38.98705071699301,121.55513043130172,泡崖康馨园,35,10505,大连新兴物业管理有限公司,0.2,辽宁,4,二手房,2004
沙河口区富国街14号1-1-2,大连,无开发商,沙河口,20190623,38.901027106600836,121.59047734850638,星云街,17,10887,无物业管理服务,-,辽宁,4,二手房,1995
西岗区大同街125号,大连,大连新型房地产开发有限公司,西岗,20190623,38.920458602340894,121.61445835429899,银寰花园,27,11224,街道办事处（居委会）代管物业,0.3,辽宁,4,二手房,1995
中山区高尚路28-1号,大连,无开发商,中山,20190623,38.892673425111305,121.67148833870213,宪卫里,17,10443,无物业管理服务,0.5,辽宁,4,二手房,1994
沙河口区知心园10号公建,大连,大连软件园开发有限公司,高新园区,20190623,38.893977135945136,121.55667141994431,亿达国际新城,45,22509,亿达物业管理有限公司,1,辽宁,4,二手房,2004
沙河口区长江路738号,大连,勋业（大连）置业有限公司,西岗,20190623,38.913544290955585,121.59450670056631,远洋风景,57,23558,大连远洋风景物业服务中心,1.9,辽宁,4,二手房,2007
开发区大开高吉里33栋6号,大连,大连开建集团有限公司,开发区,20190623,39.07355836059941,121.8280439450145,高安里,57,6823,广宜物业有限公司,0.2,辽宁,4,二手房,1998
甘井子辛吉街150号-7号,大连,大连金马房屋开发有限公司,甘井子,20190623,38.96368508446978,121.52671221254214,金马圣隆,33,13235,大连金马圣隆物业管理有限公司,0.5,辽宁,4,二手房,2006
开发区东北三街94号1层,大连,大连港连房地产开发有限公司,开发区,20190623,39.05723508011585,121.80570768630555,海航YOHO湾,45,10420,海航物业管理有限公司大连分公司,1.8,辽宁,4,二手房,2014
开发区黄海西路201号107公建,大连,中信开发商,开发区,20190623,39.04942604506828,121.80126318235419,金海里,58,7379,大连中信物业管理有限公司,0.1,辽宁,4,二手房,2000
开发区润海园中区18#2号,大连,华润（大连）房地产有限公司,开发区,20190623,39.04047273176333,121.76392358042445,华润海中国六期,63,14681,华润物业（大连）有限公司,3.1,辽宁,4,二手房,2016
开发区红星海B区212-1,大连,远洋地产有限公司,开发区,20190623,39.027851194371685,121.80327394132297,红星海时光的岸,71,13583,大连远洋基业物业管理有限公司,2.2,辽宁,4,二手房,2015
开发区红梅小区19栋-2-1-1号,大连,大连开发区世元房地产开发有限公司,开发区,20190623,29.906498897603264,121.5913630631805,世元国际公寓,39,11232,大连世元物业管理有限公司,2,辽宁,4,二手房,2009
甘井子区泉水B2区19-1号,大连,北方沿海房地产开发（大连）有限公司,甘井子,20190623,39.0101309886317,121.60812584213187,沿海鉴筑,33,16745,美佳物业管理（深圳）有限公司大连分公司,1.8,辽宁,4,二手房,2013
开发区高新里6栋-8,大连,无开发商,开发区,20190623,39.0710895068195,121.82860134358343,高志里小区,43,6710,街道办事处（居委会）代管物业,0.3,辽宁,4,二手房,1993
甘井子区迎客路郭东街一品蓝天公建14号,大连,大连福田房屋开发有限公司,甘井子,20190623,38.958456949708726,121.556756277476,隽佳欣苑,38,14980,大连安洁物业管理服务有限公司,0.5,辽宁,4,二手房,2007
中山区清溪南街11号,大连,大连锦绣房地产开发有限公司,中山,20190623,38.88919604283904,121.66466481004835,秀月广场,33,12494,无物业管理服务,0.5,辽宁,4,二手房,1994
大连市高新园区软件园路1A-3号,大连,大连软景房地产开发有限公司,高新园区,20190623,38.89360013642285,121.54653763548625,亿达软景中心,17,21465,亿达物业管理有限公司,3.5,辽宁,4,二手房,2014
沙河口区西南路643号,大连,无开发商,沙河口,20190623,38.943483429804665,121.5833555851182,恒达花园（沙河口）,9,11490,无物业管理服务,-,辽宁,4,二手房,1990
金州新区先进街道渤海街7-4号1-2层、7-3号1-2层,大连,无开发商,金州,20190623,39.09342713035472,121.74590886291374,金色阳光,18,8388,大连金广物业有限公司,0.5,辽宁,4,二手房,2005
大连市甘井子区七贤路8-3号,大连,大连瑞恒置业有限公司,高新园区,20190623,38.86602612116956,121.53842265737707,未名山,54,25928,大连龙湖物业服务有限公司,3,辽宁,4,二手房,2015
沙河口区锦石园24-7号第A2-13幢1单元1层1号,大连,大连鼎新房地产开发有限公司,甘井子,20190623,38.913544290955585,121.59450670056631,鼎新鼎润府,32,20719,大连鼎新物业管理有限公司,0.6,辽宁,4,二手房,2006
无门店信息,大连,大连万科房地产开发有限公司,旅顺口,20190623,34.52713835999158,118.76812980670795,万科樱花园,62,12784,大连万科物业服务有限公司,2.4,辽宁,4,二手房,2014
沙河口区华北路448号楼1-4公建,大连,无开发商,甘井子,20190623,38.903224944733765,121.56809734950556,周山街,25,16362,街道办事处（居委会）代管物业,0.5,辽宁,4,二手房,1989
无门店信息,大连,暂无信息,旅顺口,20190623,34.52713835999158,118.76812980670795,龙王塘一号,56,8660,街道办事处（居委会）代管物业,1.2,辽宁,4,二手房,-
无门店信息,大连,大连金地房地产开发有限公司,金州,20190623,34.52713835999158,118.76812980670795,金地新里程,46,6835,大连金铭物业管理有限公司,0.8,辽宁,3,二手房,2008
开发区金源南里14栋-11号一层部分，14号-12号一层部分,大连,大连开建房地产开发有限公司,开发区,20190623,39.06148862675436,121.82503941311765,金源北里安居小区,70,8185,嘉兴物业管理有限公司,0.3,辽宁,4,二手房,1999
沙河口区成仁街91号,大连,大连万达房地产开发有限公司,沙河口,20190623,38.91539947107844,121.59585638842556,龙祥花园,19,24413,大连万达物业管理有限公司,0.8,辽宁,3,二手房,2001
西岗区华北路100号1层5号,大连,大连万达房地产开发有限公司,西岗,20190623,38.92047268927287,121.61862512554262,香海花园,21,16447,大连万达物业管理有限公司,0.8,辽宁,3,二手房,1999
高新园区火炬路18号,大连,大连联合柏立置业有限公司,高新园区,20190623,38.937738080520404,117.39340752036043,柏悦国际公寓,50,17975,大连柏悦国际公寓管理有限公司,3.5,辽宁,3,二手房,2012
沙河口区西南路643号,大连,大连海昌房屋开发有限公司,沙河口,20190623,38.943483429804665,121.5833555851182,兴港花园,5,12443,大连永佳物业管理有限公司,0.3,辽宁,3,二手房,1999
中山区同心街72号1楼公建,大连,无开发商,中山,20190623,38.91979245940674,121.64769198230202,南山里,17,18653,无物业管理服务,-,辽宁,3,二手房,1990
沙河口区南沙街36号台二2号1-1-37,大连,大连鹏生房地产开发有限公司,沙河口,20190623,38.90741410359388,121.57685699961822,鹏顺园,51,25271,大连新型物业管理有限公司,0.5,辽宁,3,二手房,2001
中山区金城街26号一楼,大连,辽宁远大房屋开发有限公司,中山,20190623,38.922282529515634,121.65214466263014,远大大厦,43,10033,街道办事处（居委会）代管物业,2.5,辽宁,3,二手房,2000
甘井子区玉丽街39号楼3号公建,大连,大连乾元房地产开发有限公司,甘井子,20190623,38.98706755029984,121.55605471197089,和合美家,15,13489,大连广兴物业管理有限公司,0.8,辽宁,3,二手房,2010
金州区光明街道育才街42-6号1-2层,大连,无开发商,金州,20190623,39.109080894078986,121.7182584929096,光明小区(金州),10,8676,无物业管理服务,0.5,辽宁,3,二手房,1995
高新园区海苑街36号1单元2号公建,大连,大连鸿越房地产开发有限公司,高新园区,20190623,20.06392317589085,110.32302599457326,康桥小镇,21,19930,大连长青物业管理中心,1.3,辽宁,3,二手房,2010
沙河口区五一路219-1,大连,大连圣北房地产有限公司,沙河口,20190623,38.913544290955585,121.59450670056631,电业花园,13,14539,大连市沙河口房产物业管理有限公司,0.3,辽宁,3,二手房,1999
甘井子区华东路22号公建,大连,无开发商,甘井子,20190623,38.97736184953593,121.5935814234334,秀山路,27,12110,街道办事处（居委会）代管物业,0.5,辽宁,3,二手房,1986
甘井子区甘井子路32号楼1单元1楼9号,大连,大连市建设控股有限公司,甘井子,20190623,38.982488275116516,121.63345389253514,胜景家园,12,12647,街道办事处（居委会）代管物业,0.9,辽宁,3,二手房,2009
甘井子区华北路花锦园28号23-3-1-2建筑物,大连,大连东特房地产开发有限公司,甘井子,20190623,38.951627958411166,121.5739439799003,东特星中环,22,16502,大连东特祥禾物业管理有限公司,0.8,辽宁,3,二手房,2006
甘井子区汇仁街19号12号楼1单元102室,大连,大连华南房地产开发有限公司,甘井子,20190623,38.99746297497168,121.58917714380617,名贵山庄金盛园,11,15475,大连弘益达物业管理有限公司,0.5,辽宁,3,二手房,2004
无门店信息,大连,大连百年港湾商业开发有限公司,西岗,20190623,34.52713835999158,118.76812980670795,百年港湾,57,17846,大连百年城物业管理有限公司,3.5,辽宁,3,二手房,2014
沙河口区前程街46号4—1—2号,大连,大连渤海红旗集团有限公司,甘井子,20190623,38.913544290955585,121.59450670056631,里程巷,18,9511,大连台安物业管理中心,0.4,辽宁,3,二手房,1990
开发区小孤山西里3栋-11号,大连,大连广隆房地产开发有限公司,开发区,20190623,39.02715282297674,121.80682183666346,文华园,40,10056,大连广隆物业管理有限公司,1.1,辽宁,3,二手房,2007
甘井子区哲林北园17-6号,大连,大连科宏房屋开发有限公司,甘井子,20190623,38.9600267109581,121.53876726228256,虹港新居,30,13498,大连空港物业管理有限公司,0.4,辽宁,3,二手房,1996
中山区中青街87号一单元107,大连,无开发商,中山,20190623,38.90213494248529,121.65806522267005,葵园巷,15,12482,无物业管理服务,-,辽宁,3,二手房,1992
高新园区硅谷假日小区25号楼地下室,大连,暂无信息,高新园区,20190623,38.86467854992112,121.53720784613759,硅谷假日公寓,16,14876,大连斌弘物业管理有限公司,1.5,辽宁,3,二手房,2005
大连市甘井子区张前路620-18号（第19幢1单元1跃2层14号）,大连,无开发商,甘井子,20190623,38.98764207496216,121.52409526893047,嘉安边防家园,14,12464,大连新型物业管理有限公司,1,辽宁,3,二手房,2009
高新园区火炬路18号,大连,大连嘉创房地产开发有限公司,高新园区,20190623,38.937738080520404,117.39340752036043,嘉创E人国际,72,16119,大连紫金物业管理有限公司,2,辽宁,3,二手房,2011
开发区黄海西路201号107公建,大连,开发区城建局,开发区,20190623,39.04942604506828,121.80126318235419,东阁里,52,6981,大连经济技术开发区海青物业有限公司,0.4,辽宁,3,二手房,1994
甘井子区佳林北园2-7号,大连,大连瑞泰祥房地产开发有限公司,甘井子,20190623,38.96331610956877,121.52802328494242,缇香漫城,55,20855,大连瑞泰祥物业服务有限公司,2,辽宁,3,二手房,2013
甘井子区泉水D1区37-7号,大连,大连运腾房地产开发有限公司,甘井子,20190623,39.013992871679214,121.61921940045104,锦泉源D4区,30,14023,大连嘉和物业管理有限公司,0.5,辽宁,3,二手房,2007
甘井子区祥龙街2号楼1单元1楼1号,大连,大连宏孚房屋开发有限公司,甘井子,20190623,38.988045874482445,121.60439401971377,宏孚小区,31,10828,无物业管理服务,-,辽宁,3,二手房,1995
西岗区黄河路362号公建,大连,大连万佳房地产开发有限公司,西岗,20190623,38.91819905243802,121.61365779430986,优豪斯,12,25347,大连万佳物业管理有限公司,1.2,辽宁,3,二手房,2003
金州区同济路44号,大连,大连金州金山房地产开发有限公司,金州,20190623,39.10476859984152,121.71234684495865,金山小区,101,7184,大连金山物业管理有限公司,-,辽宁,3,二手房,1999
无门店信息,大连,大连君悦房地产开发有限公司,甘井子,20190623,34.52713835999158,118.76812980670795,君悦晟景,21,12668,大连弘实物业有限公司,1.2,辽宁,3,二手房,2011
高新园区海苑街36号1单元2号公建,大连,大连海苑房屋开发有限公司,高新园区,20190623,20.06392317589085,110.32302599457326,海苑花园,25,14586,大连家园物业有限公司,0.3,辽宁,3,二手房,2000
中山区爱华街13号,大连,无开发商,中山,20190623,38.92541607518685,121.6535728031028,九中安乐街,48,36686,无物业管理服务,-,辽宁,3,二手房,1990
西岗区八一路196号2-1-12号,大连,无开发商,西岗,20190623,38.92047268927287,121.61862512554262,八一路（八一路商圈）,20,10865,无物业管理服务,-,辽宁,3,二手房,1990
甘井子区玉丽街39号楼3号公建,大连,大连润置房地产有限公司,甘井子,20190623,38.98706755029984,121.55605471197089,华润二十四城,21,19316,华润物业（大连）有限公司,3.1,辽宁,3,二手房,2018
无门店信息,大连,暂无信息,旅顺口,20190623,34.52713835999158,118.76812980670795,荷塘悦色,32,8935,街道办事处（居委会）代管物业,-,辽宁,3,二手房,-
沙河口区昌黎街77号楼第1层公建,大连,大连金新房地产开发有限公司,沙河口,20190623,38.91974518366595,121.5902918379551,福佳新天地,76,14286,大连福佳物业管理有限公司,1.8,辽宁,3,二手房,2003
沙河口区星海广场B3区20—3号,大连,大连华奇置业有限公司,沙河口,20190623,38.88782715536473,121.5869168319735,星海旺座,25,14155,大连佳和物业管理有限公司,2.5,辽宁,3,二手房,2005
无门店信息,大连,大连新兴海韵房地产开发有限公司,金州,20190623,34.52713835999158,118.76812980670795,通用阳光丽景,80,7081,街道办事处（居委会）代管物业,1.4,辽宁,3,二手房,2013
中山区职工街96号1-3层公建,大连,大连泛华房屋开发有限公司,中山,20190623,38.92565613737007,121.66193575790903,泛华领城,37,13485,无物业管理服务,3.2,辽宁,3,二手房,2012
沙河口区民权街324号,大连,大连城市建设集团有限公司,沙河口,20190623,38.92064616208148,121.59777611850379,天兴新家园,11,28472,大连天兴物业管理有限公司,0.5,辽宁,3,二手房,1999
沙河口区联合路133号,大连,大连三星大厦发展有限公司,西岗,20190623,38.91608561262676,121.60480987310456,三星公寓,3,11271,大连铁道物业管理有限责任公司,0.3,辽宁,3,二手房,1997
大连市甘井子区椒房街24号楼2-104链家地产,大连,大连凯祥房地产开发有限公司,甘井子,20190623,38.985363789837166,121.61034055597686,椒金山庄,22,17057,大连凯祥物业管理有限公司,0.5,辽宁,3,二手房,2000
开发区黄海西路201号107公建,大连,无开发商,开发区,20190623,39.04942604506828,121.80126318235419,自由港,45,6804,大连安洁物业管理服务有限公司,1.5,辽宁,3,二手房,2006
甘井子区柳树南街45-11号,大连,大连顺达房屋开发有限公司,甘井子,20190623,38.92567666296449,121.4841330254372,顺达温泉花园二期,21,11776,大连顺达物业服务有限公司,0.6,辽宁,3,二手房,2004
开发区红星海B区212-1,大连,远洋地产有限公司,开发区,20190623,39.027851194371685,121.80327394132297,红星海五期岚谷,125,13881,大连远洋基业物业管理有限公司,2.2,辽宁,3,二手房,2012
大连市甘井子区辛如街35号1单元1层1号,大连,大连新星房地产开发有限公司,甘井子,20190623,38.96862607066881,121.52294869064194,新星绿城四期,35,14667,大连生生物业管理有限公司,0.8,辽宁,3,二手房,2008
甘井子区红旗中路143号1层4号,大连,暂无信息,甘井子,20190623,38.93169566676921,121.5426632438217,湾家花园,8,12427,街道办事处（居委会）代管物业,0.2,辽宁,3,二手房,2000
开发区杏花里13#楼-7号,大连,无开发商,开发区,20190623,31.31075067906954,120.63127837058457,杏花里,64,6775,大连经济技术开发区杏林物业管理有限公司,0.3,辽宁,3,二手房,1993
沙河口区五一路326号,大连,无开发商,高新园区,20190623,38.913544290955585,121.59450670056631,双语学校,15,22026,无物业管理服务,0.2,辽宁,3,二手房,1998
大连市沙河口区西南路875号1层21号,大连,暂无信息,沙河口,20190623,38.94485969061231,121.58418648447764,凌云街,3,11259,无物业管理服务,-,辽宁,3,二手房,1999
甘井子区红韵路114号,大连,大连亿达美加房地产开发有限公司,甘井子,20190623,38.95800216293212,121.53151895549547,第五郡六号地,42,29997,亿达物业管理有限公司,3,辽宁,3,二手房,2009
沙河口区星海广场B3区14-9,大连,大连友谊合升房地产开发有限公司,沙河口,20190623,38.88708614275256,121.58732027085938,壹品星海三期,50,23793,大连友谊物业服务有限公司,1.2,辽宁,3,二手房,2007
开发区湾里南12栋-16-17-18号,大连,大连金湾实业有限公司,开发区,20190623,39.070782084451,121.8506739675913,湾里西,70,7688,广宜物业有限公司,0.2,辽宁,3,二手房,2003
西岗区八一路102号,大连,无开发商,西岗,20190623,38.92047268927287,121.61862512554262,杏环街,17,9834,无物业管理服务,-,辽宁,3,二手房,1994
甘井子区华北路花锦园28号23-3-1-2建筑物,大连,大连东特房地产开发有限公司,沙河口,20190623,38.951627958411166,121.5739439799003,东特新居,16,12054,大连东特祥禾物业管理有限公司,0.5,辽宁,3,二手房,2000
甘井子区泉水B5区27-9,大连,大连华智房地产开发有限公司,甘井子,20190623,39.01477152073682,121.60970286326823,华远新都汇广场,30,12162,街道办事处（居委会）代管物业,1,辽宁,3,二手房,2010
中山区岭前街53-5,大连,暂无信息,中山,20190623,38.89487069426055,121.65795959631497,胜鼎桃源,22,21302,暂无信息,1.8,辽宁,3,二手房,2015
金州区光明街道育才街42-6号1-2层,大连,三门振兴房产开发公司,金州,20190623,39.109080894078986,121.7182584929096,育才小区,15,8161,无物业管理服务,-,辽宁,3,二手房,1989
无门店信息,大连,大连晨阳房地产开发有限公司,金州,20190623,34.52713835999158,118.76812980670795,金科理想城,31,9463,金科物业服务集团有限公司,1.6,辽宁,3,二手房,2014
中山区中南路店212号门头房,大连,峰尚房屋开发有限公司,中山,20190623,38.91149759691359,121.67700561077149,峰尚中南,14,15981,大连银洲物业管理有限公司,2.2,辽宁,3,二手房,2011
沙河口区绿清街12号,大连,大连绿波房屋开发集团有限公司,沙河口,20190623,38.93851335419565,121.57334844377094,绿香花园,20,13325,大连大伟物业管理有限公司,0.4,辽宁,3,二手房,2001
经济技术开发区红星海-A区81-2号1层,大连,远洋地产有限公司,开发区,20190623,39.027851194371685,121.80327394132297,红星海三期境界,94,14017,大连远洋基业物业管理有限公司,2.2,辽宁,3,二手房,2012
甘井子区甘井子街3号公建,大连,无开发商,甘井子,20190623,38.982086281836246,121.63426694995971,新街,19,9707,无物业管理服务,-,辽宁,3,二手房,1988
西岗区新田巷11号三单元103,大连,无开发商,西岗,20190623,38.89276612016956,121.64190731791966,新船巷,32,9759,无物业管理服务,-,辽宁,3,二手房,1992
西岗区长春路334号,大连,大连万达房地产开发有限公司,西岗,20190623,38.89807766522607,121.63221082858387,石松小区,15,11006,大连白云物业管理有限公司,0.5,辽宁,3,二手房,1999
开发区红星海-B区89-1号,大连,远洋地产有限公司,开发区,20190623,39.027851194371685,121.80327394132297,红星海三期视界,47,15106,大连远洋基业物业管理有限公司,2.2,辽宁,3,二手房,2012
金州区凤翔路220号,大连,大连鸿玮置业有限公司,金州,20190623,39.08410553937731,121.77700083356399,鸿玮澜山一期,32,15023,大连鸿玮物业服务有限公司,1.8,辽宁,3,二手房,2009
沙河口区联合路133号,大连,大连新型房地产开发有限公司,沙河口,20190623,38.91608561262676,121.60480987310456,21中天兴花园一期,37,19425,大连万泰物业管理有限公司,0.5,辽宁,3,二手房,1998
开发区大开高吉里33栋6号,大连,大连开建集团有限公司,开发区,20190623,39.07355836059941,121.8280439450145,高城花园,40,7719,嘉兴物业管理有限公司,0.2,辽宁,3,二手房,2002
中山区金城街26号一楼,大连,暂无信息,中山,20190623,38.922282529515634,121.65214466263014,解放街,21,24357,无物业管理服务,-,辽宁,3,二手房,1982
红星海A区126-4,大连,暂无信息,开发区,20190623,39.027851194371685,121.80327394132297,红星海一期艺墅,52,16683,大连远洋基业物业管理有限公司,0.5,辽宁,3,二手房,2009
中山区职工街96号1-3层公建,大连,大连名仕房地产开发有限公司,中山,20190623,38.92565613737007,121.66193575790903,名仕国际公寓,24,10883,大连名流物业有限公司,3.8,辽宁,3,二手房,2004
无门店信息,大连,无开发商,金州,20190623,34.52713835999158,118.76812980670795,永安四季,42,7236,无物业管理服务,0.5,辽宁,3,二手房,2012
甘井子区知音园20号3单元1层1号,大连,大连诚信万奕房地产开发有限公司,高新园区,20190623,38.95800216293212,121.53151895549547,万奕学院派,22,27211,大连空港物业管理有限公司,1.2,辽宁,3,二手房,2010
中山区华乐街71号公建,大连,暂无信息,中山,20190623,38.923187679200566,121.6843197903016,东港印象DE区,16,14513,大连众和物业管理有限公司,1.2,辽宁,3,二手房,2008
中山区鲁迅路204号百盛新药特药商店一楼西侧部分,大连,大连港连房地产开发有限公司,中山,20190623,38.9258993614899,121.6768880001226,海港公寓（寺儿沟商圈）,15,12757,大连仁安物业管理有限公司,0.2,辽宁,3,二手房,1996
沙河口区西南路851号3单元1层3号,大连,无开发商,沙河口,20190623,38.94344210837944,121.58246796944378,春柳街,13,11750,街道办事处（居委会）代管物业,0.1,辽宁,3,二手房,1985
沙河口区杨树街4-4号公建,大连,大连金弘基房地产开发有限公司,高新园区,20190623,38.88444587249751,121.55130620045541,弘基二期,33,22827,大连金弘基物业管理有限公司,0.6,辽宁,3,二手房,2003
沙河口区华北路404号,大连,暂无信息,沙河口,20190623,38.8862815932937,121.59082948696123,柳华街,24,11123,无物业管理服务,0.1,辽宁,3,二手房,1985
金州区金润小区B区861单元102,大连,暂无信息,金州,20190623,39.10615165380565,121.74639264534615,自然天城C区,34,7706,大连新生活物业管理有限公司,0.4,辽宁,3,二手房,2010
开发区景和园1-7,大连,开发区城建局,开发区,20190623,30.41892168817929,120.30896459202738,小孤山东里,89,6436,大连广谊物业管理有限公司,0.4,辽宁,3,二手房,2000
开发区黄海西路201号107公建,大连,无开发商,开发区,20190623,39.04942604506828,121.80126318235419,新辰里,34,7501,街道办事处（居委会）代管物业,0.5,辽宁,3,二手房,1998
金州区拥政街道733号-8号1-2层,大连,大连市金州区房屋开发公司,金州,20190623,39.11690610445662,121.73030803603723,桂林小区,79,7127,街道办事处（居委会）代管物业,0.3,辽宁,3,二手房,1993
甘井子区华北路花锦园28号23-3-1-2建筑物,大连,无开发商,甘井子,20190623,38.951627958411166,121.5739439799003,华北路（甘）,29,16530,街道办事处（居委会）代管物业,0.1,辽宁,3,二手房,1989
大连市开发区抚顺街30号,大连,无开发商,开发区,20190623,38.92272284555705,121.5977239817503,翠南管委会院,25,9745,街道办事处（居委会）代管物业,0.5,辽宁,3,二手房,1998
西岗区黄河路362号公建,大连,大连万峰房地产开发有限公司,西岗,20190623,38.91819905243802,121.61365779430986,万达华府一期,61,28004,大连万景物业管理有限公司,1.3,辽宁,3,二手房,2005
无门店信息,大连,大连顺迈房地产开发有限公司,沙河口,20190623,34.52713835999158,118.76812980670795,星海国宝,61,20333,长城物业集团股份有限大连分公司,3,辽宁,3,二手房,2003
西岗区鞍山路65-5号,大连,大连万达房地产开发有限公司,沙河口,20190623,38.926971569913064,121.60260230348328,79中广电中心,57,28738,无物业管理服务,-,辽宁,3,二手房,1988
无门店信息,大连,新兴际华集团有限公司,甘井子,20190623,34.52713835999158,118.76812980670795,中华城,20,15881,大连仲邦维行物业管理有限公司,2.5,辽宁,3,二手房,2017
西岗区黄河路362号公建,大连,大连万达商业地产有限公司,西岗,20190623,38.91819905243802,121.61365779430986,万达华府二期,48,23201,大连万景物业管理有限公司,1.6,辽宁,3,二手房,2006
西岗区胜利路33号,大连,暂无信息,西岗,20190623,38.91309771954841,121.62500886627636,34中纪念街,60,25185,无物业管理服务,-,辽宁,3,二手房,1990
开发区红梅小区19栋-2-1-1号,大连,大开中和祥房地产开发有限公司,开发区,20190623,29.906498897603264,121.5913630631805,金丰大厦,50,9978,新加坡物业管理有限公司,1.9,辽宁,3,二手房,2012
甘井子区华东路33-5号,大连,暂无信息,甘井子,20190623,38.97497080220593,121.59479866243332,巾帼小区,25,11856,大连新华物业管理有限公司,-,辽宁,3,二手房,1993
中山区爱华街13号,大连,无开发商,中山,20190623,38.92541607518685,121.6535728031028,九中安民街,26,37550,无物业管理服务,-,辽宁,3,二手房,1995
甘井子区金家街17-7号,大连,暂无信息,甘井子,20190623,38.97493697764367,121.60110987128529,金四街,40,19873,无物业管理服务,-,辽宁,3,二手房,1960
中山区东港龙湖水晶郦湾7-102,大连,大连金广地产集团有限公司,中山,20190623,38.924700620463895,121.70344398518496,金广东海岸,74,23576,大连金广物业有限公司,2.2,辽宁,3,二手房,2009
甘井子区华东路33-5号,大连,无开发商,甘井子,20190623,38.97497080220593,121.59479866243332,秀水小区,14,11168,大连广宇物业有限责任公司,0.5,辽宁,3,二手房,1994
中山区益民街16号1层1号,大连,无开发商,中山,20190623,38.93092761298906,121.66470740073377,益民街（三八广场）,8,14101,无物业管理服务,-,辽宁,3,二手房,1992
沙河口区中山路417A-4号,大连,无开发商,沙河口,20190623,38.90740323140171,121.59484801084653,同泰街,22,12921,无物业管理服务,0.5,辽宁,3,二手房,1999
沙河口区昌黎街22号,大连,大连城市建设集团有限公司,沙河口,20190623,38.91975785098891,121.59109628369768,天兴罗斯福,49,16215,大连天兴物业管理有限公司,1.6,辽宁,3,二手房,2004
甘井子区泉水K4区1号2单元1层1号,大连,暂无信息,甘井子,20190623,39.01482019232349,121.63242049308988,龙畔金泉五期K3区,67,13938,大连新兴物业管理有限公司,0.5,辽宁,3,二手房,2008
开发区松苑街23号,大连,大连天安房地产开发有限公司,开发区,20190623,22.52087435807652,113.40156105086167,天安海景花园,17,14070,大连港力物业管理有限公司,1.2,辽宁,3,二手房,2006
中山区民建街10号1单元1号,大连,无开发商,中山,20190623,38.925444479476894,121.66915026954452,39中和阳街,19,18874,无物业管理服务,-,辽宁,3,二手房,1990
大连市金州新区友谊街道和平路59-10号1-2层公建,大连,无开发商,金州,20190623,39.112168401852266,121.72006917947859,古城乙区,194,7507,无物业管理服务,-,辽宁,3,二手房,1992
无门店信息,大连,大连九城房地产开发有限公司,开发区,20190623,34.52713835999158,118.76812980670795,新城丽景,17,10355,大连恒瑞物业管理有限公司,1.2,辽宁,3,二手房,2015
中山区民建街10号1单元1号,大连,无开发商,中山,20190623,38.925444479476894,121.66915026954452,39中明阳街,39,19848,无物业管理服务,-,辽宁,3,二手房,1993
中山区武昌街武昌公寓6号公建,大连,暂无信息,中山,20190623,38.912280913445784,121.64921130527547,学府林居,24,10283,暂无信息,1,辽宁,3,二手房,2000
大连市甘井子区银田北园14号,大连,暂无信息,甘井子,20190623,38.9742441034389,121.47189841879823,亿达春田银杏园,64,18497,亿达物业管理有限公司,2.2,辽宁,3,二手房,2011
西岗区鞍山路29号龙畔锦城东门,大连,无开发商,西岗,20190623,38.92763470697088,121.61498923399098,铁路西站,24,12058,无物业管理服务,-,辽宁,3,二手房,1981
无门店信息,大连,北方沿海房地产开发（大连）有限公司,沙河口,20190623,34.52713835999158,118.76812980670795,星海大观,221,17428,北京世邦魏理仕物业管理服务有限公司大连分公司,4.4,辽宁,3,二手房,2008
高新园区红凌路732-4号,大连,大华集团大连置业有限公司,高新园区,20190623,38.90204708664442,121.53244406374695,大华锦绣华城一期,55,25232,大连大华物业管理有限公司,2.5,辽宁,3,二手房,2010
金州新区八一路金都嘉园1号楼1号公建,大连,大连元新房地产开发有限公司,金州,20190623,39.05525210261778,121.74865634199398,华夏金城,66,9936,大连元新物业管理有限公司,1.2,辽宁,3,二手房,2008
甘井子区红南东街7-7号,大连,大连良运房地产开发有限公司,甘井子,20190623,38.92880462247992,121.54144910207062,山居笔记,23,16433,大连良运物业管理有限公司,1.5,辽宁,3,二手房,2009
开发区翠竹小区33栋4-1-1号,大连,暂无信息,开发区,20190623,30.635492106460237,119.69169575745704,翠竹中区,24,10107,嘉兴物业管理有限公司,0.3,辽宁,3,二手房,1996
沙河口区五一路270-274号,大连,大连誉园房地产开发有限公司,高新园区,20190623,38.913544290955585,121.59450670056631,斯坦福院落,23,21362,第一太平戴维斯物业顾问（北京）有限公司大连分公司,1.2,辽宁,3,二手房,2008
沙河口区恒利园42号-8,大连,大连三寰房屋开发有限公司,沙河口,20190623,38.93357562498634,121.57914091532649,三寰芳草园,22,16392,大连空港物业管理有限公司,0.4,辽宁,3,二手房,2003
无门店信息,大连,大连市中联房地产开发有限公司,金州,20190623,34.52713835999158,118.76812980670795,卧龙园,27,6707,大连健龙物业管理有限公司,0.5,辽宁,3,二手房,2009
高新园区黄浦路901S号1单元1层3号,大连,大连金真源集团房地产开发有限公司,高新园区,20190623,38.85845801548294,121.51687109601923,山海一家一期,53,14416,大连龙海物业管理有限公司,0.6,辽宁,3,二手房,2005
高新园区黄浦路901S号1单元1层3号,大连,大连金真源集团房地产开发有限公司,高新园区,20190623,38.85845801548294,121.51687109601923,山海一家三期,14,18348,大连龙海物业管理有限公司,1.2,辽宁,3,二手房,2010
甘井子区锦城东园1号3单元1层2号,大连,大连鹏生房地产开发有限公司,甘井子,20190623,38.952805477462775,121.55656194973994,鹏辉新纪元,15,16340,大连鹏辉物业管理有限公司,0.5,辽宁,3,二手房,2006
开发区黄海西路201号107公建,大连,无开发商,开发区,20190623,39.04942604506828,121.80126318235419,岗盛里小区,109,6927,街道办事处（居委会）代管物业,0.5,辽宁,3,二手房,1995
沙河口区知心园10号公建,大连,暂无信息,高新园区,20190623,38.893977135945136,121.55667141994431,亿达康派公寓,20,16907,亿达物业管理有限公司,2.2,辽宁,3,二手房,2006
甘井子区红旗花园23号楼19-24轴公建,大连,大连科宏房屋开发有限公司,甘井子,20190623,38.93108029984587,121.54902145022133,海港楼,21,9063,大连科海物业有限公司,0.2,辽宁,3,二手房,1996
无门店信息,大连,大连祥和房屋开发有限公司,甘井子,20190623,34.52713835999158,118.76812980670795,祥和花园,44,12172,大连市大北物业管理有限公司,0.4,辽宁,3,二手房,2007
西岗区康平街2号（5号楼3-1-3号）,大连,无开发商,西岗,20190623,38.91044414697888,121.61980769264477,长太巷,7,11351,无物业管理服务,-,辽宁,2,二手房,1990
中山区高尚路28-1号,大连,无开发商,中山,20190623,38.892673425111305,121.67148833870213,高家沟,23,10678,大连景山物业管理有限公司,0.5,辽宁,2,二手房,1996
中山区中南路226号,大连,大连华谊地产房屋有限公司,中山,20190623,38.90029610333926,121.68178899957817,晨光山水,3,14518,大连格林物业管理有限公司,-,辽宁,2,二手房,2004
西岗区八一路102号,大连,无开发商,西岗,20190623,38.92047268927287,121.61862512554262,智勇西二巷,11,9988,无物业管理服务,-,辽宁,2,二手房,1993
金州区光明街道育才街42-6号1-2层,大连,无开发商,金州,20190623,39.109080894078986,121.7182584929096,味食小区,26,7967,大连大众物业管理有限公司,0.5,辽宁,2,二手房,1988
无门店信息,大连,大连海华房地产开发有限公司,甘井子,20190623,34.52713835999158,118.76812980670795,丽湾海景,31,12111,大连海华房地产开发有限公司,0.5,辽宁,2,二手房,2010
甘井子区虹港路16号楼1层公建,大连,沈阳军区后勤部,甘井子,20190623,38.9645939333502,121.553851837474,金寓花园四期,5,18753,大连大管家物业管理有限公司,1,辽宁,2,二手房,2009
中山区解放路604号,大连,无开发商,中山,20190623,38.89026319122045,121.66407876092346,鸣鹤街,7,15139,街道办事处（居委会）代管物业,0.5,辽宁,2,二手房,1998
甘井子区金家街17-7号,大连,暂无信息,甘井子,20190623,38.97493697764367,121.60110987128529,金源花园,9,19504,无物业管理服务,-,辽宁,2,二手房,2000
无门店信息,大连,大连北方工业房屋开发公司,西岗,20190623,34.52713835999158,118.76812980670795,温馨花园（胜利桥北商圈）,3,10960,北方物业开发有限公司,0.5,辽宁,2,二手房,2000
大连市高新园区软件园路1A-3号,大连,无开发商,高新园区,20190623,38.89360013642285,121.54653763548625,中辰国际公寓,5,16515,大连阿尔滨汇城物业服务有限公司,2.5,辽宁,2,二手房,2008
沙河口区连山街44-2号半地下一层（地上一层部分）,大连,大连宏都房地产开发有限公司,沙河口,20190623,38.892991456958086,121.57299542767161,宏都筑景Ⅱ期,9,26233,东方百瑞物业有限公司,1.8,辽宁,2,二手房,2012
西岗区长春路334号,大连,无开发商,西岗,20190623,38.89807766522607,121.63221082858387,花园巷,2,10027,无物业管理服务,-,辽宁,2,二手房,1990
甘井子区玉湖街25号2单元1层3号,大连,暂无信息,甘井子,20190623,38.97626265183615,121.54617349027997,玉水街,2,9531,无物业管理服务,-,辽宁,2,二手房,1988
西岗区长春路334号,大连,大连源通房地产开发有限公司,西岗,20190623,38.89807766522607,121.63221082858387,南石源居,3,17584,大连源通物业管理有限公司,1.3,辽宁,2,二手房,2009
中山区共建巷61号,大连,无开发商,中山,20190623,38.91828093658718,121.66259221532148,39中中化街,2,24155,街道办事处（居委会）代管物业,0.5,辽宁,2,二手房,1995
沙河口区华北路404号,大连,大连元泰房屋开发有限公司,沙河口,20190623,38.8862815932937,121.59082948696123,福居家园,8,14423,渤海吉祥物业管理有限公司,0.5,辽宁,2,二手房,2003
西岗区绕山路31号公建一层东侧,大连,无开发商,西岗,20190623,38.90257514466717,121.61412736644739,槐花大厦,11,9299,无物业管理服务,-,辽宁,2,二手房,1997
中山区职工街96号1-3层公建,大连,大连嘉和房地产集团有限公司,中山,20190623,38.92565613737007,121.66193575790903,嘉和广场,120,19096,大连华安物业管理有限公司,3.8,辽宁,3,二手房,2014
无门店信息,大连,暂无信息,开发区,20190623,34.52713835999158,118.76812980670795,十里岗小区,63,5870,大连经济技术开发区盛辉物业服务有限公司,0.5,辽宁,2,二手房,1996
甘井子辛吉街150号-7号,大连,大连新星房地产开发有限公司,甘井子,20190623,38.96368508446978,121.52671221254214,新星绿城二期,23,13097,大连生生物业管理有限公司,0.5,辽宁,2,二手房,2005
西岗区新田巷27号1-2,大连,无开发商,西岗,20190623,38.893215932589385,121.64103065169111,新河街,16,10675,无物业管理服务,-,辽宁,2,二手房,1995
中山区岭前街53-5,大连,无开发商,中山,20190623,38.89487069426055,121.65795959631497,岭前街,14,14790,街道办事处（居委会）代管物业,0.4,辽宁,2,二手房,1995
中山区解放路471-22号,大连,大连青云天下房地产有限公司,中山,20190623,38.901309943567504,121.65419095766659,青云天下,12,24701,大连青云天下物业服务有限公司,4.3,辽宁,2,二手房,2018
沙河口区黑石礁街5号1层1号,大连,大连鹏生房地产开发有限公司,沙河口,20190623,38.879813345473714,121.56313742300513,鹏莱花园,13,14874,大连新兴物业管理有限公司,0.3,辽宁,2,二手房,1998
开发区小孤山西里3栋-11号,大连,大连开发区世元房地产开发有限公司,开发区,20190623,39.02715282297674,121.80682183666346,东庭印象,30,10062,大连经济技术开发区鹏达物业管理有限公司,1.2,辽宁,2,二手房,2007
沙河口区黑石礁街3号1层1-1号,大连,无开发商,沙河口,20190623,38.880058010307856,121.56313403908827,东财烛光园,7,18285,无物业管理服务,-,辽宁,2,二手房,1988
沙河口区昌黎街77号楼第1层公建,大连,大连城市建设集团有限公司,沙河口,20190623,38.91974518366595,121.5902918379551,79中君安公寓,10,18039,大连广安物业有限公司,1.2,辽宁,2,二手房,1998
中山区中南路226号,大连,大连亿成房屋开发有限公司,中山,20190623,38.90029610333926,121.68178899957817,亿成花园,4,14852,大连维尔利物业管理有限公司,0.8,辽宁,2,二手房,2000
中山区高尚路28-1号,大连,大连锦绣房地产开发有限公司,中山,20190623,38.892673425111305,121.67148833870213,高云街,16,9293,街道办事处（居委会）代管物业,0.3,辽宁,2,二手房,1994
沙河口区中山路417A-4号,大连,无开发商,沙河口,20190623,38.90740323140171,121.59484801084653,连华街,15,15981,无物业管理服务,-,辽宁,2,二手房,1995
开发区东北三街94号1层,大连,大连同济房地产开发有限公司,开发区,20190623,39.05723508011585,121.80570768630555,新东方公寓二期,48,5641,大连同济物业管理有限公司,1.5,辽宁,2,二手房,2007
大连市沙河口区西南路875号1层21号,大连,大连泰安房地产开发有限公司,沙河口,20190623,38.94485969061231,121.58418648447764,春柳河小区,18,11475,大连三宝物业有限公司,0.5,辽宁,2,二手房,2001
甘井子区虹港路391号第五幢1单元1跃2层3号,大连,暂无信息,甘井子,20190623,38.96606635942528,121.53201387432493,商务学院,16,12830,亿达物业管理有限公司,0.5,辽宁,2,二手房,1996
甘井子区迎客路郭东街一品蓝天公建14号,大连,沈阳军区后勤部,甘井子,20190623,38.958456949708726,121.556756277476,金寓花园三期,4,17243,大连瑞祥物业管理有限公司,1,辽宁,2,二手房,2009
中山区华乐街71号公建,大连,暂无信息,中山,20190623,38.923187679200566,121.6843197903016,东港印象A区,13,19499,大连众和物业管理有限公司,1.2,辽宁,2,二手房,2008
中山区南山路59号1层4号,大连,无开发商,中山,20190623,38.91992239075882,121.6479206962747,祝胜街（昆明街）,4,17195,无物业管理服务,-,辽宁,2,二手房,1988
沙河口区五四路207-1-9号,大连,大连华邦房地产开发有限公司,沙河口,20190623,38.913544290955585,121.59450670056631,华邦上都,21,18806,大连华邦物业有限公司,1.7,辽宁,2,二手房,2006
沙河口区五四路207-1-9号,大连,中航国际中航地产,沙河口,20190623,38.913544290955585,121.59450670056631,中航国际广场,27,21392,中航物业管理有限公司大连分公司,3.6,辽宁,2,二手房,2016
甘井子区惠泽南园3-7号,大连,大连盛达基业房地产开发有限公司,甘井子,20190623,38.939326611323615,121.52337842113351,西山湖语,12,15893,大连旺宇物业有限公司,1.8,辽宁,2,二手房,2014
天河路173-2号 华润考拉22号公建,大连,大连华南房地产开发有限公司,甘井子,20190623,23.14720645345518,113.3277414923158,名贵山庄华丽园,15,13581,大连弘益达物业管理有限公司,0.5,辽宁,2,二手房,2002
金州区拥政街道733号-8号1-2层,大连,无开发商,金州,20190623,39.11690610445662,121.73030803603723,花园小区,21,8285,大连四通物业管理有限公司,0.1,辽宁,2,二手房,1993
沙河口区黄河路535号,大连,大连金广地产集团有限公司,沙河口,20190623,38.91773777159567,121.60217159922856,79中美加华公寓,33,21615,大连亮泰安邦物业有限公司,2,辽宁,2,二手房,2008
高新园敬贤街23-11号,大连,暂无信息,高新园区,20190623,38.869456648212356,121.53023725049893,中海紫御观邸四期,10,20307,大连中海物业管理有限公司,2.6,辽宁,2,二手房,2013
沙河口区敦煌路357号10-11轴公建,大连,大连银泰房地产有限公司,沙河口,20190623,38.93891619583455,121.59150694046835,敦煌大厦,4,9936,大连银泰物业管理有限公司,0.5,辽宁,2,二手房,1999
甘井子区华龙南园12-4-3-1-3,大连,大连融汇置业有限公司,甘井子,20190623,38.98528794231248,121.61028969481718,格林翠庭,7,14859,北京房修一物业管理有限公司,1.3,辽宁,2,二手房,2009
金州区同济路44号,大连,大连永乐房地产开发有限公司,金州,20190623,39.10476859984152,121.71234684495865,永乐金庭,37,9955,大连天河物业管理有限公司,0.8,辽宁,2,二手房,2006
沙河口区沙能街101号1单元1层1号,大连,大连大力置业有限公司,沙河口,20190623,38.9366316275348,121.59031205759763,机车佳苑,7,15500,大连大力物业管理有限公司,1.5,辽宁,2,二手房,2009
甘井子区红旗中路143号1层4号,大连,大连红旗兴达房地产开发有限公司,甘井子,20190623,38.93169566676921,121.5426632438217,吉祥街,6,11309,大连金诚物业管理有限公司,0.2,辽宁,2,二手房,1996
沙河口区鞍山路65号美都园7号1单元1层4号公建,大连,远洋地产有限公司,沙河口,20190623,38.92755211283745,121.60306664748275,绿都园,18,14421,大连峰霖物业管理有限公司,0.6,辽宁,2,二手房,2000
甘井子区泉水P3区35-2号,大连,暂无信息,甘井子,20190623,39.01530162252779,121.63546089163083,泉水P1区,13,10905,暂无信息,1.2,辽宁,2,二手房,2012
高新园区海苑街36号1单元2号公建,大连,千汇德（大连）置业有限公司,高新园区,20190623,20.06392317589085,110.32302599457326,哈佛映像,17,18842,大连千汇德物业管理有限公司,1.2,辽宁,2,二手房,2009
沙河口区中山路417A-4号,大连,大连电业房地产开发有限公司,沙河口,20190623,38.90740323140171,121.59484801084653,电力公寓,11,15937,街道办事处（居委会）代管物业,0.7,辽宁,2,二手房,2000
沙河口区华北路404号,大连,无开发商,沙河口,20190623,38.8862815932937,121.59082948696123,园丁巷,7,9759,街道办事处（居委会）代管物业,0.3,辽宁,2,二手房,1990
沙河口区五四路207-1-9号,大连,无开发商,沙河口,20190623,38.913544290955585,121.59450670056631,五四路,16,12261,无物业管理服务,-,辽宁,2,二手房,1992
金州区站前街道盛滨花园B区13号楼2号公建,大连,无开发商,金州,20190623,39.09609011892329,121.7335816409767,金源花园小区,18,6886,街道办事处（居委会）代管物业,0.5,辽宁,2,二手房,1998
甘井子区山东路商业街D区12号公建,大连,大连市大钢集团,甘井子,20190623,39.001060021502965,121.58883960371418,梅山路,10,12335,街道办事处（居委会）代管物业,0.1,辽宁,2,二手房,1982
西岗区新田巷27号1-2,大连,无开发商,西岗,20190623,38.893215932589385,121.64103065169111,新丽街,14,9651,无物业管理服务,-,辽宁,2,二手房,1992
西岗区鞍山路29号龙畔锦城东门,大连,无开发商,西岗,20190623,38.92763470697088,121.61498923399098,北京街北,43,12802,无物业管理服务,-,辽宁,2,二手房,1981
大连市沙河口区知邻街50号,大连,大连亿达房地产股份有限公司,沙河口,20190623,38.913544290955585,121.59450670056631,东方圣荷西,33,24647,亿达物业管理有限公司,2.6,辽宁,2,二手房,2008
中山区鲁迅路184号1层B—A,大连,无开发商,中山,20190623,38.92590875965419,121.67594393403164,39中山岳街,12,17671,无物业管理服务,-,辽宁,2,二手房,1998
沙河口区五四路207-1-9号,大连,无开发商,沙河口,20190623,38.913544290955585,121.59450670056631,集贤北街,2,14315,无物业管理服务,0.5,辽宁,2,二手房,1995
中山区华乐街71号公建,大连,大连环海房地产开发有限公司,中山,20190623,38.923187679200566,121.6843197903016,华乐小区,19,14448,大连景和物业管理有限公司,0.5,辽宁,2,二手房,2000
沙河口区五一路110-4号,大连,大连亿达房地产股份有限公司,沙河口,20190623,38.913544290955585,121.59450670056631,兰亭山水,36,21252,亿达物业管理有限公司,0.6,辽宁,2,二手房,2003
大连市开发区裕民新苑42-7,大连,无开发商,开发区,20190623,39.070771020021674,121.85093056856022,澳东世纪,28,11390,街道办事处（居委会）代管物业,0.5,辽宁,2,二手房,2002
中山区中南路226号,大连,大连澳南房屋开发有限公司,中山,20190623,38.90029610333926,121.68178899957817,伊顿山庄,11,24198,大连澳南物业管理有限公司,0.8,辽宁,2,二手房,2005
开发区东北三街94号1层,大连,鑫鸿房地产开发公司,开发区,20190623,39.05723508011585,121.80570768630555,雍景国际,38,6430,街道办事处（居委会）代管物业,1.2,辽宁,2,二手房,2002
高新园区火炬路18号,大连,大连千业房地产开发有限公司,高新园区,20190623,38.937738080520404,117.39340752036043,第8区,36,17585,大连大管家物业管理有限公司,1.9,辽宁,2,二手房,2012
中山区民建街10号1单元1号,大连,暂无信息,中山,20190623,38.925444479476894,121.66915026954452,39中港湾街,2,19805,无物业管理服务,-,辽宁,2,二手房,1995
中山区清溪南街11号,大连,大连澳南房屋开发有限公司,中山,20190623,38.88919604283904,121.66466481004835,明秀嘉园,6,24705,大连澳南物业管理有限公司,1.2,辽宁,2,二手房,2007
甘井子区祥龙街2号楼1单元1楼1号,大连,大连源隆房地产开发有限公司,甘井子,20190623,38.988045874482445,121.60439401971377,鑫汇茗苑,13,16899,大连佳和物业管理有限公司,1.6,辽宁,2,二手房,2011
甘井子区华北路花锦园28号23-3-1-2建筑物,大连,无开发商,甘井子,20190623,38.951627958411166,121.5739439799003,久胜街,20,16358,街道办事处（居委会）代管物业,0.1,辽宁,2,二手房,1989
甘井子区华龙南园34-5号34-库4号34-5号,大连,中信集团大连中信房地产开发公司,甘井子,20190623,38.98270467597865,121.6117222765123,惠丰小区,27,10001,大连中信物业管理有限公司,0.2,辽宁,2,二手房,1989
甘井子区金北街17号,大连,大连悦泰集团有限公司,甘井子,20190623,38.95800216293212,121.53151895549547,悦泰馨家,28,25332,大连优豪斯物业管理有限公司,0.5,辽宁,2,二手房,2003
甘井子区华北路花锦园28号23-3-1-2建筑物,大连,大连东特房地产开发有限公司,甘井子,20190623,38.951627958411166,121.5739439799003,东特金星公馆,33,16191,大连东特祥禾物业管理有限公司,1.2,辽宁,2,二手房,2009
西岗区九三街64号,大连,大连金福星房地产开发有限公司,西岗,20190623,38.92047268927287,121.61862512554262,金福星大厦,6,8612,大连金星物业管理中心,2.2,辽宁,2,二手房,2001
甘井子区泉水P3区35-2号,大连,暂无信息,甘井子,20190623,39.01530162252779,121.63546089163083,泉水P2区,6,11389,暂无信息,1.2,辽宁,2,二手房,2014
无门店信息,大连,大连新兴海韵房地产开发有限公司,开发区,20190623,34.52713835999158,118.76812980670795,山海家园,16,15670,大连经济技术开发区通讯物业有限公司,0.5,辽宁,2,二手房,2004
甘井子区山东路137号,大连,大连新型房地产开发有限公司,甘井子,20190623,38.99129404608926,121.59172125999353,华南花园,33,13429,大连天洋物业管理有限公司,0.3,辽宁,2,二手房,1990
金州新区站前街道生辉第一城5号楼1-2层4号,大连,大连博洋房地产开发有限公司,金州,20190623,39.05819721414208,121.74650438736514,金洋小区,23,6647,街道办事处（居委会）代管物业,0.1,辽宁,2,二手房,2000
中山区解放路471-22号,大连,无开发商,中山,20190623,38.901309943567504,121.65419095766659,解放路（青云街商圈）,8,12043,街道办事处（居委会）代管物业,0.6,辽宁,2,二手房,1997
高新园区黄浦路901S号1单元1层3号,大连,大连金真源集团房地产开发有限公司,高新园区,20190623,38.85845801548294,121.51687109601923,山海一家二期,29,14032,大连龙海物业管理有限公司,0.8,辽宁,2,二手房,2005
红星海A区126-4,大连,大连光伸房地产开发有限公司,开发区,20190623,39.027851194371685,121.80327394132297,绿洲半岛三期,40,10083,大连经济技术开发区光伸物业服务有限公司,0.6,辽宁,2,二手房,2005
开发区大开高吉里33栋6号,大连,无开发商,开发区,20190623,39.07355836059941,121.8280439450145,高安里回迁楼,11,8330,大连华宸物业管理有限公司,0.2,辽宁,2,二手房,1998
无门店信息,大连,无开发商,金州,20190623,34.52713835999158,118.76812980670795,金山名苑,20,9639,大连金山物业管理有限公司,0.5,辽宁,2,二手房,2009
无门店信息,大连,大连鹏辉房地产开发有限公司,甘井子,20190623,34.52713835999158,118.76812980670795,鹏辉新天居三期,55,14040,大连鹏辉物业管理有限公司,0.8,辽宁,2,二手房,2009
无门店信息,大连,大连盈丰置业有限公司,金州,20190623,34.52713835999158,118.76812980670795,尚海华庭,36,9183,大连盈丰置业有限公司,1.3,辽宁,2,二手房,2014
甘井子区华北路花锦园28号23-3-1-2建筑物,大连,大连东特房地产开发有限公司,甘井子,20190623,38.951627958411166,121.5739439799003,星加坡花园,25,18206,大连东特祥禾物业管理有限公司,0.6,辽宁,2,二手房,2004
西岗区胜利路33号,大连,暂无信息,西岗,20190623,38.91309771954841,121.62500886627636,34中兴民街,11,27250,无物业管理服务,-,辽宁,2,二手房,1970
中山区益民街16号1层1号,大连,大连三鑫房地产开发有限公司,中山,20190623,38.93092761298906,121.66470740073377,金和苑,17,22600,大连报业物业管理有限公司三鑫分公司,3.5,辽宁,2,二手房,2004
金州新区先进街道五一路350-1号1-2层,大连,暂无信息,金州,20190623,39.078667146419825,121.77094423323935,聚鑫小区一期,61,7625,大连新生活物业管理有限公司,0.5,辽宁,2,二手房,1993
高新园区火炬路18号,大连,大连海创房地产开发有限公司,高新园区,20190623,38.937738080520404,117.39340752036043,芝麻街,61,14115,大连海创物业管理有限公司,2.4,辽宁,2,二手房,2010
中山区鲁迅路184号1层B—A,大连,无开发商,中山,20190623,38.92590875965419,121.67594393403164,海滨住宅小区（寺儿沟商圈）,9,11360,无物业管理服务,-,辽宁,2,二手房,1995
经济技术开发区城润万家4-5号公建,大连,诠盛置业（大连）有限公司,开发区,20190623,39.05716325096989,121.75946281983826,清都记忆,44,12327,金科物业服务集团有限公司,0.5,辽宁,2,二手房,2013
金州区光明街道育才街42-6号1-2层,大连,暂无信息,金州,20190623,39.109080894078986,121.7182584929096,芙蓉花园（金州）,30,9723,大连金州新区建房物业管理中心,0.6,辽宁,2,二手房,2007
甘井子区红旗中路143号1层4号,大连,亿海房地产开发有限公司,甘井子,20190623,38.93169566676921,121.5426632438217,水苑居,12,16340,大连万泰物业管理有限公司,0.6,辽宁,2,二手房,2003
甘井子区亿家缘虹韵路205,大连,大连耕海置业有限公司,甘井子,20190623,38.95647848453699,121.53130152244339,国民院子,33,21082,大连耕海物业管理有限公司,2,辽宁,2,二手房,2012
中山区民建街10号1单元1号,大连,无开发商,中山,20190623,38.925444479476894,121.66915026954452,39中顺阳街,35,20264,无物业管理服务,-,辽宁,2,二手房,1995
甘井子区玉丽街39号楼3号公建,大连,暂无信息,甘井子,20190623,38.98706755029984,121.55605471197089,泡崖康祥园,24,11513,大连新兴物业管理有限公司,0.5,辽宁,2,二手房,2005
金州新区八一路金都嘉园1号楼1号公建,大连,大连友谊合升房地产开发有限公司,金州,20190623,39.05525210261778,121.74865634199398,宏意小区,62,7289,大连天河物业管理有限公司,0.4,辽宁,2,二手房,2009
大连市甘井子中华路街道汇畅街48号,大连,大连嘉盈置业有限公司,甘井子,20190623,39.0059299196697,121.59621871231741,宏都熙景,38,22355,大连宏都物业管理有限公司,2.3,辽宁,2,二手房,2016
高新园区火炬路18号,大连,大连奥泰房地产开发有限公司,高新园区,20190623,38.937738080520404,117.39340752036043,因特摩尔,59,17990,大连奥泰物业服务有限公司,2.6,辽宁,2,二手房,2011
沙河口区联合路133号,大连,大连新型房地产开发有限公司,沙河口,20190623,38.91608561262676,121.60480987310456,21中联德小区,5,21601,大连新型物业管理有限公司,0.5,辽宁,2,二手房,1998
中山区金城街26号一楼,大连,无开发商,中山,20190623,38.922282529515634,121.65214466263014,友好路,6,15207,无物业管理服务,-,辽宁,2,二手房,1990
中山区北斗街53号1层1号,大连,大连大森房地产开发有限公司,中山,20190623,38.92727355733075,121.67002970974048,东港林苑,20,17244,大连美心物业管理有限公司,2.8,辽宁,2,二手房,2013
西岗区长春路334号,大连,无开发商,西岗,20190623,38.89807766522607,121.63221082858387,南石巷,11,11441,无物业管理服务,0.5,辽宁,2,二手房,1992
西岗区八一路196号1-3,大连,无开发商,西岗,20190623,38.92047268927287,121.61862512554262,新泉巷,15,9288,无物业管理服务,-,辽宁,2,二手房,1990
西岗区黄河路82号,大连,大连富泰房地产开发有限公司,西岗,20190623,38.92243503020161,121.6287927913896,悦泰福里,29,21987,大连百安物业管理有限公司,2.8,辽宁,2,二手房,2014
金州区同济路44号,大连,大连金开信都房地产开发有限公司,金州,20190623,39.10476859984152,121.71234684495865,海天新界,54,8272,大连西海岸物业管理有限公司,1,辽宁,2,二手房,2011
甘井子区泉水P3区35-2号,大连,大连鑫成置业有限公司,甘井子,20190623,39.01530162252779,121.63546089163083,欧尚广场,48,17894,大连宏华物业服务有限公司,1.5,辽宁,2,二手房,2009
沙河口区五一路109-4号,大连,大连正源房地产开发有限公司,沙河口,20190623,38.913544290955585,121.59450670056631,幸福e家一期,23,31353,大连正源物业服务有限公司,0.8,辽宁,2,二手房,2002
西岗区鞍山路29号龙畔锦城东门,大连,无开发商,西岗,20190623,38.92763470697088,121.61498923399098,双兴北巷（大菜市商圈）,10,10870,街道办事处（居委会）代管物业,0.5,辽宁,2,二手房,1995
中山区中南路226号,大连,大连大业房屋开发有限公司,中山,20190623,38.90029610333926,121.68178899957817,阳光花园二期,8,13847,大连全得利物业管理有限公司,0.5,辽宁,2,二手房,1997
沙河口区锦云北园9号2单元1层2号,大连,大连锦绣房地产开发有限公司,沙河口,20190623,38.94836395772248,121.55744845421044,锦云北园,26,10255,大连锦绣物业管理有限公司,0.3,辽宁,2,二手房,1996
金州区小平岛B组团4号楼3号商铺,大连,大连安达房地产开发有限公司,高新园区,20190623,39.05643299166072,121.78943558267059,小平岛E东组团,36,21609,大连凯尔富物业管理有限公司,1.3,辽宁,2,二手房,2007
高新园区书香街1A#1-1-2,大连,大连金弘基房地产开发有限公司,高新园区,20190623,38.880372108393104,121.55218773010999,弘基一期,28,20826,大连金弘基物业管理有限公司,0.6,辽宁,2,二手房,2001
甘井子区华东路22号公建,大连,大连金广地产集团有限公司,甘井子,20190623,38.97736184953593,121.5935814234334,华东路（山东路商圈）,22,11597,大连嘉和物业管理有限公司,0.5,辽宁,2,二手房,1990
开发区红梅小区19栋-2-1-1号,大连,无开发商,开发区,20190623,29.906498897603264,121.5913630631805,金玛海景,7,11941,街道办事处（居委会）代管物业,1,辽宁,2,二手房,2007
中山区爱华街13号,大连,大连新世界广场国际有限公司,中山,20190623,38.92541607518685,121.6535728031028,曼哈顿大厦,44,14161,大连侨乐物业服务有限公司,3.5,辽宁,2,二手房,2004
中山区东港龙湖水晶郦湾7-102,大连,大连创富房地产开发有限公司,中山,20190623,38.924700620463895,121.70344398518496,中国铁建国滨苑,33,24860,北京国贸物业,4.3,辽宁,2,二手房,2015
沙河口区华北路404号,大连,无开发商,沙河口,20190623,38.8862815932937,121.59082948696123,华北路（春柳商圈）,12,10744,街道办事处（居委会）代管物业,0.1,辽宁,2,二手房,1980
中山区华乐街93—1号,大连,大连鸿雁房地产开发公司,中山,20190623,38.921950924512124,121.68673151242629,海之恋花园,25,16853,大连鸿雁物业有限公司,0.8,辽宁,2,二手房,2001
西岗区绕山路31号公建一层东侧,大连,无开发商,西岗,20190623,38.90257514466717,121.61412736644739,山庄北三街,9,10303,无物业管理服务,-,辽宁,2,二手房,1990
开发区湾里南12栋-16-17-18号,大连,开发区城建局,开发区,20190623,39.070782084451,121.8506739675913,宜宁里,58,5997,大连宏港物业管理有限公司,0.2,辽宁,2,二手房,1992
西岗区长春路334号,大连,无开发商,西岗,20190623,38.89807766522607,121.63221082858387,曙光巷,14,11257,无物业管理服务,-,辽宁,2,二手房,1990
甘井子区金北路17号,大连,暂无信息,甘井子,20190623,38.97553393692831,121.59969720502335,金二小学南,38,20393,无物业管理服务,-,辽宁,2,二手房,1976
金州区拥政街道733号-8号1-2层,大连,大连盛铭资产管理有限公司,金州,20190623,39.11690610445662,121.73030803603723,安盛花园（金州）,20,10835,大连经济技术开发区海青物业有限公司,1,辽宁,2,二手房,2000
甘井子区哲林北园17-6号,大连,大连大力房屋开发有限公司,甘井子,20190623,38.9600267109581,121.53876726228256,圆梦园,10,20209,大连嘉禾物业管理服务有限公司,1.6,辽宁,2,二手房,2015
西岗区长红街4号1号公建,大连,暂无信息,西岗,20190623,38.91377414665191,121.6302525225721,34中长红街,28,24633,无物业管理服务,-,辽宁,2,二手房,1990
沙河口区星海广场B3区14-2号1层,大连,大连友谊合升房地产开发有限公司,沙河口,20190623,38.88693148294673,121.58735631267305,壹品星海一期,55,23338,大连友谊物业服务有限公司,1.3,辽宁,2,二手房,2005
甘井子区榆水街6-9号公建,大连,大连弘润置业有限公司,甘井子,20190623,38.97957540063716,121.52458567456938,万科城市之光,60,21922,大连万科物业服务有限公司,2.8,辽宁,2,二手房,2015
甘井子区芳韵街31号,大连,亿达集团大连房地产开发有限公司,甘井子,20190623,38.95628814568166,121.59125586946814,亿达世纪城,60,24372,亿达物业管理有限公司,0.9,辽宁,2,二手房,2002
中山区武昌街武昌公寓6号公建,大连,大连中盛集团有限公司,中山,20190623,38.912280913445784,121.64921130527547,武昌花园,9,12956,无物业管理服务,0.3,辽宁,2,二手房,1990
中山区中南路店212号门头房,大连,无开发商,中山,20190623,38.91149759691359,121.67700561077149,转山小区,16,12757,大连怡和物业服务有限公司,0.3,辽宁,2,二手房,1990
西岗区新田巷27号1-2,大连,无开发商,西岗,20190623,38.893215932589385,121.64103065169111,新昌街,22,10161,无物业管理服务,-,辽宁,2,二手房,1996
甘井子区玉丽街39号楼3号公建,大连,大连新型房地产开发有限公司,甘井子,20190623,38.98706755029984,121.55605471197089,玉丽街,78,9739,大连新兴物业管理有限公司,0.5,辽宁,2,二手房,2002
沙河口区富国街34-3,大连,无开发商,沙河口,20190623,38.90159716600704,121.58930603357904,星海街,39,12282,无物业管理服务,-,辽宁,2,二手房,1990
金州区拥政街道733号-8号1-2层,大连,无开发商,金州,20190623,39.11690610445662,121.73030803603723,古城甲区,119,7633,街道办事处（居委会）代管物业,0.5,辽宁,2,二手房,1990
金州区拥政街道733号-8号1-2层,大连,大连千川房地产有限公司,金州,20190623,39.11690610445662,121.73030803603723,湖畔嘉园,18,10761,大连千川物业管理有限公司,3.8,辽宁,2,二手房,2007
沙河口区星海广场B3区14-2号1层,大连,大连万达房地产开发有限公司,沙河口,20190623,38.88693148294673,121.58735631267305,大连明珠,70,26727,大连万象美物业管理有限公司,3.5,辽宁,2,二手房,2008
开发区东北三街94号1层,大连,开发区城建局,开发区,20190623,39.05723508011585,121.80570768630555,倚园里小区,60,7628,大连佳兴物业管理有限公司,0.3,辽宁,2,二手房,1999
沙河口区连山街10号2-1-2,大连,大连城市建设集团有限公司,沙河口,20190623,38.89637522563413,121.57143690983219,莱州街,35,11051,无物业管理服务,-,辽宁,2,二手房,1990
金州新区八一路金都嘉园1号楼1号公建,大连,大连天程置业有限公司,金州,20190623,39.05525210261778,121.74865634199398,御河壹號,12,10001,大连天程置业有限公司,1.2,辽宁,2,二手房,2015
金州区同济路44号,大连,大连新界置业有限公司,金州,20190623,39.10476859984152,121.71234684495865,新青年印象,67,7784,大连新青年物业管理有限公司,1.3,辽宁,2,二手房,2014
中山区清溪南街11号,大连,大连澳南房屋开发有限公司,中山,20190623,38.88919604283904,121.66466481004835,明秀山庄B区,32,35494,绿城物业服务集团有限公司大连分公司,1.9,辽宁,2,二手房,2008
中山区共建巷61号,大连,无开发商,中山,20190623,38.91828093658718,121.66259221532148,39中望海街,12,25842,街道办事处（居委会）代管物业,0.5,辽宁,2,二手房,1995
无门店信息,大连,大连招源房地产有限公司,甘井子,20190623,34.52713835999158,118.76812980670795,招商海德公园,23,17704,招商局物业管理有限公司大连分公司,2.6,辽宁,2,二手房,2018
中山区民建街10号1单元1号,大连,无开发商,中山,20190623,38.925444479476894,121.66915026954452,39中学士街,33,19431,无物业管理服务,-,辽宁,2,二手房,1995
莲花山路89-3号,大连,无开发商,沙河口,20190623,38.902848261803356,121.6041720815823,新华街,12,13435,无物业管理服务,-,辽宁,2,二手房,1999
沙河口区前程街15号1层E-C轴36-44轴公建,大连,大连安邦房地产开发有限公司,甘井子,20190623,38.91588050824643,121.60099647548584,阳光百合,12,17254,渤海吉祥物业管理有限公司,0.8,辽宁,2,二手房,2004
甘井子区甘井子路32号楼1单元1楼9号,大连,大连和华房地产开发有限公司,甘井子,20190623,38.982488275116516,121.63345389253514,万成御园,14,14423,大连银力物业管理有限公司,1.3,辽宁,2,二手房,2015
大连市金州新区中长街道碧海尚城5-4号1-2层,大连,无开发商,金州,20190623,39.100290954587514,121.7304796052032,于洼小区,67,7267,街道办事处（居委会）代管物业,0.1,辽宁,2,二手房,1990
甘井子区金北路17号,大连,暂无信息,甘井子,20190623,38.97553393692831,121.59969720502335,76中学桥南,75,16143,无物业管理服务,0.2,辽宁,2,二手房,1970
无门店信息,大连,大连安邦房地产开发有限公司,甘井子,20190623,34.52713835999158,118.76812980670795,西郊闲庭,19,12586,大连龙城物业服务有限公司,1,辽宁,2,二手房,2010
甘井子区柳树南街45-10号,大连,大连顺达房屋开发有限公司,甘井子,20190623,38.92567666296449,121.4841330254372,顺达温泉花园三期,40,11863,大连顺达物业服务有限公司,0.6,辽宁,2,二手房,2007
无门店信息,大连,大连软件园恒荣开发有限公司,高新园区,20190623,34.52713835999158,118.76812980670795,亿达普罗旺斯三期,29,21049,亿达物业管理有限公司,2.6,辽宁,2,二手房,2017
西岗区香炉礁24号1-1,大连,中瑞置业（大连）有限公司,西岗,20190623,38.92047268927287,121.61862512554262,香周首府,77,19426,中融物业管理有限公司,3,辽宁,2,二手房,2014
开发区黄海西路201号107公建,大连,大连开建房地产开发有限公司,开发区,20190623,39.04942604506828,121.80126318235419,芙蓉花园(开发区),45,6959,嘉兴物业管理有限公司,0.4,辽宁,2,二手房,2001
金州区南棉路310号,大连,暂无信息,金州,20190623,39.09939229372624,121.72414976100345,环保小区,18,7219,街道办事处（居委会）代管物业,0.5,辽宁,2,二手房,1990
无门店信息,大连,大连融和房地产开发有限公司,开发区,20190623,34.52713835999158,118.76812980670795,岚山著作,31,9632,大连昌和物业管理有限公司,1.3,辽宁,2,二手房,2014
沙河口区长江路738号,大连,大连大和中盛房地产有限公司,西岗,20190623,38.913544290955585,121.59450670056631,颐和香榭,45,29065,大连颐和物业管理有限公司,2.5,辽宁,2,二手房,2008
大连经济技术开发区同和里7栋-9号,大连,无开发商,开发区,20190623,39.04901984220615,121.7885236929847,新星里,45,8095,大连广谊物业管理有限公司,0.3,辽宁,2,二手房,2003
开发区松苑街23号,大连,无开发商,开发区,20190623,22.52087435807652,113.40156105086167,松林里小区,7,12928,街道办事处（居委会）代管物业,0.5,辽宁,2,二手房,1996
开发区松苑街23号,大连,无开发商,开发区,20190623,22.52087435807652,113.40156105086167,松峪里一期,17,12259,大连中信物业管理有限公司,0.5,辽宁,2,二手房,2000
中山区民建街10号1单元1号,大连,无开发商,中山,20190623,38.925444479476894,121.66915026954452,39中爱阳街,22,20201,无物业管理服务,-,辽宁,2,二手房,1993
甘井子区汇仁街19号12号楼1单元102室,大连,大连华南房地产开发有限公司,甘井子,20190623,38.99746297497168,121.58917714380617,名贵山庄华夏园,9,13919,大连弘益达物业管理有限公司,0.5,辽宁,2,二手房,2004
无门店信息,大连,大连振富房屋开发有限公司,西岗,20190623,34.52713835999158,118.76812980670795,振富公寓（胜利桥北商圈）,40,8978,大连中海振富物业管理有限公司,1.1,辽宁,2,二手房,2002
无门店信息,大连,大连金石文化旅游投资有限公司,金州,20190623,34.52713835999158,118.76812980670795,大连金石天成,44,8610,大连万达物业管理有限公司,1.8,辽宁,2,二手房,2009
甘井子区柳树南街45-11号,大连,中海新海汇（大连）置业有限公司,甘井子,20190623,38.92567666296449,121.4841330254372,中海御湖熙谷,75,15124,大连中海物业管理有限公司,2.2,辽宁,2,二手房,2014
金州区小平岛B组团4号楼3号商铺,大连,安达圣岛开发有限公司,高新园区,20190623,39.05643299166072,121.78943558267059,小平岛亲海园,65,17359,大连凯尔富物业管理有限公司,1.3,辽宁,2,二手房,2007
高新园区敬贤街25-9,大连,大连东盛房地产开发有限公司,高新园区,20190623,38.86879447142154,121.53007349209936,东盛启城,35,17550,大连东盛物业管理有限公司,2.3,辽宁,2,二手房,2012
甘井子区柳树南街45-11号,大连,大连顺达房屋开发有限公司,甘井子,20190623,38.92567666296449,121.4841330254372,顺达温泉花园一期,10,11320,大连顺达物业服务有限公司,0.6,辽宁,2,二手房,2003
中山区爱华街13号,大连,无开发商,中山,20190623,38.92541607518685,121.6535728031028,万民街（三八广场）,5,12573,无物业管理服务,-,辽宁,1,二手房,1993
大连市沙河口区西南路875号1层21号,大连,暂无信息,沙河口,20190623,38.94485969061231,121.58418648447764,凌云一街,0,9602,暂无信息,-,辽宁,1,二手房,-
中山区同心街72号1楼公建,大连,无开发商,中山,20190623,38.91979245940674,121.64769198230202,胜利东路,0,15082,无物业管理服务,-,辽宁,1,二手房,1988
中山区解放路471-22号,大连,暂无信息,中山,20190623,38.901309943567504,121.65419095766659,青云公寓,1,9191,暂无信息,1,辽宁,1,二手房,1990
无门店信息,大连,大连宸泰房地产开发有限公司,旅顺口,20190623,34.52713835999158,118.76812980670795,丽水佳园,8,8019,暂无信息,-,辽宁,1,二手房,-
中山区山屏街116号1-1,大连,暂无信息,中山,20190623,38.90729438486833,121.68598159980013,干休所,2,14867,街道办事处（居委会）代管物业,0.1,辽宁,1,二手房,1988
西岗区绕山路31号公建一层东侧,大连,暂无信息,沙河口,20190623,38.90257514466717,121.61412736644739,山庄南二巷,3,11394,暂无信息,-,辽宁,1,二手房,1990
沙河口区昌黎街77号楼第1层公建,大连,大连高新园区建设开发总公司,沙河口,20190623,38.91974518366595,121.5902918379551,79中昌隆大厦,14,18388,无物业管理服务,-,辽宁,1,二手房,1998
西岗区八一路102号,大连,无开发商,西岗,20190623,38.92047268927287,121.61862512554262,杏红巷,7,10735,无物业管理服务,-,辽宁,1,二手房,1994
中山区北斗街53号1层1号,大连,无开发商,中山,20190623,38.92727355733075,121.67002970974048,北斗街（二七商圈）,4,14020,无物业管理服务,-,辽宁,1,二手房,1990
无门店信息,大连,暂无信息,金州,20190623,34.52713835999158,118.76812980670795,金馨园一区,2,6806,暂无信息,-,辽宁,1,二手房,-
中山区职工街96号1-3层公建,大连,大连天通房地产开发有限公司,中山,20190623,38.92565613737007,121.66193575790903,天通金融大厦,4,11468,无物业管理服务,-,辽宁,1,二手房,2006
开发区金马路169-2-6号房屋,大连,无开发商,开发区,20190623,39.057398235688176,121.78261137849105,收获公寓,15,7064,街道办事处（居委会）代管物业,0.5,辽宁,1,二手房,2000
西岗区八一路102号,大连,无开发商,西岗,20190623,38.92047268927287,121.61862512554262,华林巷,0,14151,无物业管理服务,-,辽宁,1,二手房,-
中山区北斗街53号1层1号,大连,暂无信息,中山,20190623,38.92727355733075,121.67002970974048,温州城,0,8748,暂无信息,-,辽宁,1,二手房,-
中山区民建街10号1单元1号,大连,无开发商,中山,20190623,38.925444479476894,121.66915026954452,39中鲁迅路（三八广场）,1,20250,无物业管理服务,-,辽宁,1,二手房,1995
中山区中南路店212号门头房,大连,大连金广地产集团有限公司,中山,20190623,38.91149759691359,121.67700561077149,迎宾花园,1,13515,大连德一物业管理有限公司,1.2,辽宁,1,二手房,2003
大连市金州区友谊街道南金华城25号1-2层1号,大连,大连金华房地产开发有限公司,金州,20190623,39.128677228885614,121.71356109978767,金华小区二期,40,8216,大连金华兴物业有限公司,0.5,辽宁,2,二手房,2006
中山区中青街87号一单元107,大连,无开发商,中山,20190623,38.90213494248529,121.65806522267005,光华巷,4,10943,无物业管理服务,-,辽宁,1,二手房,1990
中山区鲁迅路184号1层B—A,大连,无开发商,中山,20190623,38.92590875965419,121.67594393403164,北斗街（寺儿沟商圈）,1,14159,无物业管理服务,-,辽宁,1,二手房,1999
西岗区长春路334号,大连,暂无信息,西岗,20190623,38.89807766522607,121.63221082858387,天源山庄缘中园,3,12120,大连弘益达物业管理有限公司,0.2,辽宁,1,二手房,2000
中山区南山路59号1层4号,大连,无开发商,中山,20190623,38.91992239075882,121.6479206962747,南山路（昆明街商圈）,1,18889,无物业管理服务,-,辽宁,1,二手房,1982
中山区鲁迅路204号百盛新药特药商店一楼西侧部分,大连,暂无信息,中山,20190623,38.9258993614899,121.6768880001226,华山街,0,10335,无物业管理服务,-,辽宁,1,二手房,-
沙河口区兰田街33号,大连,无开发商,沙河口,20190623,38.926138912221084,121.56486022834609,西苑新区,4,14024,街道办事处（居委会）代管物业,0.3,辽宁,1,二手房,2000
西岗区中山路158号唐山街市场外14号,大连,暂无信息,西岗,20190623,38.91688106727098,121.63201298398174,34中畅通街,3,28429,无物业管理服务,-,辽宁,1,二手房,1980
西岗区八一路196号1-3,大连,暂无信息,西岗,20190623,38.92047268927287,121.61862512554262,靠山中巷,2,10656,社区物业,-,辽宁,1,二手房,1990
西岗区八一路196号1-3,大连,无开发商,西岗,20190623,38.92047268927287,121.61862512554262,靠山巷,12,10702,无物业管理服务,-,辽宁,1,二手房,1990
中山区三八广场5号,大连,大连宏正房地产开发有限公司,中山,20190623,38.92540000551715,121.6642911149562,宏都嘉园,1,22368,大连宏进物业管理有限公司,1.5,辽宁,1,二手房,2002
甘井子区华北路花锦园28号23-3-1-2建筑物,大连,暂无信息,甘井子,20190623,38.951627958411166,121.5739439799003,周水子广场,1,14654,无物业管理服务,0.5,辽宁,1,二手房,1990
无门店信息,大连,暂无信息,西岗,20190623,34.52713835999158,118.76812980670795,华良海景花园,7,22429,香港侨乐物业管理（中国）有限公司,1.5,辽宁,1,二手房,2004
沙河口区红旗东路18-22号2单元1楼3号,大连,无开发商,甘井子,20190623,38.913544290955585,121.59450670056631,兰兴巷,1,12628,大连辽南物业管理有限公司,0.2,辽宁,1,二手房,1992
金州区南棉路310号,大连,暂无信息,金州,20190623,39.09939229372624,121.72414976100345,连胜小区,5,6128,无物业管理服务,0.5,辽宁,1,二手房,1995
沙河口区昌黎街77号楼第1层公建,大连,清远君行房地产有限公司,沙河口,20190623,38.91974518366595,121.5902918379551,君安国际,1,8716,街道办事处（居委会）代管物业,11,辽宁,1,二手房,2010
金州区光明街道育才街42-6号1-2层,大连,大连市金州区光明房地产开发有限公司,金州,20190623,39.109080894078986,121.7182584929096,学府世家,2,11598,大连永和物业管理有限公司,1.2,辽宁,1,二手房,2011
开发区松苑街23号,大连,大连开建房地产开发有限公司,开发区,20190623,22.52087435807652,113.40156105086167,开建海景南苑,4,12872,大连万佳物业管理有限公司,1.2,辽宁,1,二手房,2002
中山区爱华街13号,大连,大连银河房地产开发有限公司,中山,20190623,38.92541607518685,121.6535728031028,银河公寓,5,9663,街道办事处（居委会）代管物业,-,辽宁,1,二手房,1996
西岗区八一路102号,大连,无开发商,西岗,20190623,38.92047268927287,121.61862512554262,群英阁,2,17856,无物业管理服务,-,辽宁,1,二手房,2000
西岗区八一路196号1-3,大连,无开发商,西岗,20190623,38.92047268927287,121.61862512554262,三环街（八一路商圈）,3,12296,无物业管理服务,-,辽宁,1,二手房,1990
甘井子区华龙南园34-5号34-库4号34-5号,大连,大连台安房屋开发有限公司,甘井子,20190623,38.98270467597865,121.6117222765123,台安274,8,11369,街道办事处（居委会）代管物业,0.5,辽宁,1,二手房,2009
沙河口区杨树街4—2号,大连,无开发商,高新园区,20190623,38.8832931099998,121.55440002481825,龙江路（学府商圈）,6,13961,无物业管理服务,-,辽宁,1,二手房,1992
中山区爱华街13号,大连,无开发商,中山,20190623,38.92541607518685,121.6535728031028,九中爱华街,8,39532,无物业管理服务,-,辽宁,1,二手房,1992
中山区清溪南街11号,大连,大连澳南房屋开发有限公司,中山,20190623,38.88919604283904,121.66466481004835,清溪南苑,1,19376,大连中园房地产物业公司,0.6,辽宁,1,二手房,2003
西岗区新田巷27号1-2,大连,无开发商,西岗,20190623,38.893215932589385,121.64103065169111,新联巷,6,11317,无物业管理服务,-,辽宁,1,二手房,1996
沙河口区黄河路883号,大连,大连安邦房地产开发有限公司,沙河口,20190623,38.919826721475204,121.57749657966676,阳光小筑,5,19165,大连远洋基业物业管理有限公司,0.8,辽宁,1,二手房,2007
中山区武昌街武昌公寓6号公建,大连,无开发商,中山,20190623,38.912280913445784,121.64921130527547,合力巷,4,11326,无物业管理服务,-,辽宁,1,二手房,1980
"西岗区泰公街20号2层7号 西岗区久寿街22号1层14号""",大连,大连万达房地产开发有限公司,西岗,20190623,38.92600196862723,121.62141976476381,新春小区,7,15315,大连长青物业管理中心,0.2,辽宁,1,二手房,1997
中山区碧浪园4号-3号,大连,大连三寰房地产开发有限公司,中山,20190623,38.89147289460474,121.69329560326236,碧浪园三期,15,16472,大连峰霖物业管理有限公司,0.3,辽宁,1,二手房,2002
甘井子区华东路22号公建,大连,大连盖特房地产开发有限公司,甘井子,20190623,38.97736184953593,121.5935814234334,盖特名园,6,11479,大连弘益达物业管理有限公司,0.5,辽宁,1,二手房,2004
西岗区中山路158号唐山街市场外14号,大连,暂无信息,西岗,20190623,38.91688106727098,121.63201298398174,34中保健街,8,25037,无物业管理服务,-,辽宁,1,二手房,1988
中山区共建巷61号,大连,暂无信息,中山,20190623,38.91828093658718,121.66259221532148,山林街（三八商圈）,2,25944,无物业管理服务,-,辽宁,1,二手房,1990
中山区武昌街武昌公寓6号公建,大连,无开发商,中山,20190623,38.912280913445784,121.64921130527547,同福新居,5,13542,无物业管理服务,-,辽宁,1,二手房,2003
中山区武昌街武昌公寓6号公建,大连,无开发商,中山,20190623,38.912280913445784,121.64921130527547,绿山巷,1,15488,无物业管理服务,-,辽宁,1,二手房,1986
无门店信息,大连,暂无信息,西岗,20190623,34.52713835999158,118.76812980670795,民航大连疗养院,1,15037,无物业管理服务,-,辽宁,1,二手房,1990
甘井子区金家街17-7号,大连,暂无信息,甘井子,20190623,38.97493697764367,121.60110987128529,金一街,16,20130,无物业管理服务,-,辽宁,1,二手房,1970
甘井子区祥龙街2号楼1单元1楼1号,大连,无开发商,甘井子,20190623,38.988045874482445,121.60439401971377,金荣路,7,12393,无物业管理服务,-,辽宁,1,二手房,1990
西岗区新田巷11号三单元103,大连,大连市中联房地产开发有限公司,西岗,20190623,38.89276612016956,121.64190731791966,卧龙山庄,8,13860,大连健龙物业管理有限公司,0.5,辽宁,1,二手房,2001
金州区南棉路310号,大连,大连阿尔滨集团房地产开发有限公司,金州,20190623,39.09939229372624,121.72414976100345,荣盛小区,10,8960,街道办事处（居委会）代管物业,1,辽宁,1,二手房,2009
金州区拥政街道733号-8号1-2层,大连,暂无信息,金州,20190623,39.11690610445662,121.73030803603723,八一花园,12,7989,暂无信息,0.2,辽宁,1,二手房,2000
沙河口区长江路738号,大连,大连国合置业有限公司,西岗,20190623,38.913544290955585,121.59450670056631,国合锦里,18,30204,大连国合物业管理有限公司,3.5,辽宁,1,二手房,-
西岗区长红街4号1号公建,大连,暂无信息,西岗,20190623,38.91377414665191,121.6302525225721,34中茂田巷,7,28564,无物业管理服务,-,辽宁,1,二手房,1984
西岗区大同街125号,大连,大连名仕房地产开发有限公司,西岗,20190623,38.920458602340894,121.61445835429899,中央复兴里,12,24273,大连名仕物业管理有限公司,2.1,辽宁,1,二手房,2010
沙河口区中山路417A-4号,大连,无开发商,沙河口,20190623,38.90740323140171,121.59484801084653,太原街,5,11778,无物业管理服务,-,辽宁,1,二手房,1992
沙河口区兰田街33号,大连,无开发商,沙河口,20190623,38.926138912221084,121.56486022834609,兰田街,12,11809,街道办事处（居委会）代管物业,0.4,辽宁,1,二手房,1990
西岗区绕山路31号公建一层东侧,大连,无开发商,西岗,20190623,38.90257514466717,121.61412736644739,彩云路,11,8987,无物业管理服务,-,辽宁,1,二手房,1994
沙河口区五四路207-1-9号,大连,大连建兴房屋开发有限公司,沙河口,20190623,38.913544290955585,121.59450670056631,建兴花园小区,8,12839,大连建兴物业管理有限公司,0.4,辽宁,1,二手房,1997
西岗区康平街2号（5号楼3-1-3号）,大连,暂无信息,西岗,20190623,38.91044414697888,121.61980769264477,34中长春路,11,27278,无物业管理服务,-,辽宁,1,二手房,1995
甘井子区惠泽南园3-7号,大连,大连利丰房地产开发有限公司,甘井子,20190623,38.939326611323615,121.52337842113351,国安宜居,9,18953,大连易明物业服务有限公司,2,辽宁,1,二手房,2014
无门店信息,大连,无开发商,西岗,20190623,34.52713835999158,118.76812980670795,华滨街（八一路）,11,11714,无物业管理服务,-,辽宁,1,二手房,1993
大连开发区金马路169-2-8号,大连,大连德泰控股有限公司,开发区,20190623,39.057398235688176,121.78261137849105,德泰时代广场,37,13497,大连德泰物业管理有限公司,0.5,辽宁,1,二手房,2014
沙河口区沙能街101号1单元1层1号,大连,大连政府城区改造办公室,沙河口,20190623,38.9366316275348,121.59031205759763,新居佳园,9,13581,大连大力物业管理有限公司,1.5,辽宁,1,二手房,2012
甘井子区华东路33-5号,大连,暂无信息,甘井子,20190623,38.97497080220593,121.59479866243332,金源小区,6,14629,无物业管理服务,-,辽宁,1,二手房,2000
莲花山路89-3号,大连,无开发商,西岗,20190623,38.902848261803356,121.6041720815823,世纪家园(西岗),7,16781,大连铁龙物业管理有限公司,0.3,辽宁,1,二手房,2000
甘井子区汇达园26号,大连,大连市大钢集团,甘井子,20190623,38.99704654604941,121.59758808878767,华南沃尔玛六平路,14,11976,街道办事处（居委会）代管物业,0.5,辽宁,1,二手房,1990
中山区山屏街116号1-1,大连,无开发商,中山,20190623,38.90729438486833,121.68598159980013,怡梦园,6,15158,无物业管理服务,-,辽宁,1,二手房,1900
沙河口区五四路207-1-9号,大连,无开发商,沙河口,20190623,38.913544290955585,121.59450670056631,成仁街,18,13246,无物业管理服务,-,辽宁,1,二手房,1995
甘井子区华东路33-5号,大连,大连宜和房地产开发有限公司,甘井子,20190623,38.97497080220593,121.59479866243332,松江路,4,10941,大连新华物业管理有限公司,-,辽宁,1,二手房,1993
无门店信息,大连,暂无信息,金州,20190623,34.52713835999158,118.76812980670795,金海人家,37,6738,无物业管理服务,0.5,辽宁,1,二手房,2008
大连市甘井子区逸林南园1-1号,大连,暂无信息,甘井子,20190623,38.95800216293212,121.53151895549547,三鼎春天A区,23,24506,瑞联德（大连）物业管理有限公司,3.2,辽宁,1,二手房,2015
沙河口区中山路417A-4号,大连,无开发商,沙河口,20190623,38.90740323140171,121.59484801084653,星海造船楼,15,12795,无物业管理服务,-,辽宁,1,二手房,1996
无门店信息,大连,大连润泰房地产开发有限公司,中山,20190623,34.52713835999158,118.76812980670795,明秀庄园二期,17,46628,大连澳邦致和物业服务有限公司,3.2,辽宁,1,二手房,2015
西岗区新田巷11号三单元103,大连,无开发商,西岗,20190623,38.89276612016956,121.64190731791966,新源巷,15,10104,无物业管理服务,-,辽宁,1,二手房,1990
沙河口区西南路40号楼,大连,亿达房地产开发有限公司,沙河口,20190623,38.94143337232082,121.58616557598133,星浦庄园,17,11581,大连香都物业管理有限公司,0.5,辽宁,1,二手房,1997
甘井子区锦城东园1号3单元1层2号,大连,大连福田房屋开发有限公司,甘井子,20190623,38.952805477462775,121.55656194973994,福典人家,31,19432,大连福田房屋物业管理有限公司,0.6,辽宁,1,二手房,2006
西岗区鞍山路65-5号,大连,大连恒利房屋开发有限公司,沙河口,20190623,38.926971569913064,121.60260230348328,中长花园,9,13700,大连金星物业管理中心,0.5,辽宁,1,二手房,2000
中山区鲁迅路184号1层B—A,大连,无开发商,中山,20190623,38.92590875965419,121.67594393403164,荣民街（二七商圈）,7,12536,无物业管理服务,-,辽宁,1,二手房,1999
中山区鲁迅路204号百盛新药特药商店一楼西侧部分,大连,大连东亚房地产开发有限公司,中山,20190623,38.9258993614899,121.6768880001226,蓝色海岸,8,14325,大连峰霖物业管理有限公司,0.5,辽宁,1,二手房,2002
沙河口区西南路358号1—2号,大连,大连城市建设集团有限公司,沙河口,20190623,38.90839654326566,121.56908246905662,台扩小区,7,11277,大连新华物业管理有限公司,0.1,辽宁,1,二手房,1995
沙河口区联合路133号,大连,无开发商,沙河口,20190623,38.91608561262676,121.60480987310456,21中同泰街,4,20130,无物业管理服务,-,辽宁,1,二手房,1984
西岗区八一路196号2-1-12号,大连,暂无信息,西岗,20190623,38.92047268927287,121.61862512554262,八一路（新起屯商圈）,4,12719,无物业管理服务,-,辽宁,1,二手房,1995
西岗区鞍山路65-5号,大连,大连华阳房地产开发有限公司,沙河口,20190623,38.926971569913064,121.60260230348328,华阳风尚,19,17602,北京凯莱物业管理有限公司大连分公司,1.3,辽宁,1,二手房,2009
无门店信息,大连,大连运达房地产集团有限公司,甘井子,20190623,34.52713835999158,118.76812980670795,运达诺维溪谷三期,20,17838,大连运达物业有限公司,2,辽宁,1,二手房,2015
沙河口区连山街10号2-1-2,大连,大连城市建设集团有限公司,沙河口,20190623,38.89637522563413,121.57143690983219,城建花园,10,17360,大连城建开发集团物业管理有限公司,0.5,辽宁,1,二手房,2002
大连市甘井子 区和通南园17-1号第S5幢1单元1层1号,大连,暂无信息,甘井子,20190623,38.9636787276397,121.6294044574927,青秀蓝湾二期,15,21606,中国铁建地产集团物业公司,2.6,辽宁,1,二手房,2016
沙河口区西南路851号3单元1层3号,大连,暂无信息,沙河口,20190623,38.94344210837944,121.58246796944378,学工街,5,9541,大连新兴物业管理有限公司,0.3,辽宁,1,二手房,1993
金州区同济路44号,大连,无开发商,金州,20190623,39.10476859984152,121.71234684495865,永乐铭庭,35,8671,无物业管理服务,-,辽宁,1,二手房,2010
甘井子区促进路30号2-1-1,大连,无开发商,甘井子,20190623,38.954133128707575,121.58355746311207,柳河小区,11,11580,大连衡德物业管理有限公司,0.2,辽宁,1,二手房,1995
"西岗区泰公街20号2层7号 西岗区久寿街22号1层14号""",大连,大连锦绣大厦有限公司,西岗,20190623,38.92600196862723,121.62141976476381,锦绣大厦,10,8033,大连锦绣物业管理有限公司,1,辽宁,1,二手房,2000
大连市开发区抚顺街30号,大连,无开发商,开发区,20190623,38.92272284555705,121.5977239817503,红梅南里,20,11172,街道办事处（居委会）代管物业,0.3,辽宁,1,二手房,1997
甘井子区山东路137号,大连,大连华南房地产开发有限公司,甘井子,20190623,38.99129404608926,121.59172125999353,名贵山庄华美园,8,13572,大连弘益达物业管理有限公司,0.5,辽宁,1,二手房,2002
经济技术开发区城润万家4-5号公建,大连,恒安房地产,开发区,20190623,39.05716325096989,121.75946281983826,中环嘉园,7,9644,大连大连开发区杰佳物业管理有限公司,0.5,辽宁,1,二手房,2001
无门店信息,大连,大连融昇房地产开发有限公司,甘井子,20190623,34.52713835999158,118.76812980670795,鹿港小镇,11,11312,大连三和住邦物业管理有限公司,1.3,辽宁,1,二手房,2015
沙河口区黑石礁街5号1层1号,大连,大连鹏生房地产开发有限公司,沙河口,20190623,38.879813345473714,121.56313742300513,鹏辉广场,13,18398,大连新兴物业管理有限公司,0.5,辽宁,1,二手房,2000
高新园敬贤街23-11号,大连,暂无信息,高新园区,20190623,38.869456648212356,121.53023725049893,中海紫御观邸二期,25,21822,大连中海物业管理有限公司,2.6,辽宁,1,二手房,2013
中山区武昌街武昌公寓6号公建,大连,无开发商,中山,20190623,38.912280913445784,121.64921130527547,观象街（南山商圈）,10,21377,无物业管理服务,-,辽宁,1,二手房,1990
中山区共建巷61号,大连,无开发商,中山,20190623,38.91828093658718,121.66259221532148,39中永青街,10,25351,街道办事处（居委会）代管物业,0.5,辽宁,1,二手房,1995
甘井子区华东路33-5号,大连,暂无信息,甘井子,20190623,38.97497080220593,121.59479866243332,松江路（80中）,31,13454,大连新华物业管理有限公司,-,辽宁,1,二手房,1993
高新园区敬贤街25-9,大连,大连海逸房地产开发有限公司,高新园区,20190623,38.86879447142154,121.53007349209936,海逸诺丁山,29,19953,大连耕海物业服务有限公司,2.5,辽宁,1,二手房,2015
甘井子区亿家缘虹韵路205,大连,暂无信息,甘井子,20190623,38.95647848453699,121.53130152244339,第五郡一号地公寓,36,16161,亿达物业管理有限公司,2,辽宁,1,二手房,2012
中山区爱华街13号,大连,无开发商,中山,20190623,38.92541607518685,121.6535728031028,九中一德街,14,41523,无物业管理服务,-,辽宁,1,二手房,1984
无门店信息,大连,大连屹辰置业有限公司,甘井子,20190623,34.52713835999158,118.76812980670795,屹辰优生活,52,14450,大连三和住邦物业管理有限公司,1.6,辽宁,1,二手房,2017
沙河口区西南路851号3单元1层3号,大连,大连振屹房屋开发有限公司,沙河口,20190623,38.94344210837944,121.58246796944378,柳馨家园,9,11103,街道办事处（居委会）代管物业,0.6,辽宁,1,二手房,2000
中山区解放路471-22号,大连,大连圣北开发有限公司,中山,20190623,38.901309943567504,121.65419095766659,亿达云集公寓,53,30326,亿达物业管理有限公司,2.9,辽宁,1,二手房,2016
沙河口区兰田街33号,大连,无开发商,沙河口,20190623,38.926138912221084,121.56486022834609,兰玉小区,4,11173,街道办事处（居委会）代管物业,0.4,辽宁,1,二手房,1990
高新园区海苑街36号1单元2号公建,大连,大连百思泰置业有限公司,高新园区,20190623,20.06392317589085,110.32302599457326,柏林水郡,24,20087,大连百嘉物业管理有限公司,1,辽宁,1,二手房,2007
无门店信息,大连,大华集团大连置业有限公司,高新园区,20190623,34.52713835999158,118.76812980670795,大华锦绣华城三期,47,22800,大连大华物业管理有限公司,2.5,辽宁,1,二手房,2012
金州区先进街道渤海街1-4号1-2层,大连,无开发商,金州,20190623,39.09512910553563,121.74578812616167,金州东山路小区,25,7117,无物业管理服务,0.1,辽宁,1,二手房,1993
中山区中南路226号,大连,大连市建设控股有限公司,中山,20190623,38.90029610333926,121.68178899957817,欧洲小镇,11,17314,大连大众物业管理有限公司,0.8,辽宁,1,二手房,2004
开发区红星海-B区89-1号,大连,远洋地产有限公司,开发区,20190623,39.027851194371685,121.80327394132297,红星海五期鼎墅,30,25911,大连远洋基业物业管理有限公司,4.8,辽宁,1,二手房,2012
中山区南山路59号1层4号,大连,无开发商,中山,20190623,38.91992239075882,121.6479206962747,麒麟西巷,20,12882,无物业管理服务,-,辽宁,1,二手房,1990
中山区北斗街53号1层1号,大连,无开发商,中山,20190623,38.92727355733075,121.67002970974048,鲁迅路（二七商圈）,5,11654,无物业管理服务,-,辽宁,1,二手房,1999
中山区共建巷61号,大连,大连东帝房地产开发有限公司,中山,20190623,38.91828093658718,121.66259221532148,南山2009,1,28171,无物业管理服务,-,辽宁,1,二手房,2010
中山区中南路226号,大连,大连华钧房地产开发有限公司,中山,20190623,38.90029610333926,121.68178899957817,半山花园,4,12516,大连仁和物业管理有限公司,0.7,辽宁,1,二手房,2000
甘井子区辛寨子街道中冶蓝城辛虹园39-7号公建,大连,大连中冶京诚置业有限公司,甘井子,20190623,38.98155611421408,121.49259383356096,中冶蓝城,18,12190,大连添翼物业服务有限公司,2,辽宁,1,二手房,2013
大连市甘井子区燕南园50号,大连,大连软件园发展有限公司,高新园区,20190623,38.90172480153224,121.5363466289672,东方圣克拉一期,56,24288,亿达物业管理有限公司,2.6,辽宁,1,二手房,2010
大连市甘井子中华路街道汇畅街48号,大连,远洋地产有限公司,甘井子,20190623,39.0059299196697,121.59621871231741,远洋自然,56,17665,大连远洋基业物业管理有限公司,1.3,辽宁,1,二手房,2010
开发区黄海西路201号107公建,大连,暂无信息,开发区,20190623,39.04942604506828,121.80126318235419,樱花别墅,11,8850,无物业管理服务,0.1,辽宁,1,二手房,2006
西岗区黄河路362号公建,大连,亿达集团大连房地产开发有限公司,西岗,20190623,38.91819905243802,121.61365779430986,亿达新世界,7,17345,亿达物业管理有限公司,0.5,辽宁,1,二手房,2001
