address,city,developer,district,index_date,lat,lng,name,osv,price,property,property_fee,province,tv,type,year
沙河口区富民路120号4-1-1,大连,大连渤海红旗集团有限公司,沙河口,20191106,38.93096547830764,121.56488196913604,马栏小学北,87,10954,街道办事处（居委会）代管物业,0.2,辽宁,5,二手房,1990
甘井子区泉水D1区37-7号,大连,大连运腾房地产开发有限公司,甘井子,20191106,39.014125831886716,121.61909125627173,锦泉源D2区,197,13526,大连嘉毅物业管理有限公司,0.5,辽宁,10,二手房,2000
沙河口区华新苑10号楼4号公建,大连,大连新型房地产开发有限公司,沙河口,20191106,38.940090852942305,121.58984251869741,侯一小区,175,11471,大连新兴物业管理有限公司,0.3,辽宁,34,二手房,1988
甘井子区榆林街37号-12公建,大连,新型房地产开发有限公司,甘井子,20191106,38.980133141940186,121.52779506952932,泡崖美林园,235,11646,新兴物业,0.6,辽宁,33,二手房,1996
开发区湾里南12栋-16-17-18号,大连,大连金湾实业有限公司,开发区,20191106,39.0710420980366,121.85699498414282,湾里南小区,411,8836,大连金湾物业管理有限公司,0.5,辽宁,36,二手房,2002
开发区湾里南12栋-16-17-18号,大连,大连金湾实业有限公司,开发区,20191106,39.0710420980366,121.85699498414282,湾里东,244,8387,大连金湾物业管理有限公司,0.5,辽宁,12,二手房,2001
甘井子区山东路商业街D区12号公建,大连,无开发商,甘井子,20191106,38.98482355118447,121.56451739992956,兴华路,49,12928,街道办事处（居委会）代管物业,0.5,辽宁,5,二手房,1986
甘井子区千山路26号,大连,大连市大钢集团,甘井子,20191106,38.985697948031984,121.58768860037272,山东路,79,12933,街道办事处（居委会）代管物业,0.2,辽宁,10,二手房,1900
西岗区香炉礁24号1-1,大连,无开发商,西岗,20191106,38.93371413072589,121.60938398726981,香炉礁,187,10940,街道办事处（居委会）代管物业,0.1,辽宁,14,二手房,1979
大连市甘井子区逸林南园1-1号,大连,大连三联置业有限公司,甘井子,20191106,38.95308393445654,121.52848968965472,三鼎春天,92,24317,瑞联德（大连）物业管理有限公司,2.8,辽宁,8,二手房,2016
开发区黄海西路54号,大连,中国铁路十三局,开发区,20191106,-,-,翠竹小区,127,8345,大连经济技术开发区中强物业管理有限公司,0.3,辽宁,11,二手房,1995
甘井子区玉湖街25号2单元1层3号,大连,大连新型房地产开发有限公司,甘井子,20191106,38.97626265183615,121.54617349027997,泡崖四区,185,10911,大连新型物业管理有限公司,0.5,辽宁,27,二手房,1998
大连经济技术开发区东城天下98-14,大连,大连乾豪集团有限公司,开发区,20191106,39.07151562420244,121.84730702870935,东城天下,376,8628,大连远洋基业物业管理有限公司,0.9,辽宁,29,二手房,2001
沙河口区黑石礁街5号1层1号,大连,无开发商,沙河口,20191106,38.87949716810132,121.56306843044705,黑石礁,15,12611,无物业管理服务,-,辽宁,2,二手房,1990
沙河口区昌黎街22号,大连,大连城市建设集团有限公司,沙河口,20191106,38.91996890280004,121.5915690169723,北昌平小区,142,13518,无物业管理服务,0.8,辽宁,18,二手房,1983
金州新区润海园中区18#2号,大连,华润置地（大连）有限公司,开发区,20191106,39.03913809369363,121.75878503934794,华润海中国二期,159,14133,华润物业（大连）有限公司,2.8,辽宁,12,二手房,2007
甘井子区千山路26号,大连,大连嘉兴房地产开发有限公司,甘井子,20191106,38.985697948031984,121.58768860037272,千山路,76,12646,无物业管理服务,0.5,辽宁,10,二手房,1985
金州新区站前街道生辉第一城5号楼1-2层4号,大连,大连公路工程集团生辉房地产开发有限公司,金州,20191106,39.058516091109915,121.74647708606409,生辉第一城,148,10911,大连生辉物业管理有限公司,1.2,辽宁,9,二手房,2005
西岗区鞍山路29号龙畔锦城东门,大连,无开发商,西岗,20191106,38.92825122675866,121.61368812829033,北京街北,51,13227,无物业管理服务,-,辽宁,4,二手房,1981
开发区润海园中区30-1,大连,华润（大连）房地产有限公司,开发区,20191106,39.04027571342674,121.76981308694118,华润海中国三期,165,14152,华润物业（大连）有限公司,3.1,辽宁,11,二手房,2010
金州区金润花园B区47号1单元1层1号2号,大连,大连辽大房地产开发有限公司,金州,20191106,39.103366101511746,121.74553395510915,金润小区B区,199,8549,大连新兴物业管理有限公司,0.4,辽宁,12,二手房,2000
沙河口区西南路40号楼,大连,无开发商,沙河口,20191106,38.957570058826505,121.5941753506976,星海公园,64,13132,无物业管理服务,-,辽宁,6,二手房,1975
开发区润海园中区62-9,大连,华润（大连）房地产有限公司,开发区,20191106,38.874040993300795,115.4830376957069,华润海中国四期,136,13888,华润物业（大连）有限公司,3.1,辽宁,12,二手房,2000
甘井子区泉水H3区15号3单元1层2号,大连,大连新型房地产开发有限公司,甘井子,20191106,38.95800216293212,121.53151895549547,龙畔金泉二期,72,12886,大连新型物业管理有限公司,0.5,辽宁,6,二手房,2002
甘井子区玉丽街2号楼1单元4号公建,大连,大连新型房地产开发有限公司,甘井子,20191106,38.98482355118447,121.56451739992956,泡崖七区,134,11402,大连新兴物业管理有限公司,0.3,辽宁,19,二手房,1995
大连市金州区站前街道生辉第一城14-3号1-2层,大连,大连新希望家园房地产有限公司,金州,20191106,39.05726502015243,121.74769707477718,新希望家园,194,8772,大连新希望物业服务有限公司,1.2,辽宁,27,二手房,2000
沙河口区富民路120号4-1-1,大连,大连渤海红旗集团有限公司,沙河口,20191106,38.93096547830764,121.56488196913604,马栏小学南,60,11573,大连辽南物业管理有限公司,0.2,辽宁,9,二手房,1990
大连市甘井子中华路街道汇畅街48号,大连,远洋地产有限公司,甘井子,20191106,38.997257858220124,121.60222449235529,远洋荣域,5,19182,远洋亿家物业服务股份有限公司大连分公司,2.8,辽宁,7,二手房,2015
沙河口区华北路448号楼1-4公建,大连,无开发商,沙河口,20191106,38.903224944733765,121.56809734950556,刘家桥,89,11059,街道办事处（居委会）代管物业,0.1,辽宁,13,二手房,1980
沙河口区沙能街101号1单元1层1号,大连,大连新型房地产开发有限公司,沙河口,20191106,38.9366316275348,121.59031205759763,侯二小区,178,11566,街道办事处（居委会）代管物业,0.1,辽宁,24,二手房,1978
甘井子区泉水D6区51号,大连,大连锦丰和源祥房地产开发有限公司,甘井子,20191106,39.008533763389565,121.6176872945902,泉水人家幸福里,117,13887,大连泽霖物业管理有限公司,0.9,辽宁,3,二手房,2007
甘井子区宜居园10-1号房屋,大连,大连万科房地产开发有限公司,甘井子,20191106,39.00004440847373,121.52111909294536,万科魅力之城,137,14573,大连万科物业服务有限公司,1.5,辽宁,39,二手房,2006
甘井子区泉水B5区27-9,大连,大连运达房地产集团有限公司,甘井子,20191106,39.014810555776016,121.60976819253642,锦泉源B5区,78,13082,政治物业管理有限公司,0.1,辽宁,5,二手房,1988
甘井子区泉水K4区1号2单元1层1号,大连,大连新型房地产开发有限公司,甘井子,20191106,39.01483270231223,121.63211336243603,龙畔金泉五期K4区,137,12675,大连新兴物业管理有限公司,0.5,辽宁,8,二手房,2005
大连开发区金马路169-2-8号,大连,大连亿锋房地产实业有限公司,开发区,20191106,39.05541129821298,121.7828373490387,亿锋现代城,148,10258,亿锋豪景物业管理有限公司,1.1,辽宁,25,二手房,2004
高新园区火炬路18号,大连,大连海脉房地产开发有限公司,高新园区,20191106,22.732184994953588,113.92008598519837,MINI印象,134,14676,大连豪斯威物业管理有限公司,2.2,辽宁,20,二手房,2000
大连市开发区湾里东5-6号,大连,大连宏港房地产开发有限公司,开发区,20191106,39.07279354063187,121.858780546005,都悦里,211,7068,大连宏港物业管理有限公司,0.3,辽宁,11,二手房,1992
沙河口区西南路851号3单元1层3号,大连,无开发商,沙河口,20191106,38.943327685087134,121.58239080500049,李家街,27,11796,无物业管理服务,0.1,辽宁,10,二手房,1980
甘井子区山东路127-2号,大连,大连市大钢集团,甘井子,20191106,38.99065559549029,121.59126483545545,苍山路,63,12753,街道办事处（居委会）代管物业,0.4,辽宁,8,二手房,1988
甘井子区山东路315号14栋1单元1跃2层13号,大连,华润置地（大连）有限公司,甘井子,20191106,39.00206212579579,121.59357231641214,华润置地广场二期,58,20257,华润物业（大连）有限公司,2.9,辽宁,7,二手房,2002
开发区景和园1-7,大连,大连市政府工程建设指挥部,开发区,20191106,40.05543376126319,116.2723091286475,小孤山中里,122,7911,大连广谊物业管理有限公司,0.4,辽宁,9,二手房,1998
沙河口区西南路643号,大连,无开发商,沙河口,20191106,38.943483429804665,121.5833555851182,交通大学,82,13106,无物业管理服务,-,辽宁,15,二手房,1955
金州区鹏程家园53#-8,大连,大连光伸房地产开发有限公司,开发区,20191106,39.032897250492695,121.80966039224444,绿洲半岛北岸,150,9328,大连经济技术开发区光伸物业服务有限公司,1.2,辽宁,10,二手房,2000
沙河口区五一路177-1-1-1,大连,无开发商,沙河口,20191106,38.913544290955585,121.59450670056631,台山,117,12140,街道办事处（居委会）代管物业,0.5,辽宁,14,二手房,1980
经济技术开发区城润万家62-8公建,大连,大连海汇房地产开发有限公司,开发区,20191106,22.66109984248805,114.03259677401383,城润万家,128,9801,大连正源物业服务有限公司,1,辽宁,11,二手房,2006
沙河口区西南路161号,大连,无开发商,沙河口,20191106,38.957570058826505,121.5941753506976,孙家沟,96,12458,无物业管理服务,-,辽宁,9,二手房,1987
莲花山路89-3号,大连,大连胜利路拓宽改造工程建设有限公司,沙河口,20191106,-,-,星海融汇,112,21421,大连星海湾商务区物业管理有限公司,1.5,辽宁,4,二手房,2010
甘井子区泉水D6区51号,大连,大连金广集团,甘井子,20191106,39.008533763389565,121.6176872945902,枫丹丽城,101,15898,大连金广物业有限公司,1.5,辽宁,15,二手房,1987
甘井子区锦城西园4#3-1-1,大连,大连锦绣房地产开发有限公司,沙河口,20191106,38.953393065530655,121.54997859474221,锦华北园,83,14233,大连锦绣物业管理有限公司,0.6,辽宁,8,二手房,2000
高新园区聚贤路36号5幢1单元1层1号,大连,大连法马克房地产开发有限公司,高新园区,20191106,22.732184994953588,113.92008598519837,中铁诺德滨海花园,96,19833,大连中铁诺德物业服务有限公司,2.3,辽宁,7,二手房,2010
无门店信息,大连,大连金湾实业有限公司,开发区,20191106,30.180169551389184,121.25032534611526,金湾山城,192,9625,大连金湾物业管理有限公司,0.5,辽宁,14,二手房,2000
开发区润海园中区18#2号,大连,大连布鲁科房地产开发有限公司,开发区,20191106,39.04027571342674,121.76981308694118,热岛黄金海岸,201,10949,大连戴德梁行物业管理有限公司,1.6,辽宁,14,二手房,2005
无门店信息,大连,大连乾豪集团有限公司,开发区,20191106,30.180169551389184,121.25032534611526,格林小镇,217,8144,沈阳瑞码阁物业管理有限公司大连分公司,0.6,辽宁,8,二手房,2000
甘井子区甘井子街3号公建,大连,无开发商,甘井子,20191106,38.98047550418425,121.63394022838557,文体街,126,10782,街道办事处（居委会）代管物业,0.1,辽宁,12,二手房,1974
大连经济技术开发区东城天下98-14,大连,大连富远房地产开发有限公司,开发区,20191106,39.07151562420244,121.84730702870935,一河两公园,68,10122,大连锦明物业服务有限公司,1.7,辽宁,7,二手房,2007
开发区润海园中区30-1,大连,华润置地（大连）有限公司,开发区,20191106,39.04027571342674,121.76981308694118,华润海中国七期,91,17265,华润物业（大连）有限公司开发区分公司,3.1,辽宁,6,二手房,2009
甘井子区泉水H1区54号3单元1层1号,大连,华润置业集团,甘井子,20191106,38.95800216293212,121.53151895549547,龙畔金泉五期K1区,33,13691,大连新兴物业管理有限公司,0.5,辽宁,2,二手房,2008
开发区大开高吉里33栋6号,大连,大连金港集团有限公司,开发区,20191106,33.65936290830462,119.32375763582802,高祥里,58,7926,街道办事处（居委会）代管物业,0.3,辽宁,5,二手房,1992
甘井子区泉水D1区37-7号,大连,大连运腾房地产开发有限公司,甘井子,20191106,39.014125831886716,121.61909125627173,锦泉源D3区,96,12765,大连南虹物业管理有限公司,0.5,辽宁,8,二手房,2006
沙河口区新生路万客园3-7,大连,大连绿波房屋开发集团有限公司,沙河口,20191106,38.944299189744086,121.56963792099752,绿波小区,146,11309,大连绿波建设发展有限公司,0.2,辽宁,10,二手房,1993
甘井子区泉水D6区51号,大连,大连锦丰和源祥房地产开发有限公司,甘井子,20191106,39.008533763389565,121.6176872945902,泉水家年华,114,13724,街道办事处（居委会）代管物业,0.9,辽宁,4,二手房,2007
大连市开发区左岸经典正恒园1-17,大连,大连神洲众益集团有限公司,开发区,20191106,39.049028350243354,121.76147690163914,万国宫馆一期,129,13167,加拿大高力国际物业服务有限公司,2.4,辽宁,7,二手房,1998
大连市甘井子区泉水N2区3-13号,大连,大连鹏生房地产开发有限公司,甘井子,20191106,39.02195462357535,121.64641860819079,泉水N1区,102,10087,无物业管理服务,0.7,辽宁,4,二手房,1999
大连市甘井子区辛如街35号1单元1层1号,大连,大连新星房地产开发有限公司,甘井子,20191106,38.96862607066881,121.52294869064194,新星绿城五期,73,13993,大连生生物业有限公司,0.8,辽宁,6,二手房,2006
开发区润海园中区65-7号1-2号,大连,华润（大连）房地产有限公司,开发区,20191106,38.874040993300795,115.4830376957069,华润海中国五期,99,14233,华润物业（大连）有限公司,3.1,辽宁,15,二手房,2006
开发区安盛里5栋-4,大连,大连开建集团有限公司,开发区,20191106,39.059647232769905,121.78442788877467,开建阳光馨苑,100,9595,大连开利物业管理有限公司,1.2,辽宁,13,二手房,2007
甘井子区泉水K4区1号2单元1层1号,大连,大连新型房地产开发总公司,甘井子,20191106,39.01483270231223,121.63211336243603,龙畔金泉五期K2区,60,13215,大连新兴物业管理有限公司,0.5,辽宁,2,二手房,2006
沙河口区兰田街33号,大连,无开发商,沙河口,20191106,38.926138912221084,121.56486022834609,马栏广场东,18,11669,大连辽南物业管理有限公司,0.2,辽宁,4,二手房,1990
甘井子区锦城西园4#3-1-1,大连,大连锦绣房地产开发有限公司,沙河口,20191106,38.953393065530655,121.54997859474221,锦霞北园,91,11988,大连锦绣物业管理有限公司,0.3,辽宁,9,二手房,1998
开发区红星海-B区89-1号,大连,远洋地产有限公司,开发区,20191106,36.69396005932176,116.9760981685808,红星海五期青屿蓝,251,14807,大连远洋基业物业管理有限公司,2.2,辽宁,6,二手房,2005
西岗区平等街21号1层2号,大连,西安保亿名卓置业有限公司,西岗,20191106,38.92238510410197,121.63208000655584,实验小学英华街,102,22012,无物业管理服务,0.5,辽宁,7,二手房,1984
甘井子区哲林北园17-6号,大连,大连恒德房屋开发有限公司,甘井子,20191106,38.960147524191875,121.5383904536635,恒德橄榄季,54,21556,大连恒德物业服务有限公司,1.4,辽宁,6,二手房,2008
无门店信息,大连,大连一方生态城房地产开发有限公司,开发区,20191106,30.180169551389184,121.25032534611526,一方天鹅湖,264,8407,大连一方物业管理有限公司,1.9,辽宁,16,二手房,2010
大连市沙河口区黄河路729号,大连,无开发商,沙河口,20191106,38.91710565765228,121.58954758972729,南昌平小区,48,12880,街道办事处（居委会）代管物业,0.8,辽宁,8,二手房,1986
大连市甘井子区柳林园8-7号,大连,大连万科置业有限公司,甘井子,20191106,38.91115100991176,121.47617812590887,万科溪之谷,193,14737,大连万科物业服务有限公司,0.6,辽宁,19,二手房,2005
沙河口区南沙街36号台二2号1-1-37,大连,无开发商,沙河口,20191106,38.90741410359388,121.57685699961822,南沙,79,11784,无物业管理服务,1,辽宁,9,二手房,1980
沙河口区五一路219-1,大连,大连亿达房地产股份有限公司,沙河口,20191106,38.913544290955585,121.59450670056631,桃山小区,96,10092,街道办事处（居委会）代管物业,0.5,辽宁,6,二手房,1994
大连市甘井子区燕南园50号,大连,大连软件园发展有限公司,高新园区,20191106,38.897305104727735,121.53594302030157,东方圣克拉二期,42,27108,亿达物业管理有限公司,2.6,辽宁,5,二手房,2010
西岗区鞍山路29号龙畔锦城东门,大连,大连凯润房屋开发有限公司,西岗,20191106,38.92825122675866,121.61368812829033,景润一期,44,11922,无物业管理服务,0.5,辽宁,7,二手房,1998
开发区红梅小区19栋-2-1-1号,大连,香港北海集团,开发区,20191106,31.221199854965864,121.37046203010317,君悦豪庭,61,11823,街道办事处（居委会）代管物业,1.2,辽宁,9,二手房,2001
经济技术开发区城润万家4-5号公建,大连,大连山河永好置业有限公司,开发区,20191106,22.66109984248805,114.03259677401383,山河秀景,46,10261,大连山河物业管理有限公司,1.5,辽宁,4,二手房,2000
沙河口区前程街46号4—1—2号,大连,大连银地置业发展有限公司,沙河口,20191106,38.932349900454405,121.55550146684811,观山满庭芳,98,18768,大连新展物业管理有限公司,1,辽宁,3,二手房,2003
甘井子区华东路22号公建,大连,无开发商,甘井子,20191106,38.97736184953593,121.5935814234334,经四街,12,12436,街道办事处（居委会）代管物业,0.5,辽宁,1,二手房,1989
甘井子区泡崖六小区6号楼1单元1层2号,大连,大连新型房地产开发有限公司,甘井子,20191106,38.980333310968916,121.55925898896581,泡崖五区,84,11587,大连新兴物业管理有限公司,0.5,辽宁,13,二手房,1990
甘井子区祥龙街2号楼1单元1楼1号,大连,大连市大钢集团,甘井子,20191106,38.98801508597683,121.60467293990413,文星街,16,12909,街道办事处（居委会）代管物业,1,辽宁,1,二手房,1982
甘井子区山东路398号,大连,华润置地（大连）开发有限公司,甘井子,20191106,38.99821826443242,121.59274974973462,华润置地广场三期,42,22172,华润物业（大连）有限公司,2.9,辽宁,3,二手房,2005
甘井子区泉水D1区10-2#1-1-7,大连,大连运达房地产集团有限公司,甘井子,20191106,38.95800216293212,121.53151895549547,锦泉源B4区,69,11522,大连佳泰物业管理有限公司,0.5,辽宁,1,二手房,2002
甘井子区美域盛景A2区10-6,大连,大连泉水园房屋开发有限公司,甘井子,20191106,39.0065081257038,121.61024195886239,骏腾名苑,74,14200,大连衡德物业管理有限公司,0.5,辽宁,4,二手房,1993
开发区兴城路29-81层,大连,大连亿锋房地产实业有限公司,开发区,20191106,31.034617638958906,121.6024718650317,亿锋广场一期,92,14822,大连广恒物业管理有限公司,2.5,辽宁,9,二手房,2008
开发区松苑街23号,大连,大连盛和房地产开发有限公司,开发区,20191106,-,-,北欧假日,157,12168,大连鸿达物业管理有限公司,1.1,辽宁,7,二手房,2003
沙河口区富民路249号,大连,大连文路建设集团有限公司,沙河口,20191106,38.93341510428133,121.5770130002514,阳光月秀,64,16422,大连丰泽物业管理有限公司,0.6,辽宁,7,二手房,1999
高新园区海苑街30号1单元1号公建,大连,大连大有房屋开发有限公司,高新园区,20191106,22.732184994953588,113.92008598519837,大有恬园二期,59,17356,大连家园物业有限公司,1.2,辽宁,2,二手房,2009
大连经济技术开发区时代城4-3号1-2号,大连,远洋地产有限公司,开发区,20191106,39.099240729673085,121.83016062228765,远洋时代城一期,173,9334,大连远洋基业物业管理有限公司,1.5,辽宁,15,二手房,1998
中山区中南路店212号门头房,大连,无开发商,中山,20191106,38.91149759691359,121.67700561077149,中南路,63,13212,街道办事处（居委会）代管物业,-,辽宁,11,二手房,1987
经济技术开发区红星海-A区81-2号1层,大连,无开发商,开发区,20191106,36.69396005932176,116.9760981685808,西雅图,50,10817,大连维泰物业管理有限公司,0.8,辽宁,1,二手房,2002
甘井子区红旗花园23号楼19-24轴公建,大连,大连红旗兴达房地产开发有限公司,甘井子,20191106,38.931475201838026,121.54672026099642,兴达花园,93,13207,大连万泰物业管理有限公司,0.6,辽宁,7,二手房,1996
沙河口区锦霞南园13号4单元1层3号,大连,大连锦绣房地产开发有限公司,沙河口,20191106,38.947633548680834,121.55105458508207,锦华中园,69,12220,大连锦绣物业管理有限公司,0.5,辽宁,7,二手房,1998
"西岗区泰公街20号2层7号 西岗区久寿街22号1层14号""",大连,未知,西岗,20191106,38.92600196862723,121.62141976476381,北京街南,56,14193,大连长青物业管理中心,0.2,辽宁,8,二手房,1975
沙河口区恒利园42号-8,大连,大连新华房屋开发有限公司,沙河口,20191106,38.933735110041596,121.5800864717063,新华同仁轩,40,17266,大连新华物业管理有限公司,0.6,辽宁,9,二手房,2000
大连经济技术开发区时代城4-3号1-2号,大连,远洋地产有限公司,开发区,20191106,39.099240729673085,121.83016062228765,远洋时代城三期,83,8788,大连远洋基业物业管理有限公司,1.5,辽宁,5,二手房,2010
甘井子区虹城路503号1-1号,大连,大连易和房地产集团有限公司,甘井子,20191106,38.981193588625004,121.49964051837122,岭秀滨城悦和西园,36,15117,大连易兴物业服务有限公司,1.3,辽宁,3,二手房,2013
沙河口区兰田街33号,大连,无开发商,沙河口,20191106,38.926138912221084,121.56486022834609,兰玉街,28,12069,街道办事处（居委会）代管物业,0.2,辽宁,1,二手房,1990
金州区同济路44号,大连,大连金州金山房地产开发有限公司,金州,20191106,-,-,金山小区,94,7208,大连金山物业管理有限公司,1,辽宁,9,二手房,1995
无门店信息,大连,大连益宁房地产开发有限公司,开发区,20191106,30.180169551389184,121.25032534611526,岭湾峰尚一期,179,9083,大连鸿达物业管理有限公司,1.3,辽宁,17,二手房,2000
西岗区八一路102号,大连,大连澳南房屋开发有限公司,中山,20191106,-,-,明秀山庄A区,59,35758,绿城物业服务集团有限公司大连分公司,1.9,辽宁,4,二手房,2008
开发区润海园中区30-1,大连,华润置地（大连）开发有限公司,开发区,20191106,39.04027571342674,121.76981308694118,华润海中国一期,197,16332,华润物业（大连）有限公司,1.8,辽宁,7,二手房,2007
甘井子区泉水D1区37-7号,大连,大连运腾房地产开发有限公司,甘井子,20191106,39.014125831886716,121.61909125627173,锦泉源D1区,107,14526,大连嘉合物业管理有限公司,0.5,辽宁,1,二手房,2005
无门店信息,大连,大连新跃房地产开发有限公司,金州,20191106,30.180169551389184,121.25032534611526,金海国际花园,190,8086,盘锦瀚新物业管理有限公司,1,辽宁,8,二手房,2000
无门店信息,大连,无开发商,甘井子,20191106,30.180169551389184,121.25032534611526,石油六闾,81,9714,街道办事处（居委会）代管物业,0.5,辽宁,12,二手房,1900
甘井子辛吉街150号-7号,大连,"大连新界置业有限公司,大连新星房地产开发有限公司",甘井子,20191106,39.491124648817234,122.09275095337007,新星绿城三期,65,12998,大连生生物业管理有限公司,0.5,辽宁,6,二手房,2004
天河路173-2号 华润考拉22号公建,大连,华润置地（大连）开发有限公司,甘井子,20191106,38.99234777593271,121.57806393685057,华润考拉住区,93,15482,华润物业（大连）有限公司,2.5,辽宁,12,二手房,2007
中山区东港龙湖水晶郦湾7-102,大连,大连德威佳业投资有限公司,中山,20191106,38.92669181279922,121.70540350390917,东港天鹅湾,116,26736,哈尔滨德润物业管理有限公司大连分公司,4.8,辽宁,4,二手房,2015
西岗区黄河路362号公建,大连,大连万达商业地产有限公司,西岗,20191106,38.91819905243802,121.61365779430986,万达华府二期,43,23013,大连万景物业管理有限公司,1.6,辽宁,1,二手房,2005
经济技术开发区城润万家4-5号公建,大连,大连海汇房地产开发有限公司,开发区,20191106,22.66109984248805,114.03259677401383,正源吉祥e家,54,12322,大连正源物业服务有限公司,1,辽宁,3,二手房,2008
甘井子区红旗中路143号1层4号,大连,大连红旗兴达房地产开发有限公司,甘井子,20191106,38.93167404222125,121.54265682632716,兴达依山居,29,14074,大连金诚物业管理有限公司,0.3,辽宁,3,二手房,2003
中山区北斗街53号1层1号,大连,大连运达房地产集团有限公司,中山,20191106,-,-,运达嘉洲阳光,29,18903,大连运达物业有限公司,1.8,辽宁,1,二手房,2004
开发区兴城路29-81层,大连,大连亿锋房地产实业有限公司,开发区,20191106,31.034617638958906,121.6024718650317,亿锋广场二期,43,15099,大连广恒物业管理有限公司,2.5,辽宁,5,二手房,2005
无门店信息,大连,大连软件园瑞安发展有限公司,高新园区,20191106,30.180169551389184,121.25032534611526,大连天地悦翠台,95,15043,大连万科物业服务有限公司,2.4,辽宁,8,二手房,2000
甘井子区千山路26号,大连,大连市大钢集团,甘井子,20191106,38.985697948031984,121.58768860037272,华中街,37,12568,街道办事处（居委会）代管物业,0.1,辽宁,5,二手房,1900
沙河口区西南路40号楼,大连,无开发商,沙河口,20191106,38.957570058826505,121.5941753506976,黑石礁景山,21,12542,无物业管理服务,-,辽宁,2,二手房,1980
沙河口区新生路万客园3-7,大连,大连鹏生房地产开发有限公司,沙河口,20191106,38.944299189744086,121.56963792099752,枫林绿洲,47,14230,大连鹏辉物业管理有限公司,0.3,辽宁,6,二手房,2002
无门店信息,大连,大华集团大连置业有限公司,高新园区,20191106,30.180169551389184,121.25032534611526,大华锦绣华城四期,39,22329,大连大华物业管理有限公司,2.5,辽宁,4,二手房,2010
沙河口区长江路738号,大连,勋业（大连）置业有限公司,西岗,20191106,38.913544290955585,121.59450670056631,远洋风景,63,23586,大连远洋风景物业服务中心,1.9,辽宁,3,二手房,2007
甘井子区金北路17号,大连,大理耀鹏房地产开发有限责任公司,甘井子,20191106,38.97553393692831,121.59969720502335,76中学桥南,78,16172,大连新华物业管理有限公司,0.2,辽宁,4,二手房,1970
开发区金源南里14栋-11号一层部分，14号-12号一层部分,大连,大连开建房地产开发有限公司,开发区,20191106,39.061002337435596,121.82187420311087,金源北里安居小区,75,8259,嘉兴物业管理有限公司,0.3,辽宁,4,二手房,1996
西岗区黄河路362号公建,大连,大连万峰房地产开发有限公司,西岗,20191106,38.91819905243802,121.61365779430986,万达华府一期,69,25924,大连万景物业管理有限公司,1.3,辽宁,6,二手房,1990
沙河口区五一路96B-8号,大连,大连正源房地产开发有限公司,沙河口,20191106,38.913544290955585,121.59450670056631,幸福e家三期,60,36681,大连正源物业服务有限公司,1,辽宁,6,二手房,2003
甘井子区泉水D1区37-7号,大连,大连运腾房地产开发有限公司,甘井子,20191106,39.014125831886716,121.61909125627173,锦泉源D4区,32,14326,大连嘉和物业管理有限公司,0.5,辽宁,4,二手房,2006
甘井子金地艺境博艺西园2-1号,大连,大连天意房地产开发有限公司,甘井子,20191106,39.043702262680526,121.66551909858833,金地艺境,199,15169,大连金地物业管理有限公司,0.5,辽宁,1,二手房,2011
沙河口区锦江园30号1层公建,大连,大连锦绣房地产开发有限公司,沙河口,20191106,38.95000749062,121.56584356835394,锦江园,97,10929,大连锦绣物业管理有限公司,0.3,辽宁,10,二手房,1983
甘井子区山东路127-2号,大连,无开发商,甘井子,20191106,38.99065559549029,121.59126483545545,七迎路,40,12560,街道办事处（居委会）代管物业,0.2,辽宁,3,二手房,1990
中山区共建巷61号,大连,无开发商,中山,20191106,-,-,39中望海街,10,25564,街道办事处（居委会）代管物业,0.5,辽宁,1,二手房,1970
甘井子区锦城东园1号3单元1层2号,大连,大连锦绣房地产开发有限公司,沙河口,20191106,38.952921687446846,121.55483088178491,锦城东园,59,18856,大连锦绣物业管理有限公司,0.6,辽宁,3,二手房,2002
甘井子区红凌路109号,大连,大连锦联地产集团有限公司,甘井子,20191106,38.91238532871384,121.53647895116544,锦绣暖山,82,15133,大连锦明物业服务有限公司,1.2,辽宁,10,二手房,2004
甘井子区促进路30号2-1-1,大连,福佳集团有限公司,甘井子,20191106,38.954133128707575,121.58355746311207,府佳名都,56,17936,大连富佳物业管理有限公司,0.5,辽宁,3,二手房,2001
沙河口区富静街26号1单元1层5号,大连,大连正源房地产开发有限公司,沙河口,20191106,38.908727606250466,121.58667844684369,幸福e家五期,186,36960,大连正源物业服务有限公司,1.8,辽宁,11,二手房,2006
高新园区书香街1A#1-1-2,大连,大连金弘基房地产开发有限公司,高新园区,20191106,22.732184994953588,113.92008598519837,弘基三期,57,20408,大连金弘基物业管理有限公司,0.5,辽宁,2,二手房,2004
开发区红星海B区212-1,大连,远洋地产有限公司,开发区,20191106,36.69396005932176,116.9760981685808,红星海五期岚谷,145,13455,大连远洋基业物业管理有限公司,2.2,辽宁,8,二手房,2007
甘井子区中华路泉水A1区86号4单元1层1号,大连,大连运泽房地产开发有限公司,甘井子,20191106,39.006116238665086,121.60745451686493,润泽园,99,17041,大连城建开发集团物业管理有限公司,1.4,辽宁,4,二手房,2008
沙河口区五一路270-274号,大连,无开发商,高新园区,20191106,38.913544290955585,121.59450670056631,由家村,25,13044,无物业管理服务,-,辽宁,5,二手房,1987
西岗区平等街21号1层2号,大连,无开发商,西岗,20191106,38.92238510410197,121.63208000655584,实验小学同庆街,89,23065,无物业管理服务,-,辽宁,10,二手房,1980
甘井子区促进路30号2-1-1,大连,无开发商,甘井子,20191106,38.954133128707575,121.58355746311207,柳河小区,5,11965,大连衡德物业管理有限公司,0.2,辽宁,1,二手房,1994
大连市开发区左岸经典正恒园1-17,大连,大连神洲众益集团有限公司,开发区,20191106,39.049028350243354,121.76147690163914,万国宫馆二期,151,14130,加拿大高力国际物业服务有限公司,2.4,辽宁,13,二手房,2000
开发区红梅小区19栋-2-1-1号,大连,开发区城建局,开发区,20191106,31.221199854965864,121.37046203010317,红梅小区,58,12506,街道办事处（居委会）代管物业,0.3,辽宁,6,二手房,1992
金州区凤翔路220号,大连,大连润景房地产开发有限公司,金州,20191106,-,-,恒盛阳光美麓,122,9611,沈阳阳光鑫地物业管理有限公司大连分公司,1.6,辽宁,8,二手房,2006
沙河口区兰田街33号,大连,渤海恒达房屋开发有限公司,沙河口,20191106,38.926138912221084,121.56486022834609,西苑小区,37,12750,大连西苑物业管理有限公司,0.3,辽宁,3,二手房,1994
甘井子金地艺境博艺西园2-1号,大连,大连恒昇房地产开发有限公司,甘井子,20191106,39.043702262680526,121.66551909858833,福佳新城一期,107,9543,大连福佳物业管理有限公司,0.9,辽宁,4,二手房,2000
金州区南棉路310号,大连,无开发商,金州,20191106,39.09939229372624,121.72414976100345,南棉小区,164,7419,街道办事处（居委会）代管物业,0.5,辽宁,5,二手房,1987
甘井子区中华路泉水A1区86号4单元1层1号,大连,大连科技园房地产开发有限公司,甘井子,20191106,39.006116238665086,121.60745451686493,奥林园,51,13963,大连衡德物业管理有限公司,0.5,辽宁,7,二手房,1985
中山区东港龙湖水晶郦湾7-102,大连,大连德银置业有限公司,中山,20191106,38.92669181279922,121.70540350390917,海韵华府,22,26874,大连金地物业管理有限公司,3.8,辽宁,1,二手房,2000
甘井子区新兴路36号3-1-3,大连,大连新型房地产开发有限公司,甘井子,20191106,38.95800216293212,121.53151895549547,泡崖二区,94,11103,大连新兴物业管理有限公司,0.5,辽宁,4,二手房,1990
沙河口区锦云北园9号2单元1层2号,大连,大连锦绣房地产开发有限公司,沙河口,20191106,38.948351400812086,121.55774696113141,锦云北园,29,11870,大连锦绣物业管理有限公司,0.3,辽宁,1,二手房,1995
无门店信息,大连,大连中海新城置业有限公司,甘井子,20191106,30.180169551389184,121.25032534611526,中海凤凰熙岸,96,13352,大连中海物业管理有限公司,2.3,辽宁,9,二手房,2010
大连市开发区左岸经典正恒园1-17,大连,大连众益神州地产开发有限公司,开发区,20191106,39.049028350243354,121.76147690163914,万国宫馆三期,122,14503,大连万佳物业管理有限公司,2.8,辽宁,10,二手房,2000
中山区民建街10号1单元1号,大连,无开发商,中山,20191106,-,-,39中明阳街,48,20584,无物业管理服务,-,辽宁,0,二手房,1990
开发区鹏程家园66#-6、66#-7公建,大连,大连神洲众益集团有限公司,开发区,20191106,40.11387603155845,116.28558455696562,众益阳光海岸,104,10409,大连万佳物业管理有限公司,1.2,辽宁,3,二手房,2004
金州区金湾路132-2号,大连,大连金新房地产开发有限公司,金州,20191106,-,-,金州福佳新天地广场,110,8486,大连福佳物业管理有限公司,1.8,辽宁,10,二手房,2005
金州区小平岛B组团4号楼3号商铺,大连,大连圣岛房地产开发有限公司,高新园区,20191106,39.05643299166072,121.78943558267059,小平岛海角七号,65,21152,大连凯尔富物业管理有限公司,1.7,辽宁,2,二手房,2009
甘井子区海口路77—5号,大连,大连鹏辉房地产开发有限公司,甘井子,20191106,38.9604837935147,121.60363900822827,鹏辉新世纪四期,56,17595,大连鹏辉物业管理有限公司,0.6,辽宁,1,二手房,2003
沙河口区黄河路883号,大连,大连正源房地产开发有限公司,沙河口,20191106,38.919826721475204,121.57749657966676,幸福e家四期,58,32578,大连正源物业服务有限公司,1.2,辽宁,3,二手房,2003
甘井子区绿洲园60号,大连,大连新华房屋开发有限公司,甘井子,20191106,38.954554101163076,121.59518195681817,新华绿洲,66,18504,大连新华物业管理有限公司,0.6,辽宁,8,二手房,2001
大连市高新园区七贤中路63号,大连,大连全统房地产开发有限公司,高新园区,20191106,38.86679409176974,121.53003702089566,君海阁,19,18434,大连城建开发集团物业管理有限公司,2.2,辽宁,0,二手房,2012
开发区黄海西路54号,大连,大连凯伦房地产开发股份有限公司,开发区,20191106,-,-,凯伦凯悦,108,9020,大连凯悦物业管理有限公司,3.1,辽宁,10,二手房,2000
甘井子区柳树南街45-10号,大连,中体产业集团大连乐百年置业有限公司,甘井子,20191106,38.92480160798281,121.48358951916298,中体奥林匹克花园,105,14037,广东中奥物业有限公司大连分公司,1.9,辽宁,6,二手房,2010
金州区同济路44号,大连,大连峰景房地产开发有限公司,金州,20191106,-,-,峰景西海岸,36,9149,大连峰景物业有限公司,0.8,辽宁,4,二手房,2004
甘井子区红南东街7-7号,大连,大连大实企业集团房屋开发有限公司,甘井子,20191106,38.930637294146095,121.54191104051648,泊林和山,26,11730,大连弘实物业管理有限公司,0.6,辽宁,6,二手房,2006
沙河口区黑石礁街3号1层1-1号,大连,无开发商,沙河口,20191106,38.880058010307856,121.56313403908827,浪花街,55,11835,无物业管理服务,-,辽宁,3,二手房,1990
沙河口区西南路643号,大连,无开发商,沙河口,20191106,38.943483429804665,121.5833555851182,西关街,41,12233,无物业管理服务,-,辽宁,5,二手房,1995
沙河口区红旗东路18-22号2单元1楼3号,大连,大连渤海红旗集团有限公司,甘井子,20191106,38.92936160603863,121.55447998029678,红旗东路,41,12217,渤海吉祥物业管理有限公司,0.4,辽宁,4,二手房,1990
沙河口区南沙街36号台二2号1-1-37,大连,大连鹏生房地产开发有限公司,沙河口,20191106,38.90741410359388,121.57685699961822,鹏顺园,47,23979,大连新型物业管理有限公司,0.5,辽宁,2,二手房,2000
高新园区黄浦路901S号1单元1层3号,大连,大连金真源集团房地产开发有限公司,高新园区,20191106,22.732184994953588,113.92008598519837,山海一家一期,63,14360,大连龙海物业管理有限公司,0.6,辽宁,5,二手房,2004
甘井子区红旗西路104-23,大连,大连万科房地产开发有限公司,甘井子,20191106,38.94010724023189,121.52821327206625,万科假日风景,96,17042,大连万科物业服务有限公司,1,辽宁,6,二手房,2006
高新园区海苑街36号1单元2号公建,大连,大连大有房屋开发有限公司,高新园区,20191106,22.732184994953588,113.92008598519837,大有恬园,54,17637,大连家园物业有限公司,0.5,辽宁,1,二手房,2000
高新园区聚贤路36号5幢1单元1层1号,大连,大连海创房地产开发有限公司,高新园区,20191106,22.732184994953588,113.92008598519837,海创半山壹号,59,16967,大连海创物业管理有限公司,1.8,辽宁,1,二手房,2010
甘井子区鹏辉新世纪1幢1单元1-3号房屋（海口路99号）,大连,大连鹏生房地产开发有限公司,甘井子,20191106,38.96019452634814,121.60648508981281,鹏辉新世纪三期,15,17198,大连鹏辉物业管理有限公司,0.6,辽宁,2,二手房,2003
沙河口区敦煌路357号10-11轴公建,大连,无开发商,沙河口,20191106,38.93891619583455,121.59150694046835,车家村,34,10896,街道办事处（居委会）代管物业,0.5,辽宁,8,二手房,1980
金州区金润小区B区861单元102,大连,大连辽大房地产开发有限公司,金州,20191106,39.10426770672064,121.74521281088934,金润小区A区,149,8755,大连新兴物业管理有限公司,0.4,辽宁,11,二手房,1999
无门店信息,大连,大连运达房地产集团有限公司,甘井子,20191106,30.180169551389184,121.25032534611526,运达诺维溪谷二期,41,15890,大连运达物业有限公司,1.8,辽宁,3,二手房,2005
甘井子区华北路花锦园28号23-3-1-2建筑物,大连,大连东特房地产开发有限公司,甘井子,20191106,38.95301589317078,121.57219333068177,东特新天地,52,17048,大连瑞祥物业管理有限公司,0.5,辽宁,9,二手房,2001
金州区同济路44号,大连,大连阿尔滨中辰置业有限公司,金州,20191106,-,-,瀛海金洲,99,8523,大连阿尔滨汇城物业服务有限公司,0.5,辽宁,3,二手房,2005
甘井子区海口路77—5号,大连,大连鹏生房地产开发有限公司,甘井子,20191106,38.9604837935147,121.60363900822827,鹏辉新世纪二期,11,17537,大连鹏辉物业管理有限公司,0.6,辽宁,3,二手房,2003
大连市甘井子中华路街道汇畅街48号,大连,远洋地产有限公司,甘井子,20191106,38.997257858220124,121.60222449235529,远洋自然,52,17141,大连远洋基业物业管理有限公司,1.3,辽宁,4,二手房,2001
高新园区红凌路732-4号,大连,大华集团大连置业有限公司,高新园区,20191106,22.732184994953588,113.92008598519837,大华锦绣华城二期,43,27213,大连大华物业管理有限公司,2.5,辽宁,1,二手房,2010
大连市甘井子区燕南园50号,大连,大连软件园发展有限公司,高新园区,20191106,38.897305104727735,121.53594302030157,东方圣克拉一期,58,24905,亿达物业管理有限公司,2.6,辽宁,3,二手房,2010
"西岗区泰公街20号2层7号 西岗区久寿街22号1层14号""",大连,大连润德君城房地产开发有限公司,西岗,20191106,38.92600196862723,121.62141976476381,北京公园,45,25189,大连润德物业管理有限公司,2.2,辽宁,4,二手房,2008
无门店信息,大连,大连亿达房地产股份有限公司,高新园区,20191106,30.180169551389184,121.25032534611526,亿达悦龙居,33,14918,亿达物业管理有限公司,2.8,辽宁,2,二手房,2012
甘井子区山东路137号,大连,大连新型房地产开发有限公司,甘井子,20191106,38.99129404608926,121.59172125999353,华南花园,29,13610,大连天洋物业管理有限公司,0.3,辽宁,3,二手房,1998
甘井子区虹韵路114号,大连,大连亿达美加房地产开发有限公司,甘井子,20191106,38.95653310483457,121.5329869995972,第五郡一号地,49,21974,亿达物业管理有限公司,1.9,辽宁,3,二手房,2010
中山区山屏街116号1-1,大连,无开发商,中山,20191106,-,-,怡和街,33,12611,街道办事处（居委会）代管物业,0.5,辽宁,4,二手房,1990
大连市开发区湾里东5-6号,大连,大连明和房地产开发有限公司,开发区,20191106,39.07279354063187,121.858780546005,青国青城,81,11687,大连豪斯沃克物业有限公司,1.5,辽宁,2,二手房,2005
中山区武昌街武昌公寓6号公建,大连,大连武昌房地产开发有限公司,中山,20191106,38.91228859884737,121.64922302816238,部居逸阁,24,12913,大连宜佳物业管理有限公司,1,辽宁,2,二手房,2005
开发区松苑街23号,大连,大连泰乐房地产开发有限公司,开发区,20191106,-,-,碧海华庭,60,6862,大连海滨物业管理有限公司,0.5,辽宁,1,二手房,2000
高新园区硅谷假日小区25号楼地下室,大连,大连志恒房地产开发有限公司,高新园区,20191106,22.732184994953588,113.92008598519837,菁英汇,71,16280,大连海创物业管理有限公司,1.2,辽宁,4,二手房,2007
甘井子区泉水D6区51号,大连,大连时代房地产开发有限公司,甘井子,20191106,39.008533763389565,121.6176872945902,富士庄园,66,15494,大连佳泰物业管理有限公司,1.2,辽宁,3,二手房,2004
无门店信息,大连,大连聚达房地产开发有限公司,旅顺口,20191106,30.180169551389184,121.25032534611526,海尚明珠,201,9810,大连合生物业管理有限公司,1.5,辽宁,14,二手房,2005
西岗区鞍山路29号龙畔锦城东门,大连,大连铁路房地产开发有限责任公司,西岗,20191106,38.92825122675866,121.61368812829033,龙畔锦城,58,19629,大连亚航物业管理有限公司,1.2,辽宁,4,二手房,2000
开发区兴城路29-81层,大连,大连亿锋集团有限公司,开发区,20191106,31.034617638958906,121.6024718650317,亿锋广场三期,62,14994,大连广恒物业管理有限公司,2.8,辽宁,5,二手房,2010
无门店信息,大连,金辉地产,金州,20191106,30.180169551389184,121.25032534611526,金石明珠,124,9119,街道办事处（居委会）代管物业,1,辽宁,1,二手房,1997
沙河口区知心园10号公建,大连,大连软件园开发有限公司,高新园区,20191106,38.891243106520726,121.55477401904612,亿达国际新城,44,21894,亿达物业管理有限公司,1,辽宁,3,二手房,2003
甘井子区金北路17号,大连,无开发商,甘井子,20191106,38.97553393692831,121.59969720502335,76中学桥北,85,18800,无物业管理服务,-,辽宁,3,二手房,1965
甘井子区千山路66号楼2单元1楼2号,大连,大连宜和房地产开发有限公司,甘井子,20191106,38.98528697769128,121.58814421643585,盛世闲庭,55,15186,大连衡德物业管理有限公司,0.5,辽宁,4,二手房,2003
开发区大开高吉里33栋6号,大连,大连开建集团有限公司,开发区,20191106,33.65936290830462,119.32375763582802,高城花园,36,7809,嘉兴物业管理有限公司,0.2,辽宁,4,二手房,2000
经济技术开发区城润万家62-8公建,大连,大连海汇房地产开发有限公司,开发区,20191106,22.66109984248805,114.03259677401383,正源吉祥e家祥福园,60,11795,大连正源物业服务有限公司,1.5,辽宁,6,二手房,2012
金州新区先进街道渤海街7-4号1-2层、7-3号1-2层,大连,大连九鼎置地有限公司,金州,20191106,39.09342713035472,121.74590886291374,万科城,81,11332,大连万科物业服务有限公司,2.2,辽宁,6,二手房,2011
甘井子区虹港路16号楼1层公建,大连,大连鑫奇房地产开发有限公司,甘井子,20191106,38.965637426914874,121.53971372684923,鑫境界,86,12073,大连鑫境界物业管理有限公司,1.3,辽宁,4,二手房,2007
沙河口区恒利园42号-8,大连,大连天河房地产开发集团有限公司,沙河口,20191106,38.933735110041596,121.5800864717063,天河新苑,50,13004,大连天河物业管理有限公司,0.4,辽宁,2,二手房,2000
金州区金润小区B区861单元102,大连,大连中连房地产开发有限公司,金州,20191106,39.10426770672064,121.74521281088934,自然天城B区,80,7663,大连新生活物业管理有限公司,0.4,辽宁,5,二手房,2004
甘井子区绿洲园60号,大连,大连友谊合升房地产开发有限公司,甘井子,20191106,38.954554101163076,121.59518195681817,壹品天城,134,28242,大连富丽华物业管理有限公司,0.5,辽宁,6,二手房,2009
大连市经济技术开发区东城园98-14,大连,大连金湾实业有限公司,开发区,20191106,39.06924229123406,121.85044436070295,裕民新苑,73,8577,大连金湾物业管理有限公司,0.3,辽宁,4,二手房,2002
大连市经济技术开发区东城园98-14,大连,大连聚美房地产开发有限公司,开发区,20191106,39.06924229123406,121.85044436070295,聚美东湾,86,12004,大连聚美房地产开发有限公司,1.6,辽宁,3,二手房,2013
开发区东北三街94号1层,大连,开发区城建局,开发区,20191106,-,-,倚园里小区,50,7790,大连佳兴物业管理有限公司,0.3,辽宁,3,二手房,1996
无门店信息,大连,大连亿达房地产股份有限公司,旅顺口,20191106,30.180169551389184,121.25032534611526,亿达玉龙湾,45,9754,亿达物业管理有限公司,1.5,辽宁,1,二手房,2010
沙河口区杨树街4-4号公建,大连,大连金弘基房地产开发有限公司,高新园区,20191106,38.88474287539157,121.55152152428616,弘基二期,33,22226,大连金弘基物业管理有限公司,0.6,辽宁,3,二手房,2002
西岗区香炉礁24号1-1,大连,中瑞置业（大连）有限公司,西岗,20191106,38.93371413072589,121.60938398726981,香周首府,76,18822,中融物业管理有限公司,3,辽宁,6,二手房,2008
甘井子区宜居园10-1号房屋,大连,大连万科房地产开发有限公司,甘井子,20191106,39.00004440847373,121.52111909294536,万科朗润园,104,15076,大连万科物业服务有限公司,1.5,辽宁,14,二手房,2009
西岗区鞍山路29号龙畔锦城东门,大连,大连万达房地产开发有限公司,西岗,20191106,38.92825122675866,121.61368812829033,长春花园,22,17607,大连万达物业管理有限公司,0.5,辽宁,4,二手房,1990
中山区益民街16号1层1号,大连,大连恒力德实业开发有限公司,中山,20191106,-,-,港湾壹号,87,14235,大连日航酒店物业管理有限公司,3.8,辽宁,8,二手房,2006
高新园敬贤街23-11号,大连,中海东丰地产（大连）有限公司,高新园区,20191106,22.548999034259495,114.06451500606163,中海华庭,66,19934,大连中海物业管理有限公司,2,辽宁,1,二手房,2008
沙河口区富民路120号4-1-1,大连,大连银地置业发展有限公司,沙河口,20191106,38.93096547830764,121.56488196913604,观山蝶恋花,43,14969,大连新展物业管理有限公司,1,辽宁,3,二手房,2002
开发区黄海西路54号,大连,开发区城建局,开发区,20191106,-,-,青松北里,55,9094,大连经济技术开发区中强物业管理有限公司,0.2,辽宁,7,二手房,1990
大连市甘井子区泉水N2区3-13号,大连,大连半岛集团有限公司,甘井子,20191106,39.02195462357535,121.64641860819079,半岛泉水欣座,30,15004,大连半岛物业管理有限公司,1.5,辽宁,3,二手房,2010
大连市甘井子区钻石湾和信园13-5,大连,远洋地产有限公司,甘井子,20191106,38.960020432983676,121.61696433831575,远洋钻石湾三期,51,22239,远洋亿家物业服务股份有限公司大连分公司,1.5,辽宁,4,二手房,2012
开发区安盛里5栋-4,大连,大连盛铭资产管理有限公司,开发区,20191106,39.059647232769905,121.78442788877467,安盛花园,79,9511,大连经济技术开发区海青物业有限公司,1.1,辽宁,8,二手房,2002
金州区光明街道育才街42-6号1-2层,大连,大连市金州区育才房地产开发有限公司,金州,20191106,39.109080894078986,121.7182584929096,职高小区,57,8971,大连金州育才物业管理有限公司,0.5,辽宁,0,二手房,1900
甘井子区华龙南园12-4-3-1-3,大连,大连长鹭房屋开发有限公司,甘井子,20191106,38.98345196891376,121.61280105159922,晶品枫林,54,14208,北京房修一物业管理有限公司,0.5,辽宁,6,二手房,2005
甘井子区促进路200号,大连,大连航宇房屋开发有限公司,甘井子,20191106,38.95810188892782,121.58530036264898,促进小区,30,12313,大连顺达物业服务有限公司,0.2,辽宁,3,二手房,1995
天河路173-2号 华润考拉22号公建,大连,无开发商,甘井子,20191106,38.99234777593271,121.57806393685057,七江路,21,11775,街道办事处（居委会）代管物业,0.2,辽宁,2,二手房,1995
开发区翠竹小区33栋4-1-1号,大连,"大连宏济开发经济有限公司,大连宏发投资发展有限公司",开发区,20191106,22.589909019238462,114.12722831877844,宏城金棕榈,68,9973,大连宏景物业管理有限公司,1.3,辽宁,4,二手房,2004
沙河口区鞍山路65号美都园7号1单元1层4号公建,大连,大连美辰房地产开发有限公司,沙河口,20191106,38.92727525772336,121.60296423346817,丽景春天,26,18743,大连远洋基业物业管理有限公司,0.8,辽宁,2,二手房,2003
大连市沙河口区知邻街50号,大连,大连软件园开发有限公司,沙河口,20191106,38.913544290955585,121.59450670056631,宅语原,89,19697,亿达物业管理有限公司,2,辽宁,3,二手房,2008
无门店信息,大连,开发区城建局,开发区,20191106,30.180169551389184,121.25032534611526,东居里,149,7246,大连经济技术开发区海青物业有限公司,0.2,辽宁,3,二手房,1992
开发区景和园1-7,大连,无开发商,开发区,20191106,40.05543376126319,116.2723091286475,古耕景和园,41,9383,街道办事处（居委会）代管物业,0.5,辽宁,2,二手房,2007
大连市金州区友谊街道南金华城25号1-2层1号,大连,大连金园房地产开发有限公司,金州,20191106,39.12522112524333,121.70944662699253,金海明珠,56,10278,大连金园社区服务有限公司,0.5,辽宁,3,二手房,2000
大连市沙河口区文萃街1号1-2-2；大连市沙河口区由家五小区五号楼1单元2层1,大连,大连理工科技城建设开发有限公司,高新园区,20191106,38.89336108819446,121.55217028052546,文萃轩小区,36,17742,大连理工物业管理中心,0.2,辽宁,4,二手房,1980
大连市开发区抚顺街30号,大连,无开发商,开发区,20191106,39.04869561297634,121.77182367433362,爱我家园,29,9333,大连嘉兴物业管理有限公司,0.5,辽宁,5,二手房,1996
大连市高新园区七贤中路63号,大连,大连宏都房地产开发有限公司,高新园区,20191106,38.86679409176974,121.53003702089566,宏都峰景,30,19678,大连东方百瑞物业管理有限公司,1.9,辽宁,4,二手房,2012
沙河口区黄河路562号,大连,大连新型房地产开发有限公司,沙河口,20191106,38.91682441795689,121.5890348046032,79中科学家公寓,41,20670,大连新兴物业管理有限公司,0.8,辽宁,2,二手房,1992
高新园敬贤街23-11号,大连,中海东丰地产（大连）有限公司,高新园区,20191106,22.548999034259495,114.06451500606163,中海紫御观邸三期,41,20661,大连中海物业管理有限公司,2.6,辽宁,2,二手房,2010
西岗区长红街4号1号公建,大连,五指山水墨雨林置业有限公司,西岗,20191106,38.91377414665191,121.6302525225721,34中茂田巷,6,29041,无物业管理服务,-,辽宁,0,二手房,1984
高新园敬贤街23-11号,大连,大连晟远房地产开发有限公司,高新园区,20191106,22.548999034259495,114.06451500606163,恒瑞坦城,59,18046,大连恒德物业服务有限公司,2.4,辽宁,6,二手房,2013
甘井子区红旗中路143号1层4号,大连,大连保利红旗房地产开发有限公司,甘井子,20191106,38.93167404222125,121.54265682632716,保利西山林语,103,21048,保利物业服务有限公司,1.5,辽宁,1,二手房,2006
沙河口区绿清街12号,大连,大连绿波房屋开发集团有限公司,沙河口,20191106,38.93851335419565,121.57334844377094,绿波花园,36,14284,大连绿波建设发展有限公司,0.6,辽宁,0,二手房,1997
中山区华乐街93—1号,大连,大连环海房地产开发有限公司,中山,20191106,38.92028265226582,121.6991270684635,华乐环海花园,38,23002,大连景和物业管理有限公司,1.1,辽宁,0,二手房,2001
西岗区九三街64号,大连,润德集团有限公司,西岗,20191106,38.92047268927287,121.61862512554262,润德广场,64,14998,大连润德物业管理有限公司,3.8,辽宁,4,二手房,1999
大连市甘井子区泉水R2区33-4号第8幢1单元1跃2层9号,大连,大连天意房地产开发有限公司,甘井子,20191106,38.95800216293212,121.53151895549547,金地檀溪,82,18341,大连金地物业管理有限公司,2.6,辽宁,5,二手房,2009
甘井子区柳树南街45-10号,大连,大连都源置业有限公司,甘井子,20191106,38.92480160798281,121.48358951916298,依云溪谷,59,14615,大连远洋物业管理有限公司,1.2,辽宁,8,二手房,2007
金州区同济路44号,大连,大连金开信都房地产开发有限公司,金州,20191106,-,-,海天新界,55,8407,大连西海岸物业管理有限公司,1,辽宁,2,二手房,2000
金州区南棉路310号,大连,无开发商,金州,20191106,39.09939229372624,121.72414976100345,劳动局小区,115,8223,无物业管理服务,0.1,辽宁,4,二手房,1989
沙河口区星海广场B3区14-2号1层,大连,大连友谊合升房地产开发有限公司,沙河口,20191106,38.88729825910329,121.5873174717394,壹品星海一期,54,23276,暂无信息,1.3,辽宁,5,二手房,2004
西岗区香炉礁24号1-1,大连,大连新型房地产开发有限公司,西岗,20191106,38.93371413072589,121.60938398726981,金海花园西园,54,12111,无物业管理服务,0.5,辽宁,6,二手房,1990
沙河口区西南路358号1—2号,大连,大连泰安房地产开发有限公司,沙河口,20191106,38.957570058826505,121.5941753506976,泰安花园,28,15069,大连三宝物业发展有限公司,0.5,辽宁,2,二手房,1998
甘井子区红旗中路143号1层4号,大连,大连红旗兴达房地产开发有限公司,甘井子,20191106,38.93167404222125,121.54265682632716,兴达福山居,28,15562,大连万泰物业管理有限公司,0.4,辽宁,2,二手房,2004
金州区同济路44号,大连,大连永乐房地产开发有限公司,金州,20191106,-,-,永乐金庭,29,9511,大连天河物业管理有限公司,0.8,辽宁,4,二手房,2005
沙河口区中山路417A-4号,大连,大连海孚房地产开发有限公司,沙河口,20191106,38.90734671814175,121.59482182703752,华业玫瑰东方,58,26081,深圳华业物业管理有限公司大连分公司,3.5,辽宁,7,二手房,1990
大连市甘井子区软件园路122号,大连,大连鑫园房屋开发有限公司,高新园区,20191106,38.89286578891647,121.53266600180116,新新园二期,19,14301,大连理工物业管理中心,0.5,辽宁,4,二手房,2004
甘井子辛吉街150号-7号,大连,大连新星房地产开发有限公司,甘井子,20191106,39.491124648817234,122.09275095337007,新星帕尔美娜,62,16078,大连生生物业有限公司,1,辽宁,1,二手房,2008
大连市甘井子中华路街道汇畅街48号,大连,大连嘉盈置业有限公司,甘井子,20191106,38.997257858220124,121.60222449235529,宏都熙景,34,23204,大连宏都物业管理有限公司,2.3,辽宁,4,二手房,2015
无门店信息,大连,无开发商,开发区,20191106,30.180169551389184,121.25032534611526,岗盛里小区,110,7141,街道办事处（居委会）代管物业,0.5,辽宁,1,二手房,1994
中山区金城街26号一楼,大连,大连万达房地产开发有限公司,中山,20191106,-,-,九中金城街,22,34555,无物业管理服务,-,辽宁,4,二手房,1990
金州区光明街道育才街42-6号1-2层,大连,金州城建局，开发区城建局,金州,20191106,39.109080894078986,121.7182584929096,芙蓉花园（金州）,35,9609,大连金州新区建房物业管理中心,0.6,辽宁,4,二手房,2000
无门店信息,大连,大连馨悦房地产开发有限公司,金州,20191106,30.180169551389184,121.25032534611526,悦泰山里,97,10171,大连百安物业管理有限公司,0.5,辽宁,9,二手房,2000
高新园区红凌路732-4号,大连,大连软件园开发有限公司,高新园区,20191106,22.732184994953588,113.92008598519837,东方圣克拉三期,67,25071,亿达物业管理有限公司,2.6,辽宁,4,二手房,2013
沙河口区兰田街33号,大连,大连运达房地产集团有限公司,沙河口,20191106,38.926138912221084,121.56486022834609,兰溪文苑,64,20295,大连运达物业管理有限公司,0.8,辽宁,1,二手房,2004
甘井子区芳韵街31号,大连,大连亿达房地产股份有限公司,甘井子,20191106,38.95610971266789,121.58990119152179,唯美品格,115,30002,亿达物业管理有限公司,1.5,辽宁,1,二手房,2008
沙河口区锦石园24-7号第A2-13幢1单元1层1号,大连,大连鼎新美地置业有限公司,甘井子,20191106,38.95065208398871,121.55819602405585,鼎新鼎润四季,23,21526,大连中原物业代理有限公司,1.2,辽宁,2,二手房,2006
金州区先进街道渤海街1-4号1-2层,大连,无开发商,金州,20191106,40.772228074426124,120.86872417734057,金元小区,64,7197,街道办事处（居委会）代管物业,0.1,辽宁,5,二手房,1985
金州区胜利西小区44号楼,大连,大连金宸集团,金州,20191106,39.10518329902552,121.71556711211015,连大文润金宸一二期,73,10815,大连四通物业管理有限公司,0.9,辽宁,0,二手房,2000
甘井子区玉丽街39号楼3号公建,大连,大连新型房地产开发有限公司,甘井子,20191106,38.98482355118447,121.56451739992956,玉丽街,71,10282,大连新兴物业管理有限公司,0.5,辽宁,3,二手房,2000
沙河口区锦石路8号,大连,大连锦绣房地产开发有限公司,沙河口,20191106,38.94771288948481,121.56110903658733,锦泉南园,45,11785,大连锦绣物业管理有限公司,0.3,辽宁,2,二手房,1995
金州区小平岛B组团4号楼3号商铺,大连,安达圣岛开发有限公司,高新园区,20191106,39.05643299166072,121.78943558267059,小平岛亲海园,74,16647,大连凯尔富物业管理有限公司,1.3,辽宁,3,二手房,2007
高新园区敬贤街25-9,大连,大连邦盛发展有限公司,高新园区,20191106,22.732184994953588,113.92008598519837,雯君庭,42,21338,大连意美物业服务有限公司,2.3,辽宁,2,二手房,2013
大连市甘井子区丰收路3-5号,大连,大连万鼎置业有限公司,甘井子,20191106,38.96529215075825,121.58263640806423,万科蓝山,27,27139,大连万科物业服务有限公司,2.9,辽宁,2,二手房,2012
甘井子区红南东街7-7号,大连,大连良运房地产开发有限公司,甘井子,20191106,38.930637294146095,121.54191104051648,山居笔记,24,16207,大连良运物业管理有限公司,1.5,辽宁,1,二手房,2007
沙河口区富国街14号1-1-2,大连,大连永辉房地产开发有限公司,沙河口,20191106,38.90122538432287,121.59040728337153,百年汇,120,18062,大连百年城物业管理有限公司,2.8,辽宁,17,二手房,2006
沙河口区南沙街36号台二2号1-1-37,大连,大连康加立置业有限公司,沙河口,20191106,38.90741410359388,121.57685699961822,台四小区,46,12798,大连弘达物业管理有限公司,-,辽宁,4,二手房,1996
莲花山路89-3号,大连,无开发商,西岗,20191106,-,-,世纪家园(西岗),7,17799,大连铁龙物业管理有限公司,0.3,辽宁,2,二手房,2000
高新园区海苑街36号1单元2号公建,大连,千汇德（大连）置业有限公司,高新园区,20191106,22.732184994953588,113.92008598519837,哈佛映像,19,18383,大连千汇德物业管理有限公司,1.2,辽宁,2,二手房,2008
沙河口区锦石园24-7号第A2-13幢1单元1层1号,大连,大连鼎新房地产开发有限公司,甘井子,20191106,38.95065208398871,121.55819602405585,鼎新鼎润府,40,21336,大连鼎新物业管理有限公司,0.6,辽宁,0,二手房,2005
无门店信息,大连,大华集团大连置业有限公司,高新园区,20191106,30.180169551389184,121.25032534611526,大华锦绣华城三期,48,22729,大连大华物业管理有限公司,2.5,辽宁,1,二手房,2010
沙河口区星海广场B3区20—3号,大连,大连飞通房地产开发有限公司,沙河口,20191106,38.887988853285236,121.58621327460654,东方星海,137,17982,大连兆恒物业管理有限公司,2.9,辽宁,5,二手房,2000
甘井子区华龙南园12-4-3-1-3,大连,大连瑞祥房地产开发有限公司,甘井子,20191106,38.98345196891376,121.61280105159922,今都小区,55,12544,大连泰安物业管理有限公司,0.2,辽宁,9,二手房,1996
甘井子区山东路398号,大连,大连盛铭资产管理有限公司,甘井子,20191106,38.99821826443242,121.59274974973462,亿合城,70,18697,大连盛安物业管理有限公司,1.5,辽宁,2,二手房,2008
高新园区红凌路732-4号,大连,大华集团大连置业有限公司,高新园区,20191106,22.732184994953588,113.92008598519837,大华锦绣华城一期,47,24717,大连大华物业管理有限公司,2.5,辽宁,1,二手房,2010
高新园区火炬路18号,大连,大连千业房地产开发有限公司,高新园区,20191106,22.732184994953588,113.92008598519837,第8区,25,17616,大连大管家物业管理有限公司,1.9,辽宁,4,二手房,2010
甘井子区华东路22号公建,大连,大连金广地产集团有限公司,甘井子,20191106,38.97736184953593,121.5935814234334,华东路（山东路商圈）,33,12754,大连嘉和物业管理有限公司,0.5,辽宁,0,二手房,1985
甘井子金地艺境博艺西园2-1号,大连,福佳集团有限公司,甘井子,20191106,39.043702262680526,121.66551909858833,欣家园二期,50,9837,街道办事处（居委会）代管物业,0.5,辽宁,1,二手房,2000
甘井子区金北街17号,大连,大连悦泰集团有限公司,甘井子,20191106,38.95800216293212,121.53151895549547,悦泰馨家,25,25364,大连优豪斯物业管理有限公司,0.5,辽宁,3,二手房,2003
甘井子区汇达园26号,大连,大连市大钢集团,甘井子,20191106,38.99700247791347,121.59727617645358,华南沃尔玛六平路,24,12731,街道办事处（居委会）代管物业,0.5,辽宁,0,二手房,1990
甘井子区西南路979-7号公建,大连,大连东北房屋开发有限公司,甘井子,20191106,38.96197066281671,121.59569104002526,东北名苑,52,17110,大连国合物业管理有限公司,0.5,辽宁,4,二手房,2000
高新园区红凌路732-4号,大连,大连亿达房地产股份有限公司,高新园区,20191106,22.732184994953588,113.92008598519837,亿达峦翠园,37,20771,亿达物业管理有限公司,1.3,辽宁,4,二手房,2009
中山区爱华街13号,大连,无开发商,中山,20191106,-,-,九中安乐街,44,36658,无物业管理服务,-,辽宁,3,二手房,1980
无门店信息,大连,融创开发商,甘井子,20191106,30.180169551389184,121.25032534611526,三寰融创城北园,65,13022,融创物业,2.2,辽宁,3,二手房,2013
沙河口区成仁街91号,大连,大连万达房地产开发有限公司,沙河口,20191106,38.91539947107844,121.59585638842556,龙祥花园,15,24894,大连万达物业管理有限公司,0.8,辽宁,2,二手房,2001
开发区兴城路29-81层,大连,大连兆佳房地产开发有限公司,开发区,20191106,31.034617638958906,121.6024718650317,自由向,57,14658,大连华安物业管理有限公司,2.4,辽宁,4,二手房,2000
大连市高新园区软件园路1A-3号,大连,亿达房地产开发有限公司,高新园区,20191106,38.894037160822535,121.54670889743173,软件园小区,69,14591,业主自筹物业,0.2,辽宁,6,二手房,1990
红星海A区126-4,大连,大连光伸房地产开发有限公司,开发区,20191106,48.24548040527505,129.39750706935092,绿洲半岛三期,39,9943,大连经济技术开发区光伸物业服务有限公司,0.6,辽宁,2,二手房,2001
大连市金州区友谊街道南金华城25号1-2层1号,大连,无开发商,金州,20191106,39.12522112524333,121.70944662699253,宁海小区,53,7195,街道办事处（居委会）代管物业,0.5,辽宁,0,二手房,1995
大连市甘井子区椒房街24号楼2-104链家地产,大连,无开发商,甘井子,20191106,38.96866989601282,121.60333479796562,椒房,76,14345,无物业管理服务,0.5,辽宁,6,二手房,1980
中山区东港龙湖水晶郦湾7-102,大连,大连龙湖东港房地产有限公司,中山,20191106,38.92669181279922,121.70540350390917,龙湖水晶郦湾,65,29032,大连龙湖物业服务有限公司,4.5,辽宁,1,二手房,2012
沙河口区西南路358号1—2号,大连,大连弘晟房地产开发有限公司,沙河口,20191106,38.957570058826505,121.5941753506976,明月山庄,19,14506,大连衡德物业管理有限公司,0.6,辽宁,0,二手房,2003
中山区金城街26号一楼,大连,合肥万科瑞翔地产有限公司,中山,20191106,-,-,解放街,20,24765,无物业管理服务,-,辽宁,3,二手房,1982
沙河口区西南路851号3单元1层3号,大连,大连振屹房屋开发有限公司,沙河口,20191106,38.943327685087134,121.58239080500049,柳馨家园,5,13421,街道办事处（居委会）代管物业,0.6,辽宁,1,二手房,2000
甘井子区华东路22号公建,大连,大连凯祥房地产开发有限公司,甘井子,20191106,38.97736184953593,121.5935814234334,环馨山庄,21,12150,大连凯祥物业管理有限公司,0.5,辽宁,2,二手房,2000
西岗区长春路334号,大连,无开发商,西岗,20191106,38.89807766522607,121.63221082858387,长春路（石道街商圈）,20,12074,无物业管理服务,-,辽宁,0,二手房,1989
甘井子区促进路200号,大连,大连亿达房地产股份有限公司,甘井子,20191106,38.95810188892782,121.58530036264898,林语家话,45,26584,亿达物业管理有限公司,1.2,辽宁,4,二手房,2000
西岗区黄河路82号,大连,大连民兴房地产开发有限公司,西岗,20191106,38.92243503020161,121.6287927913896,前城国际二期,32,22483,大连前城花园物业管理有限公司,1.5,辽宁,1,二手房,2000
甘井子区柳树南街45-10号,大连,中体产业集团大连乐百年置业有限公司,甘井子,20191106,38.92480160798281,121.48358951916298,水木清华,30,13433,大连辰谊物业管理有限公司,1.2,辽宁,2,二手房,2007
中山区解放路604号,大连,无开发商,中山,20191106,-,-,山海巷,9,10042,街道办事处（居委会）代管物业,0.5,辽宁,1,二手房,1985
开发区杏树里10栋-14,大连,无开发商,开发区,20191106,31.22007692363564,121.40661514382721,松苑山庄,80,6050,大连市金州区先进物业管理中心,0.5,辽宁,1,二手房,1990
沙河口区五一路177-1-1-1,大连,大华集团大连房地产开发有限公司,沙河口,20191106,38.913544290955585,121.59450670056631,大华御庭,61,22087,大连乐尔居物业服务有限公司,1.4,辽宁,1,二手房,2009
西岗区华北路100号1层5号,大连,大连万达房地产开发有限公司,西岗,20191106,-,-,香海花园,30,16120,大连万达物业管理有限公司,0.8,辽宁,1,二手房,1998
开发区翠竹小区33栋4-1-1号,大连,江苏翠竹置业集团有限公司,开发区,20191106,22.589909019238462,114.12722831877844,翠竹中区,30,10767,嘉兴物业管理有限公司,0.3,辽宁,1,二手房,1996
沙河口区长江路738号,大连,大连大和中盛房地产有限公司,西岗,20191106,38.913544290955585,121.59450670056631,颐和香榭,36,29175,大连颐和物业管理有限公司,2.5,辽宁,4,二手房,2007
甘井子区促进路30号2-1-1,大连,大连谷和房屋开发有限公司,甘井子,20191106,38.954133128707575,121.58355746311207,谷和温馨苑,17,17313,大连谷和物业管理有限公司,0.6,辽宁,1,二手房,2002
中山区东港龙湖水晶郦湾7-102,大连,大连金广地产集团有限公司,中山,20191106,38.92669181279922,121.70540350390917,金广东海岸,82,23028,大连金广物业有限公司,2.2,辽宁,3,二手房,2007
大连市金州新区友谊街道和平路59-10号1-2层公建,大连,无开发商,金州,20191106,39.11218285478539,121.72015835157164,古城乙区,184,7645,无物业管理服务,0.4,辽宁,4,二手房,1992
高新园敬贤街23-11号,大连,中海地产,高新园区,20191106,22.548999034259495,114.06451500606163,中海紫御观邸二期,20,21465,大连中海物业管理有限公司,2.6,辽宁,2,二手房,2005
中山区爱华街13号,大连,无开发商,中山,20191106,-,-,万云巷,4,12882,无物业管理服务,-,辽宁,2,二手房,1990
无门店信息,大连,大连环宇置业有限公司,开发区,20191106,30.180169551389184,121.25032534611526,环宇品阁,99,6504,大连环宇物业管理有限公司,1.5,辽宁,8,二手房,2004
中山区华乐街107-115号,大连,大连华旭置业有限公司,中山,20191106,-,-,东港第,34,33582,大连华锐世纪物业管理有限公司,3,辽宁,0,二手房,2012
甘井子区泉水H3区15号3单元1层2号,大连,大连新型房地产开发有限公司,甘井子,20191106,38.95800216293212,121.53151895549547,龙畔金泉一期,12,11688,大连新型物业管理有限公司,0.5,辽宁,0,二手房,2002
中山区东港龙湖水晶郦湾7-102,大连,大连保利东港房地产开发有限公司,中山,20191106,38.92669181279922,121.70540350390917,保利天禧,76,25559,保利物业服务有限公司,4.8,辽宁,2,二手房,2015
西岗区长春路334号,大连,大连新型房地产开发总公司,西岗,20191106,38.89807766522607,121.63221082858387,林茂小区,52,10389,大连新型物业管理有限公司,0.2,辽宁,3,二手房,1990
甘井子区山东路315号14栋1单元1跃2层13号,大连,华润置地（大连）开发有限公司,甘井子,20191106,39.00206212579579,121.59357231641214,华润置地广场一期,70,19859,华润物业（大连）有限公司,2.8,辽宁,3,二手房,2005
无门店信息,大连,大连宏港房地产开发有限公司,开发区,20191106,30.180169551389184,121.25032534611526,港湾观海,76,8873,大连宏港物业管理有限公司,0.5,辽宁,1,二手房,2010
开发区湾里南12栋-16-17-18号,大连,无开发商,开发区,20191106,39.0710420980366,121.85699498414282,东城国际,48,9068,大连乾豪物业管理有限公司,1,辽宁,7,二手房,2004
大连经济技术开发区同和里7栋-9号,大连,无开发商,开发区,20191106,39.048927198281376,121.78822322955432,新辰里,39,8036,街道办事处（居委会）代管物业,0.5,辽宁,0,二手房,1996
中山区职工街96号1-3层公建,大连,大连嘉和房地产开发有限公司,中山,20191106,37.211133989589015,122.06389576343967,嘉和花样年华一期,81,20123,大连嘉和物业管理有限公司,3,辽宁,2,二手房,2002
甘井子区佳林北园2-7号,大连,大连瑞泰祥房地产开发有限公司,甘井子,20191106,38.96325410331634,121.52791100124519,缇香漫城,53,21264,大连瑞泰祥物业服务有限公司,2,辽宁,2,二手房,2010
甘井子区辛寨子街道中冶蓝城辛虹园39-7号公建,大连,大连中冶京诚置业有限公司,甘井子,20191106,38.97936013064069,121.49493097207407,中冶蓝城D区,40,15718,大连添翼物业服务有限公司,2,辽宁,1,二手房,2010
开发区正恒园1-16,大连,河北沃金投资有限公司,开发区,20191106,24.863443752012007,118.55605252565886,正泰园B区,30,11809,无物业管理服务,1.9,辽宁,2,二手房,2000
开发区安盛里5栋-4,大连,大连汽贸房屋开发有限公司,开发区,20191106,39.059647232769905,121.78442788877467,东北明珠,57,12344,大连汽贸物业管理有限公司,1.5,辽宁,4,二手房,2006
中山区共建巷61号,大连,无开发商,中山,20191106,-,-,39中共建巷,20,26311,街道办事处（居委会）代管物业,0.5,辽宁,3,二手房,1982
沙河口区前程街15号1层E-C轴36-44轴公建,大连,大连安邦房地产开发有限公司,甘井子,20191106,38.93222264581343,121.5546274793666,阳光百合,14,16906,渤海吉祥物业管理有限公司,0.8,辽宁,1,二手房,2000
高新园区硅谷假日小区25号楼地下室,大连,浦项（大连）软件园开发有限公司,高新园区,20191106,22.732184994953588,113.92008598519837,浦项道,33,21870,浦项(大连)物业管理有限公司,3.4,辽宁,7,二手房,2010
中山区同心街72号1楼公建,大连,无开发商,中山,20191106,-,-,南山里,16,19315,无物业管理服务,-,辽宁,2,二手房,1985
大连经济技术开发区同和里7栋-9号,大连,大连城市建设集团有限公司,开发区,20191106,39.048927198281376,121.78822322955432,新日里小区,33,9234,街道办事处（居委会）代管物业,0.5,辽宁,0,二手房,1995
无门店信息,大连,北方沿海房地产开发（大连）有限公司,沙河口,20191106,30.180169551389184,121.25032534611526,星海大观,234,17261,北京世邦魏理仕物业管理服务有限公司大连分公司,4.4,辽宁,1,二手房,2008
中山区清溪南街11号,大连,大连锦绣房地产开发有限公司,中山,20191106,25.073114551432106,121.54848354920179,秀月广场,26,12688,无物业管理服务,0.5,辽宁,3,二手房,1992
沙河口区五一路110-4号,大连,大连市中联房地产开发有限公司,沙河口,20191106,38.913544290955585,121.59450670056631,星海中龙园,21,21238,大连斌弘物业管理有限公司,0.6,辽宁,5,二手房,2002
中山区武昌街武昌公寓6号公建,大连,大连中盛集团有限公司,中山,20191106,38.91228859884737,121.64922302816238,武昌花园,15,13852,无物业管理服务,0.3,辽宁,1,二手房,1990
无门店信息,大连,大连海脉房地产开发有限公司,金州,20191106,30.180169551389184,121.25032534611526,海脉未来城,31,8175,大连豪斯威物业管理有限公司,1,辽宁,3,二手房,2008
无门店信息,大连,大连运达房地产集团有限公司,甘井子,20191106,30.180169551389184,121.25032534611526,运达诺维溪谷一期,64,16582,大连运达物业有限公司,1.8,辽宁,4,二手房,2010
沙河口区数码路北段18—20号,大连,大连软景房地产开发有限公司,高新园区,20191106,38.890045799133254,121.55191912957606,软景E居,93,26991,亿达物业管理有限公司,2.6,辽宁,8,二手房,2009
无门店信息,大连,大连鲁能置业有限公司,金州,20191106,30.180169551389184,121.25032534611526,鲁能优山美地,88,11570,长城物业集团股份有限大连分公司,1.9,辽宁,2,二手房,2001
沙河口区鞍山路65号美都园7号1单元1层4号公建,大连,大连良运房地产开发有限公司,沙河口,20191106,38.92727525772336,121.60296423346817,良运缤纷四季,45,21988,大连良运物业管理有限公司,0.8,辽宁,0,二手房,2002
开发区高新里6栋-8,大连,无开发商,开发区,20191106,39.0385064328372,117.63629747262576,高民里,65,7105,街道办事处（居委会）代管物业,0.2,辽宁,6,二手房,1992
沙河口区星海广场B3区20—3号,大连,大连亿达房地产股份有限公司,沙河口,20191106,38.887988853285236,121.58621327460654,亿达杰特,156,19624,亿达物业管理有限公司,3.8,辽宁,2,二手房,2005
无门店信息,大连,无开发商,金州,20191106,30.180169551389184,121.25032534611526,滨海丰园,115,8741,大连奥泰物业服务有限公司,0.5,辽宁,4,二手房,2001
甘井子区海口路77—5号,大连,大连圣韬房地产开发有限公司,甘井子,20191106,38.9604837935147,121.60363900822827,万福居,63,18455,大连圣韬物业管理有限公司,0.5,辽宁,4,二手房,2004
沙河口区展望街29,大连,大连嘉源置业发展有限公司,沙河口,20191106,38.93441976110248,121.57246068526595,御园,59,18344,大连御博物业,2,辽宁,5,二手房,2010
大连市甘井子区丰收路3-5号,大连,无开发商,甘井子,20191106,38.96529215075825,121.58263640806423,王家桥,75,15718,大连铁路物业管理有限公司,0.1,辽宁,2,二手房,1987
中山区爱华街13号,大连,大连长荣房屋开发有限公司,中山,20191106,-,-,休斯顿公寓,28,13073,大连长荣物业管理有限公司,2.6,辽宁,3,二手房,2001
中山区爱华街13号,大连,大连锦联地产集团有限公司,中山,20191106,-,-,经典生活,46,8966,大连锦联物业管理有限公司,2.2,辽宁,4,二手房,2003
高新园区黄浦路600-602号,大连,大连东阳房地产开发有限公司,高新园区,20191106,22.732184994953588,113.92008598519837,龙湖星海彼岸,76,26170,大连龙湖物业服务有限公司,3.3,辽宁,1,二手房,2017
中山区杏林街66—5号,大连,大连开建集团有限公司,中山,20191106,-,-,花香维也纳,44,23454,大连开利物业管理有限公司,0.5,辽宁,2,二手房,1990
沙河口区星海广场B3区14-9,大连,大连友谊合升房地产开发有限公司,沙河口,20191106,38.88729825910329,121.5873174717394,壹品星海三期,50,23952,大连友谊物业服务有限公司,1.2,辽宁,2,二手房,2003
高新园区黄浦路901S号1单元1层3号,大连,大连金真源集团房地产开发有限公司,高新园区,20191106,22.732184994953588,113.92008598519837,山海一家三期,11,17973,大连龙海物业管理有限公司,1.2,辽宁,1,二手房,2010
西岗区鞍山路65-5号,大连,大连万达房地产开发有限公司,沙河口,20191106,38.92744986197432,121.6160902313596,79中广电中心,57,28726,无物业管理服务,-,辽宁,3,二手房,1988
西岗区胜利路33号,大连,大连万达房地产开发有限公司,西岗,20191106,38.91309771954841,121.62500886627636,信兴花园,1,29556,大连亿安物业管理有限公司,0.5,辽宁,0,二手房,1997
中山区中青街87号一单元107,大连,无开发商,中山,20191106,-,-,爱华巷,5,11196,无物业管理服务,-,辽宁,1,二手房,1992
大连市甘井子区椒房街24号楼2-104链家地产,大连,大连港置地有限公司,甘井子,20191106,38.96866989601282,121.60333479796562,大连港天下粮仓,28,21278,大连万科物业服务有限公司,2.2,辽宁,4,二手房,2013
中山区山屏街116号1-1,大连,大连中信海港投资有限公司,中山,20191106,-,-,山屏街,40,11673,暂无信息,-,辽宁,1,二手房,1988
大连市甘井子区软件园路122号,大连,大连理工科技城建设开发有限公司,高新园区,20191106,38.89286578891647,121.53266600180116,理工园,27,14889,街道办事处（居委会）代管物业,1,辽宁,2,二手房,1998
无门店信息,大连,大连振富房屋开发有限公司,西岗,20191106,30.180169551389184,121.25032534611526,振富公寓（胜利桥北商圈）,40,8914,大连中海振富物业管理有限公司,1.1,辽宁,1,二手房,2002
中山区岭前街53-5,大连,大连九龙仓绿城置业有限公司,中山,20191106,-,-,绿城九龙仓桃源里,28,26264,绿城物业服务集团有限公司大连分公司,3.8,辽宁,2,二手房,2015
无门店信息,大连,无开发商,金州,20191106,30.180169551389184,121.25032534611526,永安四季,48,7346,无物业管理服务,0.5,辽宁,5,二手房,2005
西岗区新田巷11号三单元103,大连,无开发商,西岗,20191106,38.892980658993075,121.64178106287684,新船巷,31,9653,无物业管理服务,-,辽宁,3,二手房,1990
中山区爱华街13号,大连,无开发商,中山,20191106,-,-,九中爱华街,6,35939,无物业管理服务,-,辽宁,2,二手房,1988
中山区中青街87号一单元107,大连,大连亿达房地产股份有限公司,中山,20191106,-,-,青云林海,52,21375,亿达物业管理有限公司,1,辽宁,4,二手房,2001
中山区民建街10号1单元1号,大连,无开发商,中山,20191106,-,-,39中顺阳街,34,20307,无物业管理服务,-,辽宁,3,二手房,1985
沙河口区中山路417A-4号,大连,大连宝嘉房地产有限公司,沙河口,20191106,38.90734671814175,121.59482182703752,德源筑座,23,21466,大连乐尔居物业服务有限公司,2.5,辽宁,2,二手房,2008
中山区高尚路28-1号,大连,无开发商,中山,20191106,-,-,高原街,20,11463,街道办事处（居委会）代管物业,0.5,辽宁,2,二手房,1989
沙河口区长江路946号-9,大连,无开发商,沙河口,20191106,38.913544290955585,121.59450670056631,城品城,21,19134,大连万景物业管理有限公司,2,辽宁,0,二手房,2010
金州区拥政街道733号-8号1-2层,大连,无开发商,金州,20191106,39.13676206430574,121.75331451150412,414小区,102,7553,街道办事处（居委会）代管物业,0.5,辽宁,3,二手房,1989
无门店信息,大连,大连鹏玥房地产开发有限公司,开发区,20191106,30.180169551389184,121.25032534611526,中环城市广场,51,9555,大连鹏玥物业公司,1.5,辽宁,5,二手房,2012
甘井子区凌秀路37号-1链家地产,大连,千汇德（大连）置业有限公司,高新园区,20191106,38.88345528357004,121.51710016392427,哈佛世纪,26,18769,大连千汇德物业管理有限公司,2.4,辽宁,1,二手房,2012
高新园区火炬路18号,大连,大连嘉创房地产开发有限公司,高新园区,20191106,22.732184994953588,113.92008598519837,嘉创E人国际,76,15710,大连紫金物业管理有限公司,2,辽宁,9,二手房,2009
沙河口区绿清街12号,大连,大连中海新城置业有限公司,沙河口,20191106,38.93851335419565,121.57334844377094,中海英伦观邸,65,22377,大连中海物业管理有限公司,1.8,辽宁,5,二手房,2009
中山区共建巷61号,大连,辽宁外贸有限公司,中山,20191106,-,-,39中南山花园,15,21041,渤海花园物业管理有限公司,3.5,辽宁,0,二手房,1998
甘井子区虹韵路114号,大连,大连亿达美加房地产开发有限公司,甘井子,20191106,38.95653310483457,121.5329869995972,第五郡五号地,96,27710,亿达物业管理有限公司,2,辽宁,4,二手房,2006
甘井子区美域盛景A2区10-6,大连,大连时代房地产开发有限公司,甘井子,20191106,39.0065081257038,121.61024195886239,泉水友好园,43,13541,大连爱静物业服务有限公司,0.5,辽宁,4,二手房,1998
大连市甘井子区椒房街24号楼2-104链家地产,大连,大连圣韬房地产开发有限公司,甘井子,20191106,38.96866989601282,121.60333479796562,万福山庄,33,15006,大连海旭物业管理有限公司,0.5,辽宁,2,二手房,1996
沙河口区华新苑10号楼4号公建,大连,大连新型房地产开发有限公司,沙河口,20191106,38.940090852942305,121.58984251869741,华新苑,9,14656,大连新型物业管理有限公司,0.5,辽宁,2,二手房,2000
西岗区大同街125号,大连,大连新型房地产开发有限公司,西岗,20191106,38.920458602340894,121.61445835429899,银寰花园,24,11134,街道办事处（居委会）代管物业,0.3,辽宁,1,二手房,1995
沙河口区富静街26号1单元1层5号,大连,大连远东房屋开发有限公司,沙河口,20191106,38.908727606250466,121.58667844684369,世嘉星海,36,27408,大连瑞信物业管理有限公司,1.6,辽宁,0,二手房,2007
高新园区海苑街36号1单元2号公建,大连,大连鸿越房地产开发有限公司,高新园区,20191106,22.732184994953588,113.92008598519837,康桥小镇,29,19422,大连长青物业管理中心,1.3,辽宁,3,二手房,2008
无门店信息,大连,大连软件园世通开发有限公司,高新园区,20191106,30.180169551389184,121.25032534611526,亿达普罗旺斯二期,98,21556,亿达物业管理有限公司,2.6,辽宁,5,二手房,2010
中山区华乐街71号公建,大连,大连环海房地产开发有限公司,中山,20191106,-,-,华乐小区,18,14309,大连景和物业管理有限公司,0.5,辽宁,4,二手房,1999
西岗区中山路158号唐山街市场外14号,大连,重庆汇东房地产开发有限公司,西岗,20191106,38.916850280573215,121.63201984883244,34中唐山街,9,28775,无物业管理服务,0.1,辽宁,2,二手房,1980
甘井子区玉丽街2号楼1单元4号公建,大连,大连新型房地产开发有限公司,甘井子,20191106,38.98482355118447,121.56451739992956,泡崖康居园,60,10477,大连新兴物业管理有限公司,0.5,辽宁,3,二手房,2000
甘井子区甘井子路32号楼1单元1楼9号,大连,无开发商,甘井子,20191106,38.984925359284546,121.63668420587094,松江小区,33,10742,街道办事处（居委会）代管物业,0.5,辽宁,0,二手房,1980
无门店信息,大连,大连明和房地产开发有限公司,开发区,20191106,30.180169551389184,121.25032534611526,知语山园,36,10864,大连大众物业管理有限公司,1.3,辽宁,3,二手房,2003
中山区高尚路28-1号,大连,大连华南地产开发有限公司,中山,20191106,-,-,环山街,13,11255,街道办事处（居委会）代管物业,0.5,辽宁,1,二手房,1987
甘井子区金家街17-7号,大连,大连嘉兴房地产开发有限公司,甘井子,20191106,38.97480310842784,121.60132011879159,青林美地,29,20593,大连嘉盛物业管理有限公司,0.5,辽宁,5,二手房,2001
金州新区八一路金都嘉园1号楼1号公建,大连,大连元新房地产开发有限公司,金州,20191106,39.120594541290394,121.72066355859046,华夏金城,51,9855,大连元新物业管理有限公司,1.2,辽宁,2,二手房,2000
无门店信息,大连,大连顺迈房地产开发有限公司,沙河口,20191106,30.180169551389184,121.25032534611526,星海国宝,50,20546,长城物业集团股份有限大连分公司,3,辽宁,0,二手房,2000
沙河口区黄河路535号,大连,大连城市建设集团有限公司,沙河口,20191106,38.91773777159567,121.60217159922856,79中金光小区,43,24203,无物业管理服务,-,辽宁,1,二手房,1982
甘井子区柳树南街45-11号,大连,中海新海汇（大连）置业有限公司,甘井子,20191106,38.92480160798281,121.48358951916298,中海御湖熙谷,90,14861,大连中海物业管理有限公司,2.2,辽宁,3,二手房,2012
开发区小孤山西里3栋-11号,大连,大连开建房地产开发有限公司,开发区,20191106,39.922471877744,122.80201148233411,瑞仕尚城,67,11408,大连阿尔滨汇城物业服务有限公司,1.1,辽宁,3,二手房,2007
金州区南棉路310号,大连,大连金连房地产开发有限公司,金州,20191106,39.09939229372624,121.72414976100345,金连领地,14,8046,街道办事处（居委会）代管物业,0.5,辽宁,1,二手房,1995
中山区杏林街66—5号,大连,嘉和房地产集团有限公司,中山,20191106,-,-,嘉和花样年华二期,61,21298,大连嘉和物业管理有限公司,2,辽宁,2,二手房,2005
开发区大开高吉里33栋6号,大连,无开发商,开发区,20191106,33.65936290830462,119.32375763582802,高吉里,34,7650,广宜物业有限公司,0.2,辽宁,1,二手房,1990
甘井子区哲林北园17-6号,大连,大连科宏房屋开发有限公司,甘井子,20191106,38.960147524191875,121.5383904536635,虹港新居,30,13761,大连空港物业管理有限公司,0.3,辽宁,4,二手房,1996
甘井子区山东路127-2号,大连,无开发商,甘井子,20191106,38.99065559549029,121.59126483545545,天水街,15,11808,街道办事处（居委会）代管物业,0.1,辽宁,0,二手房,1990
金州区站前街道盛滨花园B区13号楼2号公建,大连,大连和嘉房地产开发有限公司,金州,20191106,45.99097122507798,126.6190342032363,和嘉佳园,79,7338,街道办事处（居委会）代管物业,0.5,辽宁,1,二手房,2000
中山区碧浪园4号-3号,大连,大连万达房地产开发有限公司,中山,20191106,38.891678320164495,121.69338255923573,虎滩路,39,13557,大连虎滩置业物业管理有限公司,0.2,辽宁,3,二手房,1987
沙河口区星海广场B3区14-2号1层,大连,大连友谊合升房地产开发有限公司,沙河口,20191106,38.88729825910329,121.5873174717394,壹品星海公寓,38,18823,大连富丽华物业管理有限公司,2,辽宁,2,二手房,2000
大连经济技术开发区同和里7栋-9号,大连,无开发商,开发区,20191106,39.048927198281376,121.78822322955432,新星里,73,8430,大连广谊物业管理有限公司,0.3,辽宁,1,二手房,1995
沙河口区中山路417A-4号,大连,无开发商,沙河口,20191106,38.90734671814175,121.59482182703752,同泰街,18,12313,无物业管理服务,0.5,辽宁,2,二手房,1997
沙河口区黄河路535号,大连,大连民兴房地产开发有限公司,沙河口,20191106,38.91773777159567,121.60217159922856,79中民兴花园二期,23,26889,大连衡德物业管理有限公司,1.2,辽宁,0,二手房,1990
甘井子区泉水B5区27-9,大连,大连运达房地产集团有限公司,甘井子,20191106,39.014810555776016,121.60976819253642,锦泉源B6区,26,15111,政治物业管理有限公司,0.5,辽宁,1,二手房,2010
沙河口区黄河路535号,大连,大连建园房地产开发有限公司,沙河口,20191106,38.91773777159567,121.60217159922856,79中城市公元,46,27361,大连斌弘物业管理有限公司,2.6,辽宁,3,二手房,2008
甘井子区山东路137号,大连,大连市大钢集团,甘井子,20191106,38.99129404608926,121.59172125999353,华南沃尔玛六和路,10,13098,街道办事处（居委会）代管物业,0.5,辽宁,2,二手房,1990
沙河口区红凌路137号,大连,大连大实企业集团房屋开发有限公司,甘井子,20191106,38.91238532871384,121.53647895116544,泊林映山,38,12585,大连弘实物业管理有限公司,1.2,辽宁,2,二手房,2010
甘井子区汇仁街22号,大连,大连铁龙房地产开发有限公司,甘井子,20191106,38.99712640764999,121.58834420439493,动力院景一期汇仁南园,27,16398,大连铁龙安居物业管理有限公司,0.7,辽宁,2,二手房,2006
甘井子区金家街17-7号,大连,大连衡锐房屋开发有限公司,甘井子,20191106,38.97480310842784,121.60132011879159,温莎小镇,10,20491,大连长波物业管理有限公司,1.5,辽宁,1,二手房,2002
大连市甘井子区七贤路8-3号,大连,大连高新万达广场投资有限公司,高新园区,20191106,38.86656874003397,121.5392965564653,万达海公馆,43,30357,大连万达物业管理有限公司,4.5,辽宁,3,二手房,2012
甘井子区金北路17号,大连,五指山水墨雨林置业有限公司,甘井子,20191106,38.97553393692831,121.59969720502335,金二小学南,45,21017,无物业管理服务,-,辽宁,2,二手房,1975
高新园区敬贤街25-9,大连,大连东盛房地产开发有限公司,高新园区,20191106,22.732184994953588,113.92008598519837,东盛启城,27,17212,大连东盛物业管理有限公司,2.3,辽宁,3,二手房,2010
甘井子区鹏辉新世纪1幢1单元1-3号房屋（海口路99号）,大连,凯鹏,甘井子,20191106,38.96019452634814,121.60648508981281,鹏辉新世纪三期北园,15,17288,大连鹏辉物业管理有限公司,0.6,辽宁,1,二手房,2003
大连市甘井子区融田西园52-11,大连,大连圣安房地产开发有限公司,甘井子,20191106,38.98557650073852,121.45981818596117,亿达春田晴湾,74,17165,亿达物业管理有限公司,2.2,辽宁,8,二手房,2010
高新园区海苑街36号1单元2号公建,大连,大连友谊合升房地产开发有限公司,高新园区,20191106,22.732184994953588,113.92008598519837,壹品漫谷,42,18443,大连富丽华物业管理有限公司,1,辽宁,2,二手房,2006
中山区杏林街66—5号,大连,大连万达房地产开发有限公司,中山,20191106,-,-,明泽苑,13,27146,大连万达物业管理有限公司,1.8,辽宁,1,二手房,1998
沙河口区恒利园42号-8,大连,大连三寰房屋开发有限公司,沙河口,20191106,38.933735110041596,121.5800864717063,三寰芳草园,32,16599,大连空港物业管理有限公司,0.4,辽宁,0,二手房,2002
经济技术开发区城润万家4-5号公建,大连,志广房地产有限公司,开发区,20191106,22.66109984248805,114.03259677401383,恒安花园,27,9728,大连志广物业管理有限责任公司,0.9,辽宁,1,二手房,2002
金州区小平岛B组团4号楼3号商铺,大连,大连圣岛房地产开发有限公司,高新园区,20191106,39.05643299166072,121.78943558267059,小平岛邻海园,34,17685,大连凯尔富物业管理有限公司,1.3,辽宁,0,二手房,2007
沙河口区西南路643号,大连,大连澳南房屋开发公司,沙河口,20191106,38.943483429804665,121.5833555851182,金福小区,14,11725,无物业管理服务,-,辽宁,1,二手房,2000
无门店信息,大连,大连航逸房地产开发有限公司,甘井子,20191106,30.180169551389184,121.25032534611526,中航华府,66,16442,中航物业管理有限公司大连分公司,2.5,辽宁,3,二手房,2000
无门店信息,大连,无开发商,开发区,20191106,30.180169551389184,121.25032534611526,岗松里小区,91,7267,大连经济技术开发区海青物业有限公司,0.5,辽宁,3,二手房,1989
开发区高新里6栋-8,大连,无开发商,开发区,20191106,39.0385064328372,117.63629747262576,高志里小区,46,6886,街道办事处（居委会）代管物业,0.3,辽宁,4,二手房,1993
西岗区长春路334号,大连,无开发商,西岗,20191106,38.89807766522607,121.63221082858387,新石道街,10,11822,大连白云物业管理有限公司,0.5,辽宁,2,二手房,1990
大连市金州新区中长街道碧海尚城5-4号1-2层,大连,大连集品置业有限公司,金州,20191106,39.10021735658639,121.73039615980777,东林世家,46,14859,大连百安物业管理有限公司,1,辽宁,5,二手房,2000
无门店信息,大连,大连金宸集团,金州,20191106,30.180169551389184,121.25032534611526,东才苑,29,7206,街道办事处（居委会）代管物业,0.4,辽宁,1,二手房,1998
沙河口区西南路161号,大连,无开发商,沙河口,20191106,38.957570058826505,121.5941753506976,西沟小区,52,12900,无物业管理服务,-,辽宁,0,二手房,1980
无门店信息,大连,大连金宸集团,金州,20191106,30.180169551389184,121.25032534611526,金宸联郡,38,8694,大连四通物业管理有限公司,1.4,辽宁,9,二手房,2010
沙河口区富国街34-3,大连,无开发商,沙河口,20191106,38.90160543169978,121.58920762600702,星海街,46,12004,无物业管理服务,-,辽宁,3,二手房,1989
中山区北斗街53号1层1号,大连,无开发商,中山,20191106,-,-,丹东街（二七商圈）,10,13907,无物业管理服务,-,辽宁,0,二手房,1993
甘井子区佳林北园2-7号,大连,大连耕海置业有限公司,甘井子,20191106,38.96325410331634,121.52791100124519,国民院子,36,22534,大连耕海物业管理有限公司,2,辽宁,1,二手房,2012
甘井子区促进路30号2-1-1,大连,大连天河房地产开发集团有限公司,甘井子,20191106,38.954133128707575,121.58355746311207,促进路,10,12218,无物业管理服务,0.1,辽宁,2,二手房,1982
沙河口区民权街324号,大连,大连天河房地产开发集团有限公司,沙河口,20191106,38.922127516461174,121.61584665132906,民权小区,58,13709,大连福港物业管理有限公司,0.2,辽宁,0,二手房,1990
甘井子区华北路花锦园28号23-3-1-2建筑物,大连,大连东特房地产开发有限公司,甘井子,20191106,38.95301589317078,121.57219333068177,东特金星公馆,44,16385,大连东特祥禾物业管理有限公司,1.2,辽宁,3,二手房,2009
大连经济技术开发区同和里7栋-9号,大连,开发区城建局,开发区,20191106,39.048927198281376,121.78822322955432,东山花园,22,14684,大连戎旅物业管理有限公司,0.8,辽宁,0,二手房,2005
中山区爱华街13号,大连,方大集团,中山,20191106,-,-,九中杏林街,7,42119,无物业管理服务,0.6,辽宁,1,二手房,1995
甘井子区华北路花锦园28号23-3-1-2建筑物,大连,大连东特房地产开发有限公司,甘井子,20191106,38.95301589317078,121.57219333068177,东特星中环,27,16514,大连东特祥禾物业管理有限公司,0.8,辽宁,1,二手房,2003
西岗区黄河路90号公建部分,大连,大连鼎森房地产开发有限公司,西岗,20191106,38.92234529815978,121.62829331825485,金宸国际,48,16255,英联华（香港）物业管理顾问有限公司,2.2,辽宁,5,二手房,2004
沙河口区华北路404号,大连,广东碧桂园物业服务股份有限公司洛阳分公司1,沙河口,20191106,38.903224944733765,121.56809734950556,柳华街,29,11350,无物业管理服务,0.1,辽宁,7,二手房,1985
中山区华乐街71号公建,大连,印象集团,中山,20191106,-,-,东港印象DE区,19,15756,大连众和物业管理有限公司,1.2,辽宁,3,二手房,2007
开发区金源南里14栋-11号一层部分，14号-12号一层部分,大连,商金源地产,开发区,20191106,39.061002337435596,121.82187420311087,金苑新居,19,8875,嘉兴物业管理有限公司,0.3,辽宁,0,二手房,1998
中山区爱华街13号,大连,无开发商,中山,20191106,-,-,九中安民街,27,37495,无物业管理服务,-,辽宁,3,二手房,1990
西岗区绕山路31号公建一层东侧,大连,远洋地产有限公司,沙河口,20191106,38.90257514466717,121.61412736644739,莲花小区,32,11915,无物业管理服务,-,辽宁,1,二手房,1995
西岗区康平街2号（5号楼3-1-3号）,大连,无开发商,西岗,20191106,38.91044414697888,121.61980769264477,教师大厦,18,13214,大连教师大厦物业管理有限公司,0.2,辽宁,2,二手房,1995
沙河口区五四路207-1-9号,大连,无开发商,沙河口,20191106,38.913544290955585,121.59450670056631,五四路,12,13021,无物业管理服务,-,辽宁,1,二手房,1963
沙河口区连山街44-2号半地下一层（地上一层部分）,大连,大连远东房屋开发有限公司,沙河口,20191106,38.89370465795233,121.57222087722023,星海大第,14,23108,大连斌宏物业管理有限公司,1,辽宁,0,二手房,2005
开发区安盛里5栋-4,大连,大连万晟房地产开发有限公司,开发区,20191106,39.059647232769905,121.78442788877467,宜家大院,20,9016,大连万晟置业有限公司,0.8,辽宁,1,二手房,2001
金州区凤翔路220号,大连,大连德泰控股有限公司,金州,20191106,-,-,德泰岭秀逸城,62,11723,大连德泰物业管理有限公司,1.9,辽宁,0,二手房,2007
沙河口区连山街44-2号半地下一层（地上一层部分）,大连,大连宏都房地产开发有限公司,沙河口,20191106,38.89370465795233,121.57222087722023,宏都筑景Ⅱ期,5,27282,东方百瑞物业有限公司,1.8,辽宁,0,二手房,2010
开发区松苑街23号,大连,大连西太平洋家属楼,开发区,20191106,-,-,松平里,15,13502,街道办事处（居委会）代管物业,0.5,辽宁,1,二手房,1995
金州区金润小区B区861单元102,大连,大连新型房地产开发有限公司,金州,20191106,39.10426770672064,121.74521281088934,糖果小区,70,9266,大连新兴物业管理有限公司,0.5,辽宁,6,二手房,2000
西岗区八一路102号,大连,无开发商,西岗,20191106,-,-,杏环街,10,10134,无物业管理服务,-,辽宁,0,二手房,1990
中山区高尚路28-1号,大连,无开发商,中山,20191106,-,-,高家沟,27,10850,大连景山物业管理有限公司,0.5,辽宁,1,二手房,1992
金州区先进街道陶然居公建2-2号1层,大连,大连金信集团房地产有限公司,金州,20191106,40.09243081535254,116.39318341128967,金信陶然居,74,9570,北京瑞思特物业管理有限公司,0.5,辽宁,5,二手房,1995
西岗区新田巷27号1-2,大连,无开发商,西岗,20191106,38.893215932589385,121.64103065169111,新河街,9,11118,无物业管理服务,-,辽宁,3,二手房,1990
金州新区八一路金都嘉园1号楼1号公建,大连,大连市金州区房屋开发公司,金州,20191106,39.120594541290394,121.72066355859046,古城丁区,146,7405,街道办事处（居委会）代管物业,0.1,辽宁,2,二手房,1993
金州区南棉路310号,大连,无开发商,金州,20191106,39.09939229372624,121.72414976100345,胜利小区,102,8191,无物业管理服务,0.5,辽宁,2,二手房,1986
沙河口区五一路110-4号,大连,大连亿达房地产股份有限公司,沙河口,20191106,38.913544290955585,121.59450670056631,兰亭山水,42,21389,亿达物业管理有限公司,0.6,辽宁,3,二手房,2002
甘井子区泉水P3区35-2号,大连,大理耀鹏房地产开发有限责任公司,甘井子,20191106,39.01647201716373,121.63841353829972,泉水P1区,27,11537,大连新跃物业公司,1.2,辽宁,7,二手房,2002
西岗区新田巷27号1-2,大连,大连安大房屋开发有限公司,西岗,20191106,38.893215932589385,121.64103065169111,仲夏花园,7,14648,大连长风物业管理有限公司,0.4,辽宁,1,二手房,1995
金州区拥政街道733号-8号1-2层,大连,无开发商,金州,20191106,39.13676206430574,121.75331451150412,花园小区,31,8209,大连万达物业管理有限公司大连金石分公司,0.1,辽宁,0,二手房,1990
中山区共建巷61号,大连,无开发商,中山,20191106,-,-,39中永青街,8,25851,街道办事处（居委会）代管物业,0.5,辽宁,1,二手房,1993
甘井子区惠泽南园3-4号,大连,大连长鹭房屋开发有限公司,甘井子,20191106,38.938501462398555,121.52090556572563,晶品缘林,21,17697,大连三和住邦物业管理有限公司,1,辽宁,1,二手房,2006
甘井子区祥龙街2号楼1单元1楼1号,大连,大连宏孚房屋开发有限公司,甘井子,20191106,38.98801508597683,121.60467293990413,宏孚小区,43,11338,无物业管理服务,-,辽宁,1,二手房,1990
大连市沙河口区西南路875号1层21号,大连,无开发商,沙河口,20191106,38.94485969061231,121.58418648447764,春风巷,9,11432,街道办事处（居委会）代管物业,0.5,辽宁,2,二手房,1992
开发区东北三街94号1层,大连,大连开建房地产开发有限公司,开发区,20191106,-,-,芙蓉花园(开发区),51,7072,嘉兴物业管理有限公司,0.4,辽宁,0,二手房,2001
甘井子区汇仁街22号,大连,中铁建（大连）置业有限公司,甘井子,20191106,38.99712640764999,121.58834420439493,动力院景二期汇善南园,30,16443,大连铁龙安居物业管理有限公司,0.7,辽宁,0,二手房,2007
甘井子区华北路花锦园28号23-3-1-2建筑物,大连,大连东特房地产开发有限公司,沙河口,20191106,38.95301589317078,121.57219333068177,东特新居,20,13027,大连东特祥禾物业管理有限公司,0.5,辽宁,1,二手房,1998
沙河口区成仁街91号,大连,无开发商,沙河口,20191106,38.91539947107844,121.59585638842556,西安路公寓,19,13912,大连协和物业管理有限公司,0.5,辽宁,2,二手房,1997
金州区站前街道盛滨花园B区13号楼2号公建,大连,大连阿尔滨集团房地产开发有限公司,金州,20191106,45.99097122507798,126.6190342032363,现代雅筑,52,6957,大连阿尔滨集团物业管理有限公司,0.5,辽宁,1,二手房,2003
沙河口区黄浦路18号—5号公建,大连,无开发商,高新园区,20191106,38.85984536468737,121.53127293656546,东电小区,16,13896,大连凌电物业管理有限公司,0.3,辽宁,2,二手房,1992
中山区益民街16号1层1号,大连,无开发商,中山,20191106,-,-,兴盛里（三八广场）,13,13377,无物业管理服务,-,辽宁,1,二手房,1988
中山区华乐街71号公建,大连,首开集团,中山,20191106,-,-,首开铂郡,10,26308,北京燕侨物业管理有限公司大连分公司,3.8,辽宁,1,二手房,2015
中山区高尚路28-1号,大连,无开发商,中山,20191106,-,-,高寿街,24,10634,无物业管理服务,-,辽宁,0,二手房,1991
无门店信息,大连,大连新型企业集团,甘井子,20191106,30.180169551389184,121.25032534611526,南岭花园,31,12715,大连新型物业管理有限公司,0.4,辽宁,1,二手房,2006
金州区金润花园B区47号1单元1层1号2号,大连,大连金都地产开发有限公司,金州,20191106,39.103366101511746,121.74553395510915,观山悦,45,10010,街道办事处（居委会）代管物业,1.4,辽宁,2,二手房,2000
甘井子区虹港路16号楼1层公建,大连,沈阳军区后勤部,甘井子,20191106,38.965637426914874,121.53971372684923,金寓花园二期,10,18365,大连瑞祥物业管理有限公司,1,辽宁,1,二手房,2007
甘井子区柳树南街45-10号,大连,大连顺达房屋开发有限公司,甘井子,20191106,38.92480160798281,121.48358951916298,顺达温泉花园三期,43,11998,大连顺达物业服务有限公司,0.6,辽宁,1,二手房,2005
甘井子区锦城东园1号3单元1层2号,大连,大连福田房屋开发有限公司,甘井子,20191106,38.952921687446846,121.55483088178491,福典人家,29,19991,大连福田房屋物业管理有限公司,0.6,辽宁,0,二手房,2006
甘井子区西南路979-7号公建,大连,1,甘井子,20191106,38.96197066281671,121.59569104002526,八十中周家街,75,16792,街道办事处（居委会）代管物业,0.2,辽宁,4,二手房,1980
高新园区海苑街30号1单元1号公建,大连,大连大有文园房屋开发有限公司,高新园区,20191106,22.732184994953588,113.92008598519837,大有文园公寓,23,10937,大连大有恬园物业管理有限公司,2,辽宁,1,二手房,2010
金州区金湾路132-2号,大连,无开发商,金州,20191106,-,-,胜利西小区,121,7796,街道办事处（居委会）代管物业,0.5,辽宁,4,二手房,1990
沙河口区黄埔路427号,大连,大连名仕房地产开发有限公司,高新园区,20191106,38.913544290955585,121.59450670056631,名仕乐居,16,19633,大连万祥物业管理有限公司,1.3,辽宁,0,二手房,2007
无门店信息,大连,大连宏鼎房地产开发有限公司,旅顺口,20191106,30.180169551389184,121.25032534611526,国宝星月湾,82,12115,大连星海国宝物业管理有限公司,2.5,辽宁,2,二手房,2012
金州区站前街道盛滨花园B区13号楼2号公建,大连,大连阿尔滨集团房地产开发有限公司,金州,20191106,45.99097122507798,126.6190342032363,盛滨花园B区,48,8122,大连阿尔滨集团物业管理有限公司,0.4,辽宁,4,二手房,2000
甘井子区促进路30号2-1-1,大连,大连大骏达房地产开发有限公司,甘井子,20191106,38.954133128707575,121.58355746311207,骏达绅士花园,4,18479,大连骏达物业管理有限公司,1.7,辽宁,0,二手房,2012
无门店信息,大连,开发区城建局,开发区,20191106,30.180169551389184,121.25032534611526,东阁里,60,6978,大连经济技术开发区海青物业有限公司,0.4,辽宁,1,二手房,1993
中山区高尚路28-1号,大连,无开发商,中山,20191106,-,-,高尚路,23,10794,无物业管理服务,0.5,辽宁,1,二手房,1993
大连经济技术开发区同和里7栋-9号,大连,开发区城建局,开发区,20191106,39.048927198281376,121.78822322955432,开.东山小区,59,8505,大连友谊物业服务有限公司,0.5,辽宁,1,二手房,1990
西岗区绕山路31号公建一层东侧,大连,大连泰安房地产开发有限公司,西岗,20191106,38.90257514466717,121.61412736644739,同香山庄,17,15816,同香物业管理有限公司,0.5,辽宁,1,二手房,1989
西岗区八一路196号1-3,大连,无开发商,西岗,20191106,-,-,靠山巷,11,10235,无物业管理服务,-,辽宁,2,二手房,1990
中山区共建巷61号,大连,中信集团大连中信房地产开发公司,中山,20191106,-,-,尚品南山,20,26021,大连中信物业管理有限公司,1.5,辽宁,0,二手房,2007
沙河口区红凌路137号,大连,大连大实企业集团房屋开发有限公司,甘井子,20191106,38.91238532871384,121.53647895116544,泊林阳光B区,12,14448,大连弘实物业管理有限公司,0.6,辽宁,2,二手房,2007
大连市甘井子区七贤路8-3号,大连,大连世诚房地产开发有限公司,高新园区,20191106,38.86656874003397,121.5392965564653,恒大御景湾,55,23611,金碧物业有限公司大连分公司,2.9,辽宁,1,二手房,2011
金州新区先进街道五一路350-1号1-2层,大连,哈尔滨聚鑫投资有限公司,金州,20191106,39.09045469220031,121.77783451856881,聚鑫小区三期,51,7214,大连新生活物业管理有限公司,0.5,辽宁,6,二手房,1999
沙河口区绿波路34号楼5单元1楼3号,大连,"大连汇戎开发有限公司,大连东北房屋开发有限公司",沙河口,20191106,38.93993195093444,121.5734177749902,帝欧花园,45,18398,大连绿波建设发展有限公司,0.6,辽宁,0,二手房,2003
甘井子区榆水街6-9号公建,大连,大连弘润置业有限公司,甘井子,20191106,38.97957540063716,121.52458567456938,万科城市之光,79,21395,大连万科物业服务有限公司,2.8,辽宁,2,二手房,2015
金州新区八一路金都嘉园1号楼1号公建,大连,大连金园房地产开发有限公司,金州,20191106,39.120594541290394,121.72066355859046,金园名城,19,8089,街道办事处（居委会）代管物业,0.5,辽宁,3,二手房,1999
沙河口区锦江园30号1层公建,大连,大连市经济适用房建设发展中心,沙河口,20191106,38.95000749062,121.56584356835394,锦绣园,35,13974,大连锦绣物业管理有限公司,0.5,辽宁,2,二手房,1999
大连市沙河口区黄河路729号,大连,大连盛佳房地产开发有限公司,沙河口,20191106,38.91710565765228,121.58954758972729,城市佳园,6,19752,街道办事处（居委会）代管物业,1,辽宁,1,二手房,2004
中山区金城街26号一楼,大连,无开发商,中山,20191106,-,-,九中洛川街,24,35435,无物业管理服务,-,辽宁,0,二手房,1990
沙河口区红凌路137号,大连,大连大实企业集团房屋开发有限公司,甘井子,20191106,38.91238532871384,121.53647895116544,叠翠骏景,26,12782,大连弘实物业管理有限公司,0.4,辽宁,3,二手房,2004
甘井子区金家街17-7号,大连,老房子地产,甘井子,20191106,38.97480310842784,121.60132011879159,金安街,20,20482,无物业管理服务,-,辽宁,1,二手房,1960
开发区杏树里10栋-14,大连,大连华宇房地产开发有限公司,开发区,20191106,31.22007692363564,121.40661514382721,华宇凤凰城,77,8511,大连华宇物业管理有限公司,0.5,辽宁,4,二手房,2006
金州区站前街道盛滨花园B区13号楼2号公建,大连,大连连铁房地产开发有限公司,金州,20191106,45.99097122507798,126.6190342032363,金舍嘉苑,30,8411,街道办事处（居委会）代管物业,0.5,辽宁,0,二手房,2005
沙河口区星海广场B3区20—3号,大连,大连华奇置业有限公司,沙河口,20191106,38.887988853285236,121.58621327460654,星海旺座,26,14588,大连佳和物业管理有限公司,2.5,辽宁,1,二手房,2004
沙河口区黄河路883号,大连,无开发商,沙河口,20191106,38.919826721475204,121.57749657966676,沙区医院,31,13161,无物业管理服务,-,辽宁,3,二手房,1990
甘井子区甘井子街3号公建,大连,无开发商,甘井子,20191106,38.98047550418425,121.63394022838557,新街,17,10178,无物业管理服务,-,辽宁,3,二手房,1976
大连市金州区友谊街道南金华城25号1-2层1号,大连,无开发商,金州,20191106,39.12522112524333,121.70944662699253,金园新村,29,7501,大连金州友谊物业公司,0.5,辽宁,1,二手房,2000
中山区民建街10号1单元1号,大连,无开发商,中山,20191106,-,-,39中学士街,40,19609,无物业管理服务,-,辽宁,0,二手房,1995
西岗区胜利路33号,大连,省一建公司,西岗,20191106,38.91309771954841,121.62500886627636,34中兴民街,16,26595,无物业管理服务,-,辽宁,0,二手房,1970
无门店信息,大连,大连金地房地产开发有限公司,金州,20191106,30.180169551389184,121.25032534611526,金地新里程,59,6991,大连金铭物业管理有限公司,0.8,辽宁,6,二手房,2008
中山区中南路店212号门头房,大连,峰尚房屋开发有限公司,中山,20191106,38.91149759691359,121.67700561077149,峰尚中南,21,15775,大连银洲物业管理有限公司,2.2,辽宁,1,二手房,2010
沙河口区联合路133号,大连,大连新型房地产开发有限公司,沙河口,20191106,38.91608561262676,121.60480987310456,21中天兴花园一期,43,19346,大连万泰物业管理有限公司,0.5,辽宁,1,二手房,1996
西岗区鞍山路29号龙畔锦城东门,大连,无开发商,西岗,20191106,38.92825122675866,121.61368812829033,铁路西站,25,12674,无物业管理服务,-,辽宁,2,二手房,1981
甘井子辛吉街150号-7号,大连,大连新星房地产开发有限公司,甘井子,20191106,39.491124648817234,122.09275095337007,新星绿城一期,46,12561,大连生生物业管理有限公司,0.5,辽宁,2,二手房,2002
无门店信息,大连,大连龙湖西城置业有限公司,甘井子,20191106,30.180169551389184,121.25032534611526,龙湖滟澜山,84,19883,大连龙湖物业服务有限公司,6.6,辽宁,1,二手房,1999
金州区光明街道育才街42-6号1-2层,大连,大连金华房地产开发有限公司,金州,20191106,39.109080894078986,121.7182584929096,金华小区一期,84,7733,大连金华兴物业有限公司,0.4,辽宁,5,二手房,1995
沙河口区富国街14号1-1-2,大连,无开发商,沙河口,20191106,38.90122538432287,121.59040728337153,星云街,18,11423,无物业管理服务,-,辽宁,2,二手房,1990
金州区拥政街道733号-8号1-2层,大连,大连市金州区房屋开发公司,金州,20191106,39.13676206430574,121.75331451150412,春和小区,37,7327,街道办事处（居委会）代管物业,0.1,辽宁,0,二手房,1990
高新园区敬贤街25-9,大连,大连家豪房地产开发有限公司,高新园区,20191106,22.732184994953588,113.92008598519837,圣托里尼,49,20804,大连斌弘物业管理有限公司,1.8,辽宁,3,二手房,2012
沙河口区黑石礁街5号1层1号,大连,无开发商,沙河口,20191106,38.87949716810132,121.56306843044705,黑石礁广场,41,13734,无物业管理服务,-,辽宁,5,二手房,1980
西岗区香炉礁24号1-1,大连,大连大骏达房地产开发有限公司,西岗,20191106,38.93371413072589,121.60938398726981,骏达阅阳楼,16,12270,街道办事处（居委会）代管物业,1.2,辽宁,3,二手房,2000
金州区金润小区B区861单元102,大连,大连中连房地产开发有限公司,金州,20191106,39.10426770672064,121.74521281088934,自然天城,28,7969,大连新生活物业管理有限公司,0.4,辽宁,1,二手房,2004
中山区三八广场5号,大连,大连新型房地产开发总公司,中山,20191106,38.92614664480926,121.66384735203427,二七公寓,15,19536,大连新型物业管理有限公司,0.8,辽宁,0,二手房,1999
开发区红梅小区19栋-2-1-1号,大连,大连东特房地产开发有限公司,开发区,20191106,31.221199854965864,121.37046203010317,东特欣苑,7,14923,大连经济技术开发区聚盛达物业管理有限公司,0.8,辽宁,0,二手房,2002
沙河口区星海广场B3区14-2号1层,大连,大连万达房地产开发有限公司,沙河口,20191106,38.88729825910329,121.5873174717394,大连明珠,75,26762,大连万象美物业管理有限公司,3.5,辽宁,4,二手房,2008
中山区同心街72号1楼公建,大连,大连振屹房屋开发有限公司,中山,20191106,-,-,城市广场,27,15472,大连振屹物业有限公司,3.5,辽宁,2,二手房,2004
甘井子区华东路33-5号,大连,上大阳光,甘井子,20191106,38.97497080220593,121.59479866243332,松江路（80中）,33,13075,大连新华物业管理有限公司,-,辽宁,2,二手房,1993
大连市甘井子区辛如街35号1单元1层1号,大连,大连新星房地产开发有限公司,甘井子,20191106,38.96862607066881,121.52294869064194,新星绿城六期,49,15021,大连生生物业管理有限公司,1,辽宁,2,二手房,2006
大连市金州区站前街道生辉第一城14-3号1-2层,大连,大连新天润企业集团有限公司,开发区,20191106,39.05726502015243,121.74769707477718,凯旋国际,123,7087,第一东方(大连)物业服务有限公司,2.3,辽宁,2,二手房,2007
开发区景和园1-7,大连,开发区城建局,开发区,20191106,40.05543376126319,116.2723091286475,小孤山东里,87,6458,大连广谊物业管理有限公司,0.4,辽宁,5,二手房,1995
大连市沙河口区文萃街1号1-2-2；大连市沙河口区由家五小区五号楼1单元2层1,大连,无开发商,高新园区,20191106,38.89336108819446,121.55217028052546,老年公寓,10,18158,无物业管理服务,0.2,辽宁,1,二手房,1995
中山区三八广场5号,大连,大连华丽山庄有限公司,中山,20191106,38.92614664480926,121.66384735203427,华丽山庄,13,18855,大连香森物业管理有限公司,1.5,辽宁,0,二手房,1999
金州区五一路先进街道 陶然居2-2,大连,大连金开房地产开发有限公司,金州,20191106,40.09243081535254,116.39318341128967,华邦俪城,102,10392,大连华邦物业有限公司,1.3,辽宁,3,二手房,2009
金州区凤翔路220号,大连,大连德泰控股有限公司,金州,20191106,-,-,德泰岭秀逸城B区,72,10890,大连德泰物业管理有限公司,1.9,辽宁,3,二手房,2008
大连市甘井子区燕南园50号,大连,大连鑫园房屋开发有限公司,高新园区,20191106,38.897305104727735,121.53594302030157,新新园一期,35,14670,大连理工物业管理中心,0.3,辽宁,2,二手房,2000
莲花山路89-3号,大连,大连大明房地产控股有限公司,沙河口,20191106,-,-,万科半山半海,18,24565,大连万科物业服务有限公司,3.9,辽宁,2,二手房,2016
沙河口区华北路448号楼1-4公建,大连,无开发商,甘井子,20191106,38.903224944733765,121.56809734950556,周山街,18,16492,街道办事处（居委会）代管物业,0.5,辽宁,4,二手房,1981
无门店信息,大连,大连东方置业公司,甘井子,20191106,30.180169551389184,121.25032534611526,盐岛湖,96,10956,无物业管理服务,0.2,辽宁,4,二手房,2000
沙河口区黄浦路18号—5号公建,大连,大连高新技术产业园区建设开发总公司,高新园区,20191106,38.85984536468737,121.53127293656546,学府1+1公寓,10,16102,街道办事处（居委会）代管物业,0.6,辽宁,2,二手房,2005
甘井子区华北路花锦园28号23-3-1-2建筑物,大连,大连东特房地产开发有限公司,甘井子,20191106,38.95301589317078,121.57219333068177,星加坡花园,38,18248,大连东特祥禾物业管理有限公司,0.6,辽宁,0,二手房,2003
沙河口区民权街324号,大连,大连城市建设集团有限公司,沙河口,20191106,38.922127516461174,121.61584665132906,天兴新家园,21,29195,大连天兴物业管理有限公司,0.5,辽宁,2,二手房,1999
沙河口区黑石礁街3号1层1-1号,大连,大连建隆置业有限公司,沙河口,20191106,38.880058010307856,121.56313403908827,富丽庭,36,19504,达波尔酒店物业管理（大连）有限公司,2.4,辽宁,2,二手房,2006
沙河口区华北路404号,大连,大连元泰房屋开发有限公司,沙河口,20191106,38.903224944733765,121.56809734950556,福居家园,5,15930,渤海吉祥物业管理有限公司,0.5,辽宁,0,二手房,2003
开发区小孤山西里3栋-11号,大连,大连九龙汇房地产开发有限公司,开发区,20191106,39.922471877744,122.80201148233411,九龙汇,69,9091,大连宏亮红物业管理有限公司,1.9,辽宁,2,二手房,2007
高新园区敬贤街25-9,大连,中海东丰地产（大连）有限公司,高新园区,20191106,22.732184994953588,113.92008598519837,中海紫御观邸一期,11,25476,大连中海物业管理有限公司,2.6,辽宁,1,二手房,2010
甘井子金地艺境博艺西园2-1号,大连,大连丰达房地产开发有限公司,甘井子,20191106,39.043702262680526,121.66551909858833,益丰乾城,25,13488,大连逸佳物业管理有限公司,1.6,辽宁,1,二手房,2012
金州区南棉路310号,大连,大连金连房地产开发有限公司,金州,20191106,39.09939229372624,121.72414976100345,金连福地,31,8188,街道办事处（居委会）代管物业,0.5,辽宁,2,二手房,2001
沙河口区中山路417A-4号,大连,无开发商,沙河口,20191106,38.90734671814175,121.59482182703752,太原街,8,12859,无物业管理服务,-,辽宁,1,二手房,1959
开发区鹏程家园66#-6、66#-7公建,大连,大连元新房地产开发有限公司,开发区,20191106,40.11387603155845,116.28558455696562,华夏海景,38,9637,大连元新物业管理有限公司,1,辽宁,1,二手房,2003
西岗区黄河路90号公建部分,大连,大连民兴房地产开发有限公司,西岗,20191106,38.92234529815978,121.62829331825485,前城国际一期,27,24034,大连前城花园物业管理有限公司,1,辽宁,0,二手房,2003
甘井子区泉水B2区19-1号,大连,北方沿海房地产开发（大连）有限公司,甘井子,20191106,39.01028172254777,121.6081440561744,沿海鉴筑,31,17047,美佳物业管理（深圳）有限公司大连分公司,1.8,辽宁,0,二手房,2010
甘井子区泉水P3区35-2号,大连,大连鑫成置业有限公司,甘井子,20191106,39.01647201716373,121.63841353829972,欧尚广场,50,17184,大连宏华物业服务有限公司,1.5,辽宁,4,二手房,2009
西岗区八一路102号,大连,无开发商,西岗,20191106,-,-,鸣鹤西巷,10,11700,无物业管理服务,-,辽宁,2,二手房,1995
中山区杏林街66—5号,大连,嘉和房地产集团有限公司,中山,20191106,-,-,嘉和花样年华三期,76,23832,大连嘉和物业管理有限公司,3.5,辽宁,1,二手房,2002
金州区同济路44号,大连,大连金世纪房地产经纪有限公司,金州,20191106,-,-,教师公寓,12,9403,大连恒天物业管理公司,0.8,辽宁,0,二手房,2007
无门店信息,大连,大连世茂嘉年华置业有限公司,金州,20191106,30.180169551389184,121.25032534611526,世茂御龙海湾,339,10991,经纬物业(中国)有限公司,2,辽宁,8,二手房,2011
甘井子区玉丽街39号楼3号公建,大连,大连新型企业集团,甘井子,20191106,38.98482355118447,121.56451739992956,泡崖康祥园,20,11190,大连新兴物业管理有限公司,0.5,辽宁,3,二手房,2002
无门店信息,大连,大连恒昇房地产开发有限公司,甘井子,20191106,30.180169551389184,121.25032534611526,福佳新城,42,11875,大连富嘉物业管理有限公司,1.6,辽宁,2,二手房,2010
大连市开发区抚顺街30号,大连,无开发商,开发区,20191106,39.04869561297634,121.77182367433362,翠南管委会院,25,10235,街道办事处（居委会）代管物业,0.5,辽宁,1,二手房,1995
中山区武昌街武昌公寓6号公建,大连,无开发商,中山,20191106,38.91228859884737,121.64922302816238,同福新居,4,14289,无物业管理服务,-,辽宁,2,二手房,2003
甘井子区金家街17-7号,大连,陕西亿润经贸有限公司,甘井子,20191106,38.97480310842784,121.60132011879159,金四街,55,20316,无物业管理服务,-,辽宁,3,二手房,1952
大连市高新园区七贤中路63号,大连,无开发商,高新园区,20191106,38.86679409176974,121.53003702089566,学府士家,18,13942,无物业管理服务,-,辽宁,2,二手房,2000
大连经济技术开发区同和里7栋-9号,大连,无开发商,开发区,20191106,39.048927198281376,121.78822322955432,山水花园小区,4,12812,大连经济技术开发区白石物业管理有限公司,0.5,辽宁,0,二手房,2000
甘井子区华东路22号公建,大连,无开发商,甘井子,20191106,38.97736184953593,121.5935814234334,华东路（金三角商圈）,12,11821,无物业管理服务,0.5,辽宁,0,二手房,1988
沙河口区南沙街36号台二2号1-1-37,大连,大连市中联房地产开发有限公司,沙河口,20191106,38.90741410359388,121.57685699961822,健龙苑,42,22191,大连正源物业服务有限公司,0.5,辽宁,1,二手房,2000
沙河口区长江路738号,大连,大连城市建设集团有限公司,沙河口,20191106,38.913544290955585,121.59450670056631,21中广电中心,24,18810,无物业管理服务,-,辽宁,0,二手房,1990
中山区虎滩路176号4-1-2,大连,大连三寰房地产开发有限公司,中山,20191106,-,-,碧涛北园,26,11717,大连虎滩置业物业管理有限公司,0.2,辽宁,2,二手房,1993
沙河口区星海广场B3区20—3号,大连,无开发商,沙河口,20191106,38.887988853285236,121.58621327460654,星海二街,2,13528,街道办事处（居委会）代管物业,0.5,辽宁,0,二手房,1976
无门店信息,大连,大连亿通置业顾问有限公司,旅顺口,20191106,30.180169551389184,121.25032534611526,翠岫联芳,61,4923,大连亿升通物业管理有限公司,0.9,辽宁,4,二手房,2000
中山区武昌街武昌公寓6号公建,大连,大连海事大学,中山,20191106,38.91228859884737,121.64922302816238,南山西花厅,8,11259,暂无信息,1,辽宁,1,二手房,2002
甘井子区西南路979-7号公建,大连,大连圣元房地产开发有限公司,甘井子,20191106,38.96197066281671,121.59569104002526,亿达梧桐路,21,21630,亿达物业管理有限公司,1.5,辽宁,1,二手房,2010
沙河口区西南路40号楼,大连,亿达房地产开发有限公司,沙河口,20191106,38.957570058826505,121.5941753506976,星浦庄园,28,12264,大连香都物业管理有限公司,0.5,辽宁,3,二手房,1996
沙河口区西南路358号1—2号,大连,大连东兴置业有限公司,沙河口,20191106,38.957570058826505,121.5941753506976,西山园中园,36,21040,大连东昌物业管理有限公司,1.2,辽宁,1,二手房,2007
无门店信息,大连,大连众仕房地产开发有限公司,开发区,20191106,30.180169551389184,121.25032534611526,山河御景,31,8294,大连山河物业管理有限公司,1.5,辽宁,3,二手房,2010
大连市甘井子区椒房街24号楼2-104链家地产,大连,中铁建（大连）置业有限公司,甘井子,20191106,38.96866989601282,121.60333479796562,青秀蓝湾一期,22,21731,中国铁建地产集团物业公司,1.5,辽宁,1,二手房,2015
开发区松苑街23号,大连,大连天安房地产开发有限公司,开发区,20191106,-,-,天安海景花园,21,14007,大连港力物业管理有限公司,1.2,辽宁,1,二手房,1987
沙河口区黄河路535号,大连,大连利源房屋开发有限公司,沙河口,20191106,38.91773777159567,121.60217159922856,79中万岁公寓,22,18328,大连大众物业管理有限公司,0.8,辽宁,1,二手房,1997
甘井子区西南路950—1号1层1号,大连,上大阳光,甘井子,20191106,38.957570058826505,121.5941753506976,八十中东海街,31,16055,街道办事处（居委会）代管物业,0.2,辽宁,3,二手房,1980
中山区中青街43号,大连,大连亿达房地产股份有限公司,中山,20191106,38.91057299349551,121.66988239841652,青云映山,16,24801,亿达物业管理有限公司,1.3,辽宁,2,二手房,2005
甘井子区华北路花锦园28号23-3-1-2建筑物,大连,无开发商,甘井子,20191106,38.95301589317078,121.57219333068177,迎客石广场（锦绣商圈）,10,14172,街道办事处（居委会）代管物业,0.5,辽宁,1,二手房,1990
中山区武昌街武昌公寓6号公建,大连,大连海事大学,中山,20191106,38.91228859884737,121.64922302816238,新兴小区,9,9604,暂无信息,0.5,辽宁,0,二手房,2000
沙河口区黄河路883号,大连,大连安邦房地产开发有限公司,沙河口,20191106,38.919826721475204,121.57749657966676,阳光小筑,9,20479,大连远洋基业物业管理有限公司,0.8,辽宁,2,二手房,2006
金州新区八一路金都嘉园1号楼1号公建,大连,无开发商,金州,20191106,39.120594541290394,121.72066355859046,古城丙区,67,7600,街道办事处（居委会）代管物业,0.5,辽宁,2,二手房,1997
沙河口区黄浦路18号—5号公建,大连,大连良运房地产开发有限公司,高新园区,20191106,38.85984536468737,121.53127293656546,翰林观海公寓,18,17460,大连良运物业管理有限公司,0.8,辽宁,3,二手房,2003
中山区武昌街武昌公寓6号公建,大连,无开发商,中山,20191106,38.91228859884737,121.64922302816238,绿山俪城,4,15686,无物业管理服务,0.6,辽宁,0,二手房,1995
西岗区八一路196号1-3,大连,无开发商,西岗,20191106,-,-,新泉巷,17,9327,无物业管理服务,-,辽宁,2,二手房,1990
无门店信息,大连,大连正中房地产开发有限公司,金州,20191106,30.180169551389184,121.25032534611526,德嘉与海,38,7861,大连本来物业管理有限公司,1.9,辽宁,1,二手房,2003
金州区拥政街道733号-8号1-2层,大连,大连千川房地产有限公司,金州,20191106,39.13676206430574,121.75331451150412,湖畔嘉园,16,10921,大连千川物业管理有限公司,1.2,辽宁,2,二手房,2005
开发区东北三街94号1层,大连,大连中信海港投资有限公司,开发区,20191106,-,-,润泽园小区,49,9756,大连新华物业管理有限公司,1.2,辽宁,3,二手房,2000
莲花山路89-3号,大连,无开发商,沙河口,20191106,-,-,新华街,20,13462,无物业管理服务,-,辽宁,0,二手房,1999
无门店信息,大连,大连新兴海韵房地产开发有限公司,开发区,20191106,30.180169551389184,121.25032534611526,山海家园,26,16322,大连经济技术开发区通讯物业有限公司,0.5,辽宁,0,二手房,2000
高新园区硅谷假日小区25号楼地下室,大连,未知,高新园区,20191106,22.732184994953588,113.92008598519837,硅谷假日公寓,22,15035,大连斌弘物业管理有限公司,1.5,辽宁,2,二手房,2004
西岗区鞍山路65-5号,大连,大连中盛集团有限公司,沙河口,20191106,38.92744986197432,121.6160902313596,中盛家园,11,20933,大和中盛物业管理有限公司,1.5,辽宁,0,二手房,2002
甘井子区汇达园26号,大连,大连红星美凯龙投资发展有限公司,甘井子,20191106,38.99700247791347,121.59727617645358,红星国际广场,150,14323,红星物业管理有限公司,1.5,辽宁,1,二手房,2012
沙河口区前程街46号4—1—2号,大连,大连欧兰房地产开发有限公司,甘井子,20191106,38.932349900454405,121.55550146684811,耕海山尚,27,16463,大连耕海物业管理有限公司,1.5,辽宁,3,二手房,2010
甘井子区凌秀路37号-1链家地产,大连,大连汇基房地产开发有限公司,高新园区,20191106,38.88345528357004,121.51710016392427,学仕名府,21,19828,大连意美物业服务有限公司,2.4,辽宁,0,二手房,2014
中山区解放路471-22号,大连,大连长策房屋开发有限公司,西岗,20191106,-,-,捷山观海,12,19471,大连鑫晟物业管理有限公司,2,辽宁,0,二手房,2008
西岗区八一路196号1-3,大连,无开发商,西岗,20191106,-,-,荣信巷,8,12545,无物业管理服务,-,辽宁,0,二手房,1989
西岗区胜利路33号,大连,大理耀鹏房地产开发有限责任公司,西岗,20191106,38.91309771954841,121.62500886627636,34中果林巷,18,24958,无物业管理服务,-,辽宁,0,二手房,1987
沙河口区五一路270-274号,大连,大连亿达房地产股份有限公司,高新园区,20191106,38.913544290955585,121.59450670056631,city one,21,14473,亿达物业管理有限公司,0.5,辽宁,2,二手房,2001
无门店信息,大连,大连鹏辉房地产开发有限公司,甘井子,20191106,30.180169551389184,121.25032534611526,鹏辉新天居三期,54,15360,大连鹏辉物业管理有限公司,0.8,辽宁,2,二手房,2008
甘井子区华北路花锦园28号23-3-1-2建筑物,大连,无开发商,甘井子,20191106,38.95301589317078,121.57219333068177,华北路（甘）,29,15580,街道办事处（居委会）代管物业,0.1,辽宁,2,二手房,1980
大连市高新园区七贤中路63号,大连,大连龙海房地产开发有限公司,高新园区,20191106,38.86679409176974,121.53003702089566,华录园,21,14272,无物业管理服务,-,辽宁,2,二手房,1995
甘井子区汇仁街19号12号楼1单元102室,大连,大连华南房地产开发有限公司,甘井子,20191106,38.99746297497168,121.58917714380617,名贵山庄华秋园,10,13912,大连弘益达物业管理有限公司,0.5,辽宁,0,二手房,2000
大连市沙河口区知邻街50号,大连,无开发商,沙河口,20191106,38.913544290955585,121.59450670056631,玉门街,16,11816,无物业管理服务,-,辽宁,2,二手房,1990
大连市开发区裕民新苑42-7,大连,无开发商,开发区,20191106,39.0707727006946,121.85124636786225,澳东世纪,33,11498,街道办事处（居委会）代管物业,0.5,辽宁,3,二手房,2012
西岗区长春路334号,大连,大连天源房屋开发有限公司,西岗,20191106,38.89807766522607,121.63221082858387,天源山庄,43,10051,大连弘益达物业管理有限公司,0.2,辽宁,1,二手房,1996
开发区红星海B区212-1,大连,远洋地产有限公司,开发区,20191106,36.69396005932176,116.9760981685808,红星海五期海麓,19,18600,大连远洋基业物业管理有限公司,2.2,辽宁,0,二手房,2012
中山区三八广场5号,大连,无开发商,中山,20191106,38.92614664480926,121.66384735203427,良运四季汇,57,21848,大连良运物业管理有限公司,0.8,辽宁,6,二手房,2008
沙河口区五四路207-1-9号,大连,无开发商,沙河口,20191106,38.913544290955585,121.59450670056631,拥政街,11,13892,无物业管理服务,-,辽宁,0,二手房,1994
中山区高尚路28-1号,大连,无开发商,中山,20191106,-,-,高洁巷,48,11048,街道办事处（居委会）代管物业,0.5,辽宁,3,二手房,1990
中山区益民街16号1层1号,大连,中海地产,中山,20191106,-,-,中海海港城,105,18654,中海物业,4.2,辽宁,3,二手房,2013
沙河口区五一路110-4号,大连,大连大重房屋开发有限公司,沙河口,20191106,38.913544290955585,121.59450670056631,星台花园一期,30,16782,大连大重房屋开发公司物业管理中心,-,辽宁,2,二手房,1995
金州区凤翔路220号,大连,大连鸿玮置业有限公司,金州,20191106,-,-,鸿玮澜山一期,37,16384,大连鸿玮物业服务有限公司,1.8,辽宁,0,二手房,2009
甘井子区红旗西路104-23,大连,大连安邦房地产开发有限公司,甘井子,20191106,38.94010724023189,121.52821327206625,水畔香谷,19,14812,大连万科绿色家园物业有限公司,1,辽宁,1,二手房,2006
无门店信息,大连,大连万林房地产开发有限公司,甘井子,20191106,30.180169551389184,121.25032534611526,我爱我家,23,14518,大连溪谷阳光物业服务有限公司,1.3,辽宁,3,二手房,2010
沙河口区五四路207-1-9号,大连,无开发商,沙河口,20191106,38.913544290955585,121.59450670056631,成仁街,16,12559,无物业管理服务,-,辽宁,1,二手房,1992
大连市高新园区七贤中路63号,大连,大连乾丞房地产开发有限公司,高新园区,20191106,38.86679409176974,121.53003702089566,昊宇山海湾,23,22888,大连三和住邦物业管理有限公司,2.6,辽宁,3,二手房,2015
无门店信息,大连,金辉地产,开发区,20191106,30.180169551389184,121.25032534611526,十里岗小区,60,5969,大连家欣物业管理有限公司,0.5,辽宁,5,二手房,1993
开发区东北三街94号1层,大连,无开发商,开发区,20191106,-,-,倚平里,53,8424,街道办事处（居委会）代管物业,0.5,辽宁,0,二手房,2000
金州区光明街道育才街42-6号1-2层,大连,无开发商,金州,20191106,39.109080894078986,121.7182584929096,光明小区(金州),15,9062,无物业管理服务,0.5,辽宁,0,二手房,1989
西岗区胜利路33号,大连,大连渤海红旗集团有限公司,西岗,20191106,38.91309771954841,121.62500886627636,金领公寓,5,24910,大连达冈物业管理有限公司,0.6,辽宁,0,二手房,2002
西岗区鞍山路65-5号,大连,大连恒利房屋开发有限公司,沙河口,20191106,38.92744986197432,121.6160902313596,中长花园,10,13405,大连金星物业管理中心,0.5,辽宁,0,二手房,2000
开发区润海园中区62-9,大连,大连金港集团有限公司,开发区,20191106,38.874040993300795,115.4830376957069,大连海湾城三期,35,12699,大连金广物业服务有限公司,3,辽宁,2,二手房,2015
中山区鲁迅路204号百盛新药特药商店一楼西侧部分,大连,无开发商,中山,20191106,39.9147049990078,116.36441634512978,学士街（寺儿沟商圈）,6,13748,无物业管理服务,1.2,辽宁,0,二手房,1994
沙河口区西南路358号1—2号,大连,大连中城房地产开发有限公司,沙河口,20191106,38.957570058826505,121.5941753506976,中城公园里,14,20313,渤海吉祥物业管理有限公司,1.8,辽宁,4,二手房,2008
甘井子区凌秀路37号-1链家地产,大连,大连恒瑞房地产开发有限公司,高新园区,20191106,38.88345528357004,121.51710016392427,大湖山语,28,20615,大连龙湖物业服务有限公司,2.8,辽宁,2,二手房,2010
无门店信息,大连,大连外贸集团开发公司,中山,20191106,30.180169551389184,121.25032534611526,山岭巷,15,13246,无物业管理服务,-,辽宁,0,二手房,1994
甘井子区惠泽南园3-4号,大连,大连鑫河房地产开发有限公司,甘井子,20191106,38.938501462398555,121.52090556572563,绿色家园,11,12025,绿色家园物业管理有限公司,0.3,辽宁,4,二手房,2004
甘井子区金家街17-7号,大连,大连衡锐房屋开发有限公司,甘井子,20191106,38.97480310842784,121.60132011879159,衡逸园一期,24,19522,大连衡锐物业管理公司,1,辽宁,1,二手房,2008
中山区中南路店212号门头房,大连,无开发商,中山,20191106,38.91149759691359,121.67700561077149,转山小区,16,13373,大连怡和物业服务有限公司,0.3,辽宁,2,二手房,1989
金州区光明街道育才街42-6号1-2层,大连,无开发商,金州,20191106,39.109080894078986,121.7182584929096,味食小区,23,9375,大连大众物业管理有限公司,0.5,辽宁,1,二手房,1988
沙河口区西南路40号楼,大连,大连金通房屋开发有限公司,沙河口,20191106,38.957570058826505,121.5941753506976,海韵花园,11,12810,大连金通物业管理有限公司,0.4,辽宁,2,二手房,1998
甘井子区红旗西路104-23,大连,大连盛达实业总公司,甘井子,20191106,38.94010724023189,121.52821327206625,盛新园,36,12494,大连盛新物业管理有限公司,0.3,辽宁,2,二手房,2000
金州区小平岛B组团4号楼3号商铺,大连,大连圣岛房地产开发有限公司,高新园区,20191106,39.05643299166072,121.78943558267059,小平岛揽海名寓,41,20218,大连凯尔富物业管理有限公司,1.7,辽宁,0,二手房,2010
中山区同心街72号1楼公建,大连,无开发商,中山,20191106,-,-,自卫街（昆明街）,3,15573,无物业管理服务,-,辽宁,1,二手房,1991
中山区华乐街107-115号,大连,大连复城置业有限公司,中山,20191106,-,-,星光耀广场,29,25097,上海复瑞物业管理有限公司大连分公司,4.8,辽宁,0,二手房,2015
甘井子区泉水P3区35-2号,大连,大连市建设控股有限公司,甘井子,20191106,39.01647201716373,121.63841353829972,泉水P2区,14,11720,大连优豪斯物业服务有限公司,1.2,辽宁,8,二手房,2010
甘井子区红旗中路143号1层4号,大连,亿海房地产开发有限公司,甘井子,20191106,38.93167404222125,121.54265682632716,水苑居,11,16676,大连万泰物业管理有限公司,0.6,辽宁,2,二手房,2003
中山区同心街72号1楼公建,大连,无开发商,中山,20191106,-,-,昆明街（五卅街）,3,14958,无物业管理服务,-,辽宁,1,二手房,1991
金州区先进街道渤海街1-4号1-2层,大连,无开发商,金州,20191106,40.772228074426124,120.86872417734057,金州东山路小区,28,7374,无物业管理服务,0.1,辽宁,1,二手房,1990
金州区同济路44号,大连,大连市金州区光明房地产开发有限公司,金州,20191106,-,-,绿苑小区,54,7815,街道办事处（居委会）代管物业,0.5,辽宁,0,二手房,2000
金州区站前街道盛滨花园B区13号楼2号公建,大连,无开发商,金州,20191106,45.99097122507798,126.6190342032363,联胜小区,34,7131,街道办事处（居委会）代管物业,0.5,辽宁,2,二手房,1990
甘井子区玉丽街39号楼3号公建,大连,大连乾元房地产开发有限公司,甘井子,20191106,38.98482355118447,121.56451739992956,和合美家,13,13966,大连广兴物业管理有限公司,0.8,辽宁,1,二手房,1998
沙河口区锦霞南园1号1层公建,大连,大连锦绣房地产开发有限公司,沙河口,20191106,38.947220989087214,121.5534739913121,锦虹南园,26,10966,大连锦绣物业管理有限公司,0.3,辽宁,2,二手房,1998
开发区高新里6栋-8,大连,无开发商,开发区,20191106,39.0385064328372,117.63629747262576,新港家园,31,8821,龙祥物业管理有限公司,0.3,辽宁,2,二手房,2003
甘井子区哲林北园17-6号,大连,大连亿达美加房地产开发有限公司,甘井子,20191106,38.960147524191875,121.5383904536635,第五郡三号地公寓,33,15366,亿达物业管理有限公司,2.2,辽宁,2,二手房,2012
沙河口区鞍山路65号美都园7号1单元1层4号公建,大连,大连正源房地产开发有限公司,沙河口,20191106,38.92727525772336,121.60296423346817,正源小区,18,11725,大连正源物业服务有限公司,0.3,辽宁,1,二手房,1998
中山区鲁迅路184号1层B—A,大连,无开发商,中山,20191106,-,-,新柳街,8,14053,无物业管理服务,-,辽宁,0,二手房,1985
大连市沙河口区知邻街50号,大连,大连亿达房地产股份有限公司,沙河口,20191106,38.913544290955585,121.59450670056631,东方圣荷西,46,24129,亿达物业管理有限公司,2.6,辽宁,1,二手房,2006
金州区拥政街道733号-8号1-2层,大连,大连盛铭资产管理有限公司,金州,20191106,39.13676206430574,121.75331451150412,安盛花园（金州）,23,10694,大连经济技术开发区海青物业有限公司,1,辽宁,1,二手房,2000
开发区金源南里14栋-11号一层部分，14号-12号一层部分,大连,大连开建房地产开发有限公司,开发区,20191106,39.061002337435596,121.82187420311087,金北花园小区,39,8462,嘉兴物业管理有限公司,0.3,辽宁,0,二手房,1997
甘井子区祥龙街2号楼1单元1楼1号,大连,大连市大钢集团,甘井子,20191106,38.98801508597683,121.60467293990413,华南沃尔玛六一路,32,12444,街道办事处（居委会）代管物业,0.5,辽宁,0,二手房,1990
金州新区八一路金都嘉园1号楼1号公建,大连,大连友谊合升房地产开发有限公司,金州,20191106,39.120594541290394,121.72066355859046,宏意小区,56,6931,大连天河物业管理有限公司,0.4,辽宁,3,二手房,2000
中山区金城街26号一楼,大连,无开发商,中山,20191106,-,-,九中白兰街,17,35260,无物业管理服务,-,辽宁,1,二手房,1985
中山区金城街26号一楼,大连,无开发商,中山,20191106,-,-,九中武汉街,8,38806,无物业管理服务,-,辽宁,1,二手房,1986
西岗区绕山路31号公建一层东侧,大连,无开发商,西岗,20191106,38.90257514466717,121.61412736644739,和云巷,29,10107,无物业管理服务,-,辽宁,0,二手房,1990
西岗区黄河路82号,大连,陕西亿润经贸有限公司,西岗,20191106,38.92243503020161,121.6287927913896,建设街（大菜市商圈）,12,12945,无物业管理服务,26,辽宁,0,二手房,1970
开发区鹏程家园66#-6、66#-7公建,大连,大连新天润企业集团有限公司,开发区,20191106,40.11387603155845,116.28558455696562,水御兰庭,32,10165,大连港力物业管理有限公司,1.1,辽宁,1,二手房,2006
无门店信息,大连,无开发商,西岗,20191106,30.180169551389184,121.25032534611526,双兴财富长街（大菜市商圈）,37,14040,街道办事处（居委会）代管物业,0.5,辽宁,3,二手房,1990
西岗区平等街21号1层2号,大连,辽宁宁安房地产开发有限公司,西岗,20191106,38.92238510410197,121.63208000655584,良玖国际,56,16039,大连良玖物业管理有限责任公司,3.7,辽宁,2,二手房,2004
无门店信息,大连,平谷地产发展（大连）有限公司,金州,20191106,30.180169551389184,121.25032534611526,平谷蓝熙庭,16,8219,平谷物业服务(大连)有限公司,1.8,辽宁,0,二手房,2010
开发区安盛里5栋-4,大连,大连华宇房地产开发有限公司,开发区,20191106,39.059647232769905,121.78442788877467,叠翠花香,25,9352,大连经济技术开发区永嘉物业管理有限公司,0.5,辽宁,2,二手房,1999
沙河口区黄河路535号,大连,大连春达房屋开发有限公司,沙河口,20191106,38.91773777159567,121.60217159922856,79中数控大厦,10,23789,大连欧德物业管理有限公司,1.2,辽宁,0,二手房,1998
甘井子区祥龙街2号楼1单元1楼1号,大连,无开发商,甘井子,20191106,38.98801508597683,121.60467293990413,金荣路,5,12787,无物业管理服务,-,辽宁,1,二手房,1990
高新园区黄浦路901S号1单元1层3号,大连,大连金真源集团房地产开发有限公司,高新园区,20191106,22.732184994953588,113.92008598519837,山海一家二期,27,13746,大连龙海物业管理有限公司,0.8,辽宁,3,二手房,2005
沙河口区长江路738号,大连,大连民兴房地产开发有限公司,沙河口,20191106,38.913544290955585,121.59450670056631,79中民兴花园一期,9,27034,大连衡德物业管理有限公司,1.2,辽宁,0,二手房,1990
沙河口区锦霞南园1号1层公建,大连,大连锦绣房地产开发有限公司,沙河口,20191106,38.947220989087214,121.5534739913121,锦虹北园,26,12064,大连锦绣物业管理有限公司,0.3,辽宁,2,二手房,1996
中山区益民街16号1层1号,大连,无开发商,中山,20191106,-,-,益民街（三八广场）,8,13510,无物业管理服务,-,辽宁,0,二手房,1990
大连市甘井子区融田西园52-11,大连,亿达集团大连科技城发展有限公司,甘井子,20191106,38.98557650073852,121.45981818596117,亿达春田馥园,68,20620,亿达物业管理有限公司,2.2,辽宁,1,二手房,2008
甘井子区迎客路郭东街一品蓝天公建14号,大连,鹏基,甘井子,20191106,38.959946085923114,121.56226301242172,军休家园,0,13112,无物业管理服务,1,辽宁,1,二手房,1990
沙河口区杨树街4-4号公建,大连,无开发商,高新园区,20191106,38.88474287539157,121.55152152428616,龙江路（学府商圈）,6,14903,无物业管理服务,-,辽宁,1,二手房,1992
甘井子区红旗中路143号1层4号,大连,大连红旗兴达房地产开发有限公司,甘井子,20191106,38.93167404222125,121.54265682632716,吉祥街,8,11878,大连金诚物业管理有限公司,0.2,辽宁,1,二手房,1996
沙河口区五一路110-4号,大连,大连大重房屋开发有限公司,沙河口,20191106,38.913544290955585,121.59450670056631,星台花园二期,32,23609,大连大重房屋开发公司物业管理中心,0.4,辽宁,1,二手房,1995
无门店信息,大连,芙蓉置业有限公司,甘井子,20191106,30.180169551389184,121.25032534611526,芙蓉公寓,9,9809,大连广丰物业管理有限公司,0.5,辽宁,0,二手房,2002
无门店信息,大连,大连航宇房屋开发有限公司,甘井子,20191106,30.180169551389184,121.25032534611526,西郊棠梨园,16,12230,渤海吉祥物业管理有限公司,0.3,辽宁,2,二手房,2005
中山区民建街10号1单元1号,大连,无开发商,中山,20191106,-,-,39中民建街,18,19963,无物业管理服务,-,辽宁,0,二手房,1995
大连市金州区友谊街道南金华城25号1-2层1号,大连,大连金华房地产开发有限公司,金州,20191106,39.12522112524333,121.70944662699253,金华小区三期,12,9327,大连金华兴物业有限公司,1.2,辽宁,0,二手房,2006
沙河口区星海广场B3区14-9,大连,大连友谊合升房地产开发有限公司,沙河口,20191106,38.88729825910329,121.5873174717394,壹品星海二期,20,26185,暂无信息,1.9,辽宁,2,二手房,2007
开发区东北三街94号1层,大连,大连同济房地产开发有限公司,开发区,20191106,-,-,新东方公寓三期,80,6741,大连同济物业管理有限公司,1.5,辽宁,2,二手房,2005
沙河口区黄河路883号,大连,无开发商,沙河口,20191106,38.919826721475204,121.57749657966676,西南路（辽师商圈）,6,11397,无物业管理服务,-,辽宁,0,二手房,1990
沙河口区西南路643号,大连,无开发商,沙河口,20191106,38.943483429804665,121.5833555851182,恒达花园（沙河口）,15,12215,无物业管理服务,-,辽宁,2,二手房,1990
沙河口区连山街10号2-1-2,大连,大连宝嘉房地产有限公司,沙河口,20191106,38.89637522563413,121.57143690983219,星海名庭,11,22297,大连斌宏物业管理有限公司,0.6,辽宁,0,二手房,2005
大连市甘井子区银田北园14号,大连,亿达集团大连房地产开发有限公司,甘井子,20191106,38.975257114687004,121.47233104273184,亿达春田银杏园,86,18194,亿达物业管理有限公司,2.2,辽宁,2,二手房,2005
甘井子区迎客路郭东街一品蓝天公建14号,大连,沈阳军区后勤部,甘井子,20191106,38.959946085923114,121.56226301242172,金寓花园三期,9,17986,大连瑞祥物业管理有限公司,1,辽宁,0,二手房,2008
中山区民建街10号1单元1号,大连,无开发商,中山,20191106,-,-,建华巷（三八广场）,6,14915,无物业管理服务,-,辽宁,1,二手房,1990
大连市甘井子区张前路620-18号（第19幢1单元1跃2层14号）,大连,无开发商,甘井子,20191106,38.98764207496216,121.52409526893047,嘉安边防家园,15,12804,大连新型物业管理有限公司,1,辽宁,0,二手房,1998
中山区北斗街53号1层1号,大连,无开发商,中山,20191106,-,-,鲁迅路（二七商圈）,4,13695,无物业管理服务,-,辽宁,0,二手房,1996
中山区武昌街武昌公寓6号公建,大连,无开发商,中山,20191106,38.91228859884737,121.64922302816238,麒麟东巷,7,11762,无物业管理服务,-,辽宁,1,二手房,1988
甘井子区锦城西园4#3-1-1,大连,大连锦绣房地产开发有限公司,甘井子,20191106,38.953393065530655,121.54997859474221,锦城西园,28,19463,大连锦绣锦城园物业,0.6,辽宁,5,二手房,2006
甘井子区华龙南园12-4-3-1-3,大连,中信集团大连中信房地产开发公司,甘井子,20191106,38.98345196891376,121.61280105159922,惠丰小区,33,10431,大连中信物业管理有限公司,0.2,辽宁,2,二手房,1989
中山区南山路59号1层4号,大连,无开发商,中山,20191106,-,-,昆明街（正阳街）,3,16776,无物业管理服务,-,辽宁,0,二手房,1980
甘井子区华东路33-5号,大连,无,甘井子,20191106,38.97497080220593,121.59479866243332,巾帼小区,35,12050,大连新华物业管理有限公司,-,辽宁,1,二手房,1993
无门店信息,大连,大连金房置业代理有限公司,旅顺口,20191106,30.180169551389184,121.25032534611526,金川家园,32,12290,大连恒峰皓物业管理有限公司,-,辽宁,0,二手房,1994
中山区爱华街13号,大连,无开发商,中山,20191106,-,-,九中一德街,11,42193,无物业管理服务,-,辽宁,1,二手房,1970
开发区安盛里5栋-4,大连,大连新苑房地产开发有限公司,开发区,20191106,39.059647232769905,121.78442788877467,绿色新苑,16,12620,大连利堃物业管理有限公司,0.8,辽宁,0,二手房,2001
大连经济技术开发区同和里7栋-9号,大连,无开发商,开发区,20191106,39.048927198281376,121.78822322955432,新月里,25,9323,街道办事处（居委会）代管物业,0.5,辽宁,1,二手房,1998
大连市金州新区中长街道碧海尚城5-4号1-2层,大连,无开发商,金州,20191106,39.10021735658639,121.73039615980777,于洼小区,76,7373,街道办事处（居委会）代管物业,0.1,辽宁,1,二手房,1985
西岗区鞍山路65-5号,大连,大连华阳房地产开发有限公司,沙河口,20191106,38.92744986197432,121.6160902313596,华阳风尚,17,17390,北京凯莱物业管理有限公司大连分公司,1.3,辽宁,0,二手房,2009
沙河口区西南路40号楼,大连,大连昊东房地产开发有限公司,沙河口,20191106,38.957570058826505,121.5941753506976,星海国府,14,20658,大连戴德梁行物业管理有限公司,2.5,辽宁,2,二手房,1999
中山区中南路226号,大连,大连国合嘉汇房地产开发有限公司,中山,20191106,-,-,枫合万嘉,29,23610,大连国合物业管理有限公司,1,辽宁,2,二手房,2005
沙河口区沙能街101号1单元1层1号,大连,大连大力置业有限公司,沙河口,20191106,38.9366316275348,121.59031205759763,机车佳苑,10,15094,大连大力物业管理有限公司,1.5,辽宁,0,二手房,2007
西岗区八一路102号,大连,无开发商,西岗,20191106,-,-,安泰巷,2,14217,无物业管理服务,-,辽宁,0,二手房,1990
开发区松苑街23号,大连,大连众益神州地产开发有限公司,开发区,20191106,-,-,松海庄园二期,11,13054,大连万达物业管理有限公司,0.5,辽宁,0,二手房,2000
中山区岭前街53-5,大连,大连铭泰房地产开发有限公司,中山,20191106,-,-,锦府桃源,19,23976,大连意美物业服务有限公司,1.2,辽宁,1,二手房,2000
开发区金马路169-2-6号房屋,大连,大连亿锋集团有限公司,开发区,20191106,-,-,铜锣湾,45,10566,亿锋豪景物业管理有限公司,1.2,辽宁,0,二手房,2004
开发区红梅小区19栋-2-1-1号,大连,大连开发区世元房地产开发有限公司,开发区,20191106,31.221199854965864,121.37046203010317,世元国际公寓,32,11737,大连世元物业管理有限公司,2,辽宁,1,二手房,2000
甘井子区绿洲园63—14号,大连,大连泰华房地产开发有限公司,甘井子,20191106,38.95630810400415,121.59521950598848,泰华府邸,20,19095,大连华安物业管理有限公司,1.5,辽宁,2,二手房,2009
甘井子区红旗西路104-23,大连,大连鹏德房屋开发有限公司,甘井子,20191106,38.94010724023189,121.52821327206625,逸林派,28,15061,大连三和住邦物业管理有限公司,1.6,辽宁,2,二手房,2010
莲花山路89-3号,大连,"""浙江富园房地产开发有限公司",沙河口,20191106,-,-,美丽巷,3,12756,大连恒诚物业管理有限公司,-,辽宁,0,二手房,1985
中山区金城街26号一楼,大连,辽宁远大房屋开发有限公司,中山,20191106,-,-,远大大厦,45,10105,街道办事处（居委会）代管物业,2.5,辽宁,1,二手房,1997
金州区五一路先进街道 陶然居2-2,大连,大连昌临房地产开发有限公司,金州,20191106,40.09243081535254,116.39318341128967,昌临家园,23,10228,金碧物业有限公司大连分公司,1.5,辽宁,0,二手房,2008
甘井子区甘井子路32号楼1单元1楼9号,大连,大连和华房地产开发有限公司,甘井子,20191106,38.984925359284546,121.63668420587094,万成御园,18,14742,大连银力物业管理有限公司,1.3,辽宁,1,二手房,2010
无门店信息,大连,大连泰达新城建设发展有限公司,甘井子,20191106,30.180169551389184,121.25032534611526,泰达青筑,60,11473,大连三和住邦物业管理有限公司,2.2,辽宁,2,二手房,2012
中山区东港龙湖水晶郦湾7-102,大连,恒大集团,中山,20191106,38.92669181279922,121.70540350390917,恒大四季上东,11,29275,金碧物业有限公司大连分公司,3.8,辽宁,0,二手房,2015
大连市高新园区七贤中路63号,大连,大连鑫亿房屋开发有限公司,高新园区,20191106,38.86679409176974,121.53003702089566,瑞丰园,12,14970,无物业管理服务,0.8,辽宁,2,二手房,1999
无门店信息,大连,大连金石文化旅游投资有限公司,金州,20191106,30.180169551389184,121.25032534611526,大连金石天成,55,8848,大连万达物业管理有限公司,1.5,辽宁,0,二手房,2008
沙河口区杨树街4-4号公建,大连,无开发商,高新园区,20191106,38.88474287539157,121.55152152428616,育明高中,6,18251,无物业管理服务,-,辽宁,1,二手房,1995
甘井子区甘井子路32号楼1单元1楼9号,大连,大连市建设控股有限公司,甘井子,20191106,38.984925359284546,121.63668420587094,胜景家园,17,12806,街道办事处（居委会）代管物业,0.9,辽宁,2,二手房,2008
西岗区中山路158号唐山街市场外14号,大连,"""苍南县中富房地产开发有限公司",西岗,20191106,38.916850280573215,121.63201984883244,34中松花街,16,26866,无物业管理服务,-,辽宁,2,二手房,1980
金州区鹏程家园53#-8,大连,大连软微房地产开发有限公司,开发区,20191106,39.032897250492695,121.80966039224444,深蓝半英里,21,9571,大连豪斯威物业管理有限公司,1.2,辽宁,3,二手房,2006
中山区中南路226号,大连,大连亿泰房屋开发有限公司,中山,20191106,-,-,亿泰庄园,14,15170,大连远洋基业物业管理有限公司,0.7,辽宁,0,二手房,1999
沙河口区富静街26号1单元1层5号,大连,大连大重房屋开发有限公司,沙河口,20191106,38.908727606250466,121.58667844684369,星河璞园,3,19648,大连大重房屋开发公司物业管理中心,0.5,辽宁,0,二手房,2002
沙河口区黑石礁街5号1层1号,大连,大连鹏生房地产开发有限公司,沙河口,20191106,38.87949716810132,121.56306843044705,鹏辉广场,17,17511,大连新兴物业管理有限公司,0.5,辽宁,2,二手房,2000
中山区三八广场5号,大连,无开发商,中山,20191106,38.92614664480926,121.66384735203427,捷胜街,4,14771,无物业管理服务,-,辽宁,0,二手房,1995
中山区金城街26号一楼,大连,无开发商,中山,20191106,-,-,39中白兰街（南山商圈）,7,25344,无物业管理服务,-,辽宁,1,二手房,1993
沙河口区五一路219-1,大连,大连圣北房地产有限公司,沙河口,20191106,38.913544290955585,121.59450670056631,电业花园,8,14337,大连市沙河口房产物业管理有限公司,0.3,辽宁,0,二手房,1999
无门店信息,大连,大连祥和房屋开发有限公司,甘井子,20191106,30.180169551389184,121.25032534611526,祥和花园,37,12693,大连市大北物业管理有限公司,0.4,辽宁,0,二手房,1988
沙河口区连山街10号2-1-2,大连,大连国合嘉汇房地产开发有限公司,沙河口,20191106,38.89637522563413,121.57143690983219,嘉汇星海,3,18839,大连国合物业管理有限公司,0.5,辽宁,2,二手房,2004
大连市沙河口区西南路875号1层21号,大连,无开发商,沙河口,20191106,38.94485969061231,121.58418648447764,西南路（春柳商圈）,12,11735,大连三宝物业有限公司,0.5,辽宁,1,二手房,1980
中山区金城街26号一楼,大连,无开发商,中山,20191106,-,-,39中南山街,12,26707,无物业管理服务,-,辽宁,1,二手房,1985
甘井子区海口路77—5号,大连,陕西亿润经贸有限公司,甘井子,20191106,38.9604837935147,121.60363900822827,鹏辉新世纪五期,7,19505,大连鹏辉物业管理有限公司,0.6,辽宁,1,二手房,2009
沙河口区中山路417A-4号,大连,大连宝嘉房地产有限公司,沙河口,20191106,38.90734671814175,121.59482182703752,德源,8,28208,大连中和信邦物业管理有限公司,1.9,辽宁,0,二手房,2008
沙河口区富国街34-3,大连,大连万达房地产开发有限公司,沙河口,20191106,38.90160543169978,121.58920762600702,星海自由港,10,20842,大连万景物业管理有限公司,1.2,辽宁,5,二手房,2002
沙河口区知心园10号公建,大连,大连亿达房地产股份有限公司,高新园区,20191106,38.891243106520726,121.55477401904612,亿达康派公寓,26,17050,亿达物业管理有限公司,2.2,辽宁,1,二手房,2005
中山区益民街16号1层1号,大连,无开发商,中山,20191106,-,-,自强街（三八广场）,4,15167,无物业管理服务,-,辽宁,0,二手房,1993
大连市甘井子区逸林南园1-1号,大连,金州城建局，开发区城建局,甘井子,20191106,38.95308393445654,121.52848968965472,张前路辛寨子基地,5,10897,暂无信息,1.8,辽宁,0,二手房,1995
中山区益民街16号1层1号,大连,无开发商,中山,20191106,-,-,丹东街（三八广场）,13,15175,无物业管理服务,-,辽宁,0,二手房,1993
沙河口区新生路万客园3-7,大连,大连中海兴业房地产开发有限公司,沙河口,20191106,38.944299189744086,121.56963792099752,中海天赋山一期,23,22711,大连中海物业管理有限公司,2.8,辽宁,1,二手房,2014
沙河口区联合路133号,大连,亿达集团大连房地产开发有限公司,沙河口,20191106,38.91608561262676,121.60480987310456,21中亿达广场,3,16229,亿达物业管理有限公司,1.2,辽宁,1,二手房,1999
沙河口区中山路417A-4号,大连,大连新希望家园房地产有限公司,沙河口,20191106,38.90734671814175,121.59482182703752,新希望花园,40,20297,大连乾峰物业管理有限公司,1.3,辽宁,1,二手房,2002
甘井子区金家街17-7号,大连,大连新型房地产开发有限公司,甘井子,20191106,38.97480310842784,121.60132011879159,翰林苑,7,22619,大连新兴物业管理有限公司,2,辽宁,0,二手房,2014
中山区华乐街71号公建,大连,大连振屹房屋开发有限公司,中山,20191106,-,-,春华山小区,25,10771,无物业管理服务,-,辽宁,1,二手房,1985
大连市甘井子区丰收路3-5号,大连,大连亿海房地产开发有限公司,甘井子,20191106,38.96529215075825,121.58263640806423,亿海盛都,25,20670,街道办事处（居委会）代管物业,0.5,辽宁,1,二手房,2002
无门店信息,大连,无开发商,金州,20191106,30.180169551389184,121.25032534611526,香山翌景,21,7464,街道办事处（居委会）代管物业,0.5,辽宁,2,二手房,2000
甘井子区西南路979-7号公建,大连,大连祥盛房屋开发有限公司,甘井子,20191106,38.96197066281671,121.59569104002526,金盛家园,70,17649,大连宏华物业管理有限公司,0.5,辽宁,0,二手房,2001
沙河口区新生路万客园3-7,大连,中海地产,沙河口,20191106,38.944299189744086,121.56963792099752,中海天赋山二期,30,19908,大连中海物业管理有限公司,2.8,辽宁,0,二手房,2013
中山区民建街10号1单元1号,大连,无开发商,中山,20191106,-,-,39中太阳街,20,20848,无物业管理服务,-,辽宁,4,二手房,1990
开发区兴城路29-81层,大连,大连瑞宇置业有限公司,开发区,20191106,31.034617638958906,121.6024718650317,心海阳光,12,12780,大连经济技术开发区盛辉物业服务有限公司,1.8,辽宁,0,二手房,2010
大连市甘井子区丰收路3-5号,大连,大连邦德房屋开发有限公司,甘井子,20191106,38.96529215075825,121.58263640806423,芙蓉人家,45,19788,大连广丰物业管理有限公司,0.9,辽宁,0,二手房,2006
中山区华乐街71号公建,大连,大连众和房地产开发有限公司,中山,20191106,-,-,东港印象C区,9,23678,大连众和物业管理有限公司,1.2,辽宁,0,二手房,2008
沙河口区鞍山路65号美都园7号1单元1层4号公建,大连,远洋地产有限公司,沙河口,20191106,38.92727525772336,121.60296423346817,绿都园,17,14472,大连峰霖物业管理有限公司,0.6,辽宁,0,二手房,2000
甘井子区虹港路391号第五幢1单元1跃2层3号,大连,大连加尔伦房地产开发有限公司,甘井子,20191106,38.965637426914874,121.53971372684923,万科金域华府,25,21634,大连万科物业服务有限公司,3,辽宁,2,二手房,2015
无门店信息,大连,无开发商,开发区,20191106,30.180169551389184,121.25032534611526,岗林里,48,6908,大连经济技术开发区海青物业有限公司,0.5,辽宁,3,二手房,1995
沙河口区西南路358号1—2号,大连,大连恒安房地产开发有限公司,沙河口,20191106,38.957570058826505,121.5941753506976,水芙山竹,15,20415,大连上达物业管理有限公司,0.6,辽宁,0,二手房,2005
中山区高尚路28-1号,大连,无开发商,中山,20191106,-,-,宪卫里,21,10411,无物业管理服务,0.5,辽宁,1,二手房,1990
大连经济技术开发区时代城4-3号1-2号,大连,重庆汇东房地产开发有限公司,开发区,20191106,39.099240729673085,121.83016062228765,摩宿公寓,81,7305,大连远洋基业物业管理有限公司,1.5,辽宁,3,二手房,2009
无门店信息,大连,大连盈丰置业有限公司,金州,20191106,30.180169551389184,121.25032534611526,尚海华庭,40,9222,大连盈丰置业有限公司,1.3,辽宁,3,二手房,2005
西岗区八一路196号2-1-12号,大连,大连欧美亚房地产开发有限公司,西岗,20191106,-,-,中华名城,41,19202,大连峰霖物业管理有限公司,1.5,辽宁,1,二手房,2002
"西岗区泰公街20号2层7号 西岗区久寿街22号1层14号""",大连,大连万达房地产开发有限公司,西岗,20191106,38.92600196862723,121.62141976476381,新春小区,5,16082,大连长青物业管理中心,0.2,辽宁,0,二手房,1995
沙河口区星海广场B3区14-2号1层,大连,华润置地（大连）有限公司,沙河口,20191106,38.88729825910329,121.5873174717394,星海湾壹号,45,50827,华润物业（大连）有限公司,4.8,辽宁,0,二手房,2006
无门店信息,大连,大连明和兆泰置业有限公司,开发区,20191106,30.180169551389184,121.25032534611526,知润山,31,11478,大连华安物业管理有限公司,1,辽宁,3,二手房,2005
大连开发区金马路169-2-8号,大连,大连德泰控股有限公司,开发区,20191106,39.05541129821298,121.7828373490387,德泰时代广场,41,13602,大连德泰物业管理有限公司,0.5,辽宁,1,二手房,2010
高新园区红凌路732-4号,大连,大华集团大连房地产开发有限公司,高新园区,20191106,22.732184994953588,113.92008598519837,大华爱琴湾,61,21431,大连大华物业管理有限公司,1.8,辽宁,1,二手房,2010
甘井子区惠泽南园3-7号,大连,大连利丰房地产开发有限公司,甘井子,20191106,38.93939880525501,121.52338470927208,国安宜居,11,19734,大连易明物业服务有限公司,2,辽宁,1,二手房,2014
金州区同济路44号,大连,大连金州金山房地产开发有限公司,金州,20191106,-,-,金山苑小区,26,9252,大连金山物业管理有限公司,-,辽宁,0,二手房,2000
中山区东港龙湖水晶郦湾7-102,大连,大连盈盛房地产开发有限公司,中山,20191106,38.92669181279922,121.70540350390917,保利天禧二期 禧岸1903,43,27855,保利物业服务有限公司,4.8,辽宁,1,二手房,2018
沙河口区南沙街36号台二2号1-1-37,大连,大连三寰房屋开发有限公司,沙河口,20191106,38.90741410359388,121.57685699961822,南平花园,12,17035,大连上达物业管理有限公司,0.3,辽宁,1,二手房,2001
甘井子区虹港路16号楼1层公建,大连,沈阳军区后勤部,甘井子,20191106,38.965637426914874,121.53971372684923,金寓花园四期,6,19211,大连大管家物业管理有限公司,1,辽宁,0,二手房,2000
中山区民建街10号1单元1号,大连,无开发商,中山,20191106,-,-,39中爱阳街,28,19319,无物业管理服务,-,辽宁,1,二手房,1993
开发区金马路169-2-6号房屋,大连,无开发商,开发区,20191106,-,-,收获公寓,18,7136,街道办事处（居委会）代管物业,0.5,辽宁,2,二手房,2000
甘井子区泉水B5区27-9,大连,大连万锦房地产开发有限公司,甘井子,20191106,39.014810555776016,121.60976819253642,万锦民悦一期,19,13254,大连瑞祥物业管理有限公司,0.5,辽宁,0,二手房,2007
西岗区八一路196号1-3,大连,无开发商,西岗,20191106,-,-,三环街（八一路商圈）,5,12090,无物业管理服务,-,辽宁,0,二手房,1990
西岗区康平街2号（5号楼3-1-3号）,大连,大连振屹房屋开发有限公司,西岗,20191106,38.91044414697888,121.61980769264477,水仙名苑,9,23937,大连广信物业管理有限公司,0.5,辽宁,0,二手房,1997
开发区东北三街94号1层,大连,大连同济房地产开发有限公司,开发区,20191106,-,-,新东方公寓二期,48,5685,大连同济物业管理有限公司,1.5,辽宁,4,二手房,2003
沙河口区五四路207-1-9号,大连,无开发商,沙河口,20191106,38.913544290955585,121.59450670056631,集贤北街,5,14449,无物业管理服务,0.5,辽宁,1,二手房,1992
中山区杏林街66—5号,大连,无开发商,中山,20191106,-,-,39中开源巷,9,30547,街道办事处（居委会）代管物业,0.5,辽宁,2,二手房,1982
无门店信息,大连,大连康阳房屋开发有限公司,甘井子,20191106,30.180169551389184,121.25032534611526,南岭新城二期,55,15038,大连鸿诚物业管理有限公司,0.4,辽宁,1,二手房,2005
西岗区八一路102号,大连,无开发商,西岗,20191106,-,-,智勇西二巷,3,10281,无物业管理服务,-,辽宁,1,二手房,1993
无门店信息,大连,无开发商,西岗,20191106,30.180169551389184,121.25032534611526,华滨街（八一路）,8,12134,无物业管理服务,-,辽宁,2,二手房,1990
甘井子区惠泽南园3-7号,大连,大连长鹭房屋开发有限公司,甘井子,20191106,38.93939880525501,121.52338470927208,长鹭晶品逸林,11,20347,大连旺宇物业有限公司,1.9,辽宁,0,二手房,2016
中山区民运巷 47号1层2号,大连,无开发商,中山,20191106,38.90596760472461,121.64802701791827,民运巷,35,11462,无物业管理服务,-,辽宁,2,二手房,1985
西岗区黄河路90号公建部分,大连,万达集团,西岗,20191106,38.92234529815978,121.62829331825485,37中新开路,16,19218,无物业管理服务,-,辽宁,0,二手房,1993
中山区职工街96号1-3层公建,大连,无开发商,中山,20191106,37.211133989589015,122.06389576343967,新乐里（三八广场）,4,13757,无物业管理服务,-,辽宁,0,二手房,1993
中山区解放路471-22号,大连,大连青云天下房地产有限公司,中山,20191106,-,-,青云天下,11,24946,大连青云天下物业服务有限公司,4.3,辽宁,1,二手房,2015
无门店信息,大连,无开发商,西岗,20191106,30.180169551389184,121.25032534611526,先进街（胜利桥北商圈）,19,12127,无物业管理服务,-,辽宁,1,二手房,1990
金州区南棉路310号,大连,无开发商,金州,20191106,39.09939229372624,121.72414976100345,金色华庭,24,7473,大连阿尔滨集团物业管理有限公司,-,辽宁,3,二手房,2005
金州区拥政街道733号-8号1-2层,大连,重庆桥达茂宸房地产开发有限公司,金州,20191106,39.13676206430574,121.75331451150412,中长小区,44,7448,街道办事处（居委会）代管物业,1,辽宁,2,二手房,1981
中山区武昌街武昌公寓6号公建,大连,无开发商,中山,20191106,38.91228859884737,121.64922302816238,铁山巷,18,12350,无物业管理服务,0.5,辽宁,3,二手房,1990
莲花山路89-3号,大连,大连安邦房屋开发公司,沙河口,20191106,-,-,金地海景,12,14177,无物业管理服务,-,辽宁,1,二手房,2003
甘井子区玉丽街2号楼1单元4号公建,大连,大连新型企业集团,甘井子,20191106,38.98482355118447,121.56451739992956,玉山路,24,11159,大连新兴物业管理有限公司,0.5,辽宁,5,二手房,2002
西岗区胜利路33号,大连,大连新型企业集团,西岗,20191106,38.91309771954841,121.62500886627636,34中新开路,2,33884,无物业管理服务,-,辽宁,1,二手房,1990
中山区共建巷61号,大连,大连恒盛房屋开发有限公司,中山,20191106,-,-,月恒花园,7,27364,大连佳捷物业管理有限公司,0.8,辽宁,0,二手房,1999
无门店信息,大连,大连长鹭房屋开发有限公司,甘井子,20191106,30.180169551389184,121.25032534611526,晶品森岚,19,16449,大连旺宇物业有限公司,1.3,辽宁,0,二手房,2008
甘井子区促进路30号2-1-1,大连,大连泰安房地产开发有限公司,沙河口,20191106,38.954133128707575,121.58355746311207,春柳园,18,10385,街道办事处（居委会）代管物业,0.5,辽宁,1,二手房,1995
沙河口区五四路207-1-9号,大连,大连建兴房屋开发有限公司,沙河口,20191106,38.913544290955585,121.59450670056631,建兴花园小区,10,13695,大连建兴物业管理有限公司,0.4,辽宁,0,二手房,1997
中山区爱华街13号,大连,无开发商,中山,20191106,-,-,修竹街,9,12413,无物业管理服务,-,辽宁,1,二手房,1993
金州新区八一路金都嘉园1号楼1号公建,大连,大连海洋房地产开发有限公司,金州,20191106,39.120594541290394,121.72066355859046,金都嘉园,6,9088,街道办事处（居委会）代管物业,0.5,辽宁,1,二手房,2008
甘井子区汇仁街19号12号楼1单元102室,大连,大连华南房地产开发有限公司,甘井子,20191106,38.99746297497168,121.58917714380617,名贵山庄金盛园,16,15034,大连弘益达物业管理有限公司,0.5,辽宁,2,二手房,2002
中山区爱华街13号,大连,威新房地产开发(大连)有限公司,中山,20191106,-,-,中山九号,37,29336,大连金地物业管理有限公司,3.5,辽宁,1,二手房,2003
沙河口区恒利园42号-8,大连,大连新型房地产开发有限公司,沙河口,20191106,38.933735110041596,121.5800864717063,中铁十三局,13,14214,大连新兴物业管理有限公司,0.3,辽宁,1,二手房,1990
无门店信息,大连,无开发商,西岗,20191106,30.180169551389184,121.25032534611526,连海街（胜利桥北商圈）,4,12138,街道办事处（居委会）代管物业,0.5,辽宁,0,二手房,1984
西岗区平等街21号1层2号,大连,无开发商,西岗,20191106,38.92238510410197,121.63208000655584,连平街（大菜市商圈）,4,14407,街道办事处（居委会）代管物业,0.5,辽宁,0,二手房,1995
中山区益民街16号1层1号,大连,大连新世界大厦有限公司,中山,20191106,-,-,新世界名泷,41,14992,大连侨乐物业服务有限公司,5.9,辽宁,3,二手房,2006
沙河口区兰田街33号,大连,大连凭海房地产开发有限公司,沙河口,20191106,38.926138912221084,121.56486022834609,清熙园,3,15196,大连鑫诚物业有限公司,0.5,辽宁,0,二手房,2004
无门店信息,大连,大连纳帕溪谷温泉度假有限公司,金州,20191106,30.180169551389184,121.25032534611526,纳帕溪谷御山,44,9955,大连合昌物业服务有限公司,1,辽宁,1,二手房,1997
无门店信息,大连,合肥万科瑞翔地产有限公司,金州,20191106,30.180169551389184,121.25032534611526,天鸿展视界,38,7300,无物业管理服务,1,辽宁,0,二手房,2008
开发区东北三街94号1层,大连,无开发商,开发区,20191106,-,-,新云里,40,8487,街道办事处（居委会）代管物业,0.5,辽宁,0,二手房,1996
沙河口区昌黎街22号,大连,大连城市建设集团有限公司,沙河口,20191106,38.91996890280004,121.5915690169723,天兴罗斯福,38,16447,大连天兴物业管理有限公司,1.6,辽宁,0,二手房,2002
中山区金城街26号一楼,大连,无开发商,中山,20191106,-,-,39中金鼎公寓,2,17211,无物业管理服务,-,辽宁,0,二手房,1999
西岗区新田巷27号1-2,大连,无开发商,西岗,20191106,38.893215932589385,121.64103065169111,新月街,22,10666,无物业管理服务,-,辽宁,2,二手房,1990
沙河口区星海广场B3区14-9,大连,半岛集团,沙河口,20191106,38.88729825910329,121.5873174717394,半岛听涛,16,22539,大连半岛物业管理有限公司,2.6,辽宁,1,二手房,2007
甘井子区泉水B5区27-9,大连,大连康阳房屋开发有限公司,甘井子,20191106,39.014810555776016,121.60976819253642,南岭新城一期,28,12621,大连鸿诚物业管理有限公司,0.4,辽宁,0,二手房,2003
甘井子区华北路花锦园28号23-3-1-2建筑物,大连,大连鼎新恒盛房地产开发有限公司,甘井子,20191106,38.95301589317078,121.57219333068177,鼎新悦府,10,26340,大连万润物业服务有限公司,1.5,辽宁,1,二手房,2004
大连市金州新区中长街道碧海尚城5-4号1-2层,大连,大连市金州区房屋开发公司,金州,20191106,39.10021735658639,121.73039615980777,朝阳小区,39,7078,无物业管理服务,0.5,辽宁,0,二手房,1990
中山区爱华街13号,大连,无开发商,西岗,20191106,-,-,新生街,13,11458,无物业管理服务,-,辽宁,0,二手房,1990
中山区清溪南街11号,大连,无开发商,中山,20191106,25.073114551432106,121.54848354920179,小龙街,18,18321,无物业管理服务,0.5,辽宁,1,二手房,1985
无门店信息,大连,大连顺浩置业有限公司,开发区,20191106,30.180169551389184,121.25032534611526,上品公馆,43,10180,大连顺浩置业物业有限公司,3.8,辽宁,1,二手房,2010
金州区先进街道渤海街1-4号1-2层,大连,无开发商,金州,20191106,40.772228074426124,120.86872417734057,百畅园,21,7187,街道办事处（居委会）代管物业,0.5,辽宁,0,二手房,1999
大连市高新园区软件园路1A-3号,大连,大连软景房地产开发有限公司,高新园区,20191106,38.894037160822535,121.54670889743173,亿达软景中心,21,22364,亿达物业管理有限公司,3.5,辽宁,0,二手房,2005
无门店信息,大连,大连百年港湾商业开发有限公司,西岗,20191106,30.180169551389184,121.25032534611526,百年港湾,69,17543,大连百年港湾万科物业有限公司,3.5,辽宁,0,二手房,2014
无门店信息,大连,大连新兴海韵房地产开发有限公司,开发区,20191106,30.180169551389184,121.25032534611526,白石湾小区,20,10061,大连海韵物业管理有限公司,0.8,辽宁,0,二手房,1998
西岗区华北路100号1层5号,大连,大连双振房屋开发有限公司,沙河口,20191106,-,-,香茗苑,4,16169,大连双振物业有限公司,0.5,辽宁,2,二手房,2002
