address,city,developer,district,index_date,lat,lng,name,osv,price,property,property_fee,province,tv,type,year
甘井子区榆林街37号-12公建,大连,新型房地产开发有限公司,甘井子,20190706,38.980133141940186,121.52779506952932,泡崖美林园,248,11678,新兴物业,0.6,辽宁,65,二手房,2000
沙河口区华新苑10号楼4号公建,大连,大连新型房地产开发有限公司,沙河口,20190706,38.94033750532864,121.58990295130229,侯一小区,154,11382,大连新兴物业管理有限公司,0.3,辽宁,29,二手房,1989
甘井子区宜居园10-1号房屋,大连,大连万科房地产开发有限公司,甘井子,20190706,38.99913094587405,121.52084969112292,万科魅力之城,186,14626,大连万科物业服务有限公司,1.5,辽宁,40,二手房,2006
开发区湾里南12栋-16-17-18号,大连,大连金湾实业有限公司,开发区,20190706,39.070782084451,121.8506739675913,湾里南小区,377,8788,大连金湾物业管理有限公司,0.3,辽宁,32,二手房,2002
沙河口区沙能街101号1单元1层1号,大连,大连新型房地产开发有限公司,沙河口,20190706,38.9366316275348,121.59031205759763,侯二小区,173,11248,街道办事处（居委会）代管物业,0.1,辽宁,38,二手房,1980
大连经济技术开发区东城天下98-14,大连,大连乾豪集团有限公司,开发区,20190706,39.069195091289004,121.8502099927954,东城天下,371,8745,大连远洋基业物业管理有限公司,0.9,辽宁,43,二手房,2002
开发区正恒园1-16,大连,大连华宇房地产开发有限公司,开发区,20190706,39.04823944344617,121.76165468797754,左岸经典,260,9049,大连豪之英物业管理有限公司,1.8,辽宁,35,二手房,2000
甘井子区泉水D1区37-7号,大连,大连运腾房地产开发有限公司,甘井子,20190706,39.013992871679214,121.61921940045104,锦泉源D2区,216,13300,大连嘉毅物业管理有限公司,0.5,辽宁,29,二手房,2001
沙河口区富民路120号4-1-1,大连,大连渤海红旗集团有限公司,沙河口,20190706,38.930937859528605,121.5647274237578,马栏小学北,87,10819,街道办事处（居委会）代管物业,0.2,辽宁,24,二手房,1992
开发区湾里南12栋-16-17-18号,大连,大连金湾实业有限公司,开发区,20190706,39.070782084451,121.8506739675913,湾里东,208,8214,大连金湾物业管理有限公司,0.5,辽宁,25,二手房,2001
甘井子区宜居园10-1号房屋,大连,大连万科房地产开发有限公司,甘井子,20190706,38.99913094587405,121.52084969112292,万科朗润园,102,15021,大连万科物业服务有限公司,1.5,辽宁,25,二手房,2009
大连市甘井子区柳林园8-7号,大连,大连万科置业有限公司,甘井子,20190706,38.91290525308349,121.47673750074993,万科溪之谷,207,14605,大连万科物业服务有限公司,0.6,辽宁,24,二手房,2007
金州区金润花园B区47号1单元1层1号2号,大连,大连辽大房地产开发有限公司,金州,20190706,39.10434716151341,121.74517862677146,金润小区B区,182,8372,大连新兴物业管理有限公司,0.4,辽宁,25,二手房,2000
沙河口区西南路643号,大连,无开发商,沙河口,20190706,38.943483429804665,121.5833555851182,交通大学,74,12975,无物业管理服务,-,辽宁,25,二手房,1955
大连经济技术开发区时代城4-3号1-2号,大连,远洋地产有限公司,开发区,20190706,39.0992481321252,121.83007860699459,远洋时代城一期,171,9320,大连远洋基业物业管理有限公司,1.5,辽宁,28,二手房,1998
甘井子区静林街34号4单元1层2,大连,大连祥盛房屋开发有限公司,甘井子,20190706,38.98321485010885,121.58185179833856,千山心城,128,14509,大连百特物业管理有限公司,0.5,辽宁,22,二手房,2002
甘井子区祥龙街2号楼1单元1楼1号,大连,大连恒新房地产开发有限公司,甘井子,20190706,38.988045874482445,121.60439401971377,华东人家,43,14722,大连福佳物业管理有限公司,1,辽宁,19,二手房,2006
大连市金州区站前街道生辉第一城14-3号1-2层,大连,大连新希望家园房地产有限公司,金州,20190706,39.0569681786798,121.74773530665969,新希望家园,197,8759,大连新希望物业服务有限公司,1.2,辽宁,19,二手房,2003
甘井子区玉丽街2号楼1单元4号公建,大连,大连新型房地产开发总公司,甘井子,20190706,38.98705071699301,121.55513043130172,泡崖康顺园,152,11387,大连新兴物业管理有限公司,0.5,辽宁,19,二手房,2002
无门店信息,大连,无开发商,甘井子,20190706,34.52713835999158,118.76812980670795,石油六闾,69,9327,街道办事处（居委会）代管物业,0.5,辽宁,19,二手房,1900
甘井子区甘井子街3号公建,大连,无开发商,甘井子,20190706,38.982086281836246,121.63426694995971,文体街,132,10353,街道办事处（居委会）代管物业,0.1,辽宁,19,二手房,1974
甘井子区泡崖六小区6号楼1单元1层2号,大连,大连新型房地产开发有限公司,甘井子,20190706,38.98033159306754,121.55920598894072,泡崖五区,87,11477,大连新兴物业管理有限公司,0.5,辽宁,20,二手房,1990
沙河口区西南路643号,大连,无开发商,沙河口,20190706,38.943483429804665,121.5833555851182,北甸街,43,11642,无物业管理服务,-,辽宁,19,二手房,1983
金州新区先进街道渤海街7-4号1-2层、7-3号1-2层,大连,原金州纺织厂房地产公司,金州,20190706,39.09342713035472,121.74590886291374,金纺小区,190,6985,街道办事处（居委会）代管物业,0.5,辽宁,21,二手房,1985
沙河口区昌黎街22号,大连,大连城市建设集团有限公司,沙河口,20190706,38.91975785098891,121.59109628369768,北昌平小区,140,13088,无物业管理服务,-,辽宁,22,二手房,1983
无门店信息,大连,大连益宁房地产开发有限公司,开发区,20190706,34.52713835999158,118.76812980670795,岭湾峰尚一期,136,8672,大连鸿达物业管理有限公司,1.3,辽宁,22,二手房,2003
甘井子区玉湖街25号2单元1层3号,大连,大连新型房地产开发有限公司,甘井子,20190706,38.97626265183615,121.54617349027997,泡崖四区,175,10784,大连新型物业管理有限公司,0.5,辽宁,22,二手房,2000
无门店信息,大连,大连一方生态城房地产开发有限公司,开发区,20190706,34.52713835999158,118.76812980670795,一方天鹅湖,201,8093,大连一方物业管理有限公司,1.9,辽宁,23,二手房,2010
沙河口区五一路177-1-1-1,大连,无开发商,沙河口,20190706,38.913544290955585,121.59450670056631,台山,99,11886,街道办事处（居委会）代管物业,0.5,辽宁,23,二手房,1980
大连开发区金马路169-2-8号,大连,大连亿锋房地产实业有限公司,开发区,20190706,39.057398235688176,121.78261137849105,亿锋现代城,157,10209,亿锋豪景物业管理有限公司,1.1,辽宁,24,二手房,2004
甘井子区红旗花园23号楼19-24轴公建,大连,大连红旗兴达房地产开发有限公司,甘井子,20190706,38.93108029984587,121.54902145022133,兴达花园,85,12915,大连万泰物业管理有限公司,0.3,辽宁,18,二手房,1996
甘井子区锦城西园4#3-1-1,大连,大连锦绣房地产开发有限公司,沙河口,20190706,38.95286223185571,121.55129044777,锦华北园,88,14045,大连锦绣物业管理有限公司,0.6,辽宁,16,二手房,2000
甘井子区千山路26号,大连,大连市大钢集团,甘井子,20190706,38.985697948031984,121.58768860037272,山东路,95,12625,街道办事处（居委会）代管物业,0.2,辽宁,17,二手房,1986
甘井子区中华路泉水A1区86号4单元1层1号,大连,大连运泽房地产开发有限公司,甘井子,20190706,39.0040531092963,121.60742125620513,润泽园,98,16836,大连城建开发集团物业管理有限公司,1.4,辽宁,17,二手房,2008
经济技术开发区城润万家62-8公建,大连,大连海汇房地产开发有限公司,开发区,20190706,39.06883436780937,117.72669530355309,城润万家,120,9652,大连正源物业服务有限公司,1,辽宁,17,二手房,2006
天河路173-2号 华润考拉22号公建,大连,华润置地（大连）开发有限公司,甘井子,20190706,23.14720645345518,113.3277414923158,华润考拉住区,89,15922,华润物业（大连）有限公司,2.5,辽宁,18,二手房,2007
开发区东北三街94号1层,大连,大连欣达房地产开发有限公司,开发区,20190706,39.05723508011585,121.80570768630555,倚山里小区,217,7560,大连经济技术开发区聚盛达物业管理有限公司,0.2,辽宁,14,二手房,1995
甘井子区祥溢园4号1单元1层9号公建,大连,"大连鹏德房屋开发有限公司,大连长鹭房屋开发有限公司,大连均卫达房地产开发有限公司,大连福田房屋开发有限公司,大连航宇房屋开发有限公司",甘井子,20190706,38.92981664067587,121.54940314023253,亲亲家园,67,15601,渤海吉祥物业管理有限公司,0.5,辽宁,14,二手房,2003
沙河口区新生路万客园3-7,大连,大连绿波房屋开发集团有限公司,沙河口,20190706,38.94412875710208,121.57006756704837,绿波小区,156,11129,大连绿波建设发展有限公司,0.2,辽宁,14,二手房,1993
开发区安盛里5栋-4,大连,大连开建集团有限公司,开发区,20190706,23.112106678834838,113.27801046214822,开建阳光馨苑,95,9491,大连开利物业管理有限公司,1.2,辽宁,14,二手房,2007
金州新区站前街道生辉第一城5号楼1-2层4号,大连,大连公路工程集团生辉房地产开发有限公司,金州,20190706,39.05819721414208,121.74650438736514,生辉第一城,127,10961,大连生辉物业管理有限公司,1.2,辽宁,14,二手房,2005
沙河口区南沙街36号台二2号1-1-37,大连,无开发商,沙河口,20190706,38.90741410359388,121.57685699961822,南沙,80,11527,无物业管理服务,1,辽宁,14,二手房,1982
沙河口区黑石礁街3号1层1-1号,大连,无开发商,沙河口,20190706,38.880058010307856,121.56313403908827,浪花街,46,11642,无物业管理服务,-,辽宁,14,二手房,1990
开发区润海园中区30-1,大连,华润（大连）房地产有限公司,开发区,20190706,39.04047273176333,121.76392358042445,华润海中国三期,170,14435,华润物业（大连）有限公司,3.1,辽宁,15,二手房,2010
开发区润海园中区62-9,大连,华润（大连）房地产有限公司,开发区,20190706,39.04047273176333,121.76392358042445,华润海中国四期,123,14144,华润物业（大连）有限公司,3.1,辽宁,15,二手房,2000
无门店信息,大连,大连金湾实业有限公司,开发区,20190706,34.52713835999158,118.76812980670795,金湾山城,177,9393,大连金湾物业管理有限公司,0.5,辽宁,15,二手房,2003
甘井子区玉丽街2号楼1单元4号公建,大连,大连新型房地产开发有限公司,甘井子,20190706,38.98705071699301,121.55513043130172,泡崖七区,126,11002,大连新兴物业管理有限公司,0.3,辽宁,15,二手房,1995
沙河口区华北路448号楼1-4公建,大连,无开发商,沙河口,20190706,38.903224944733765,121.56809734950556,刘家桥,102,10927,街道办事处（居委会）代管物业,0.1,辽宁,15,二手房,1980
无门店信息,大连,大连万科房地产开发有限公司,旅顺口,20190706,34.52713835999158,118.76812980670795,万科樱花园三期,34,12955,大连万科物业服务有限公司,2.4,辽宁,15,二手房,2010
沙河口区红凌路137号,大连,大连大实企业集团房屋开发有限公司,甘井子,20190706,38.922699288974506,121.54713601744747,叠翠山庄,32,10976,大连弘实物业管理有限公司,0.4,辽宁,15,二手房,2000
中山区益民街16号1层1号,大连,大连恒力德实业开发有限公司,中山,20190706,38.93092761298906,121.66470740073377,港湾壹号,75,14164,大连日航酒店物业管理有限公司,3.8,辽宁,15,二手房,2006
沙河口区前程街46号4—1—2号,大连,大连银地置业发展有限公司,沙河口,20190706,38.913544290955585,121.59450670056631,观山满庭芳,91,18019,大连新展物业管理有限公司,1,辽宁,15,二手房,2004
沙河口区马栏北街186号,大连,大连渤海红旗集团有限公司,甘井子,20190706,38.913544290955585,121.59450670056631,马栏北街,41,11488,大连辽南物业管理有限公司,0.2,辽宁,15,二手房,1988
甘井子区华北路花锦园28号23-3-1-2建筑物,大连,大连东特房地产开发有限公司,甘井子,20190706,38.951627958411166,121.5739439799003,东特新天地,53,16725,大连瑞祥物业管理有限公司,0.5,辽宁,15,二手房,2001
开发区景和园1-7,大连,大连市政府工程建设指挥部,开发区,20190706,30.41892168817929,120.30896459202738,小孤山中里,118,7714,大连广谊物业管理有限公司,0.4,辽宁,16,二手房,1998
大连市开发区左岸经典正恒园1-17,大连,大连神洲众益集团有限公司,开发区,20190706,39.049057070649155,121.76187404250511,万国宫馆一期,122,13050,加拿大高力国际物业服务有限公司,2.4,辽宁,16,二手房,1998
甘井子区汇仁街22号,大连,远洋地产有限公司,甘井子,20190706,38.99712640764999,121.58834420439493,远洋广场,180,17348,大连远洋基业物业管理有限公司,1.4,辽宁,16,二手房,2003
甘井子区新兴路36号3-1-3,大连,大连新型房地产开发有限公司,甘井子,20190706,38.95800216293212,121.53151895549547,泡崖一区,104,10860,大连新兴物业管理有限公司,0.5,辽宁,11,二手房,1992
甘井子区哲林北园17-6号,大连,大连亿达美加房地产开发有限公司,甘井子,20190706,38.9600267109581,121.53876726228256,第五郡三号地,70,29479,亿达物业管理有限公司,2.2,辽宁,11,二手房,2012
沙河口区西南路851号3单元1层3号,大连,无开发商,沙河口,20190706,38.94344210837944,121.58246796944378,李家街,24,11730,无物业管理服务,0.1,辽宁,11,二手房,1985
大连市甘井子区七贤路8-3号,大连,大连万达商业地产有限公司,高新园区,20190706,38.86602612116956,121.53842265737707,万达海景公寓,122,11907,大连万达物业管理有限公司,2.9,辽宁,11,二手房,2010
金州区金润小区B区861单元102,大连,大连新型房地产开发有限公司,金州,20190706,39.10615165380565,121.74639264534615,糖果小区,73,9033,大连新兴物业管理有限公司,0.5,辽宁,12,二手房,2000
金州新区站前街道生辉第一城5号楼1-2层4号,大连,大连新希望家园房地产有限公司,金州,20190706,39.05819721414208,121.74650438736514,新希望乐城,68,10224,大连新希望物业服务有限公司,1.6,辽宁,12,二手房,2009
沙河口区联合路133号,大连,无开发商,沙河口,20190706,38.91608561262676,121.60480987310456,79中永平,97,26636,无物业管理服务,-,辽宁,12,二手房,1992
大连市甘井子中华路街道汇畅街48号,大连,远洋地产有限公司,甘井子,20190706,39.0059299196697,121.59621871231741,远洋荣域,174,18917,远洋亿家物业服务股份有限公司大连分公司,2.8,辽宁,12,二手房,2012
甘井子区泉水D6区51号,大连,大连金广集团,甘井子,20190706,39.00897610161069,121.61789300655198,枫丹丽城,99,15996,大连金广物业有限公司,1.5,辽宁,12,二手房,2009
金州区金润小区B区861单元102,大连,大连辽大房地产开发有限公司,金州,20190706,39.10615165380565,121.74639264534615,金润小区A区,145,8686,大连新兴物业管理有限公司,0.4,辽宁,12,二手房,1999
甘井子区泉水D6区51号,大连,大连锦丰和源祥房地产开发有限公司,甘井子,20190706,39.00897610161069,121.61789300655198,泉水家年华,111,13745,街道办事处（居委会）代管物业,0.9,辽宁,12,二手房,2007
甘井子区红旗中路143号1层4号,大连,大连保利红旗房地产开发有限公司,甘井子,20190706,38.93169566676921,121.5426632438217,保利西山林语,75,20924,保利物业服务有限公司,1.5,辽宁,12,二手房,2006
甘井子区绿洲园60号,大连,大连新华房屋开发有限公司,甘井子,20190706,38.95390300214936,121.59409785747448,新华绿洲,75,18558,大连新华物业管理有限公司,0.6,辽宁,12,二手房,2001
甘井子区千山路26号,大连,大连嘉兴房地产开发有限公司,甘井子,20190706,38.985697948031984,121.58768860037272,千山路,78,12209,无物业管理服务,0.5,辽宁,12,二手房,1985
甘井子区红凌路109号,大连,大连锦联地产集团有限公司,甘井子,20190706,38.923388478439314,121.54860212120927,锦绣暖山,76,15217,大连锦明物业服务有限公司,1.2,辽宁,12,二手房,2004
沙河口区新生路万客园3-7,大连,大连鹏生房地产开发有限公司,沙河口,20190706,38.94412875710208,121.57006756704837,枫林绿洲,37,14161,大连鹏辉物业管理有限公司,0.3,辽宁,12,二手房,2002
无门店信息,大连,大连环宇置业有限公司,开发区,20190706,34.52713835999158,118.76812980670795,环宇品阁,92,6404,大连环宇物业管理有限公司,1.5,辽宁,12,二手房,2005
甘井子区虹城路503号1-1号,大连,大连新星房地产开发有限公司,甘井子,20190706,38.981193588625004,121.49964051837122,艾维尼小城,101,15789,大连生生物业有限公司,1.8,辽宁,12,二手房,2009
大连市开发区湾里东5-6号,大连,大连宏港房地产开发有限公司,开发区,20190706,39.07275772231556,121.85888789351343,都悦里,218,6934,大连宏港物业管理有限公司,0.3,辽宁,12,二手房,1992
沙河口区敦煌路357号10-11轴公建,大连,无开发商,沙河口,20190706,38.93891619583455,121.59150694046835,车家村,31,10694,街道办事处（居委会）代管物业,0.5,辽宁,10,二手房,1980
开发区润海园中区30-1,大连,暂无信息,开发区,20190706,39.04047273176333,121.76392358042445,华润海中国七期,69,16839,华润物业（大连）有限公司开发区分公司,3.1,辽宁,10,二手房,2009
开发区润海园中区30-1,大连,华润置地（大连）开发有限公司,开发区,20190706,39.04047273176333,121.76392358042445,华润海中国一期,161,16382,华润物业（大连）有限公司,1.8,辽宁,10,二手房,2007
金州新区先进街道五一路350-1号1-2层,大连,暂无信息,金州,20190706,39.078667146419825,121.77094423323935,聚鑫小区三期,62,7033,大连新生活物业管理有限公司,0.5,辽宁,10,二手房,2000
开发区鹏程家园66#-6、66#-7公建,大连,大连海富花园开发有限公司,开发区,20190706,37.92440451755906,112.59861436589645,海富经典,130,9955,大连银帆物业管理有限公司,1.2,辽宁,10,二手房,2007
甘井子区泉水K2区1号-7,大连,大连新型房地产开发有限公司,甘井子,20190706,39.01148211821007,121.63131997900962,龙畔金泉五期K4区,135,12608,大连新兴物业管理有限公司,0.5,辽宁,10,二手房,2005
金州新区润海园中区18#2号,大连,华润置地（大连）有限公司,开发区,20190706,39.04047273176333,121.76392358042445,华润海中国二期,168,14246,华润物业（大连）有限公司,2.8,辽宁,10,二手房,2007
沙河口区西南路161号,大连,无开发商,沙河口,20190706,38.89269676588945,121.56639953951542,孙家沟,91,12456,无物业管理服务,-,辽宁,10,二手房,1987
甘井子区红旗西路104-23,大连,大连万科房地产开发有限公司,甘井子,20190706,38.94013845868325,121.5282577714263,万科假日风景,82,17047,大连万科物业服务有限公司,1,辽宁,10,二手房,2007
高新园区聚贤路36号5幢1单元1层1号,大连,大连法马克房地产开发有限公司,高新园区,20190706,32.31472011562832,119.46141263909165,中铁诺德滨海花园,78,19868,大连中铁诺德物业服务有限公司,2.3,辽宁,10,二手房,2010
中山区东港龙湖水晶郦湾7-102,大连,大连龙湖东港房地产有限公司,中山,20190706,38.924700620463895,121.70344398518496,龙湖水晶郦湾,71,27987,大连龙湖物业服务有限公司,4.5,辽宁,10,二手房,2012
西岗区九三街64号,大连,润德集团有限公司,西岗,20190706,38.92047268927287,121.61862512554262,润德广场,58,15418,大连润德物业管理有限公司,3.8,辽宁,10,二手房,2000
大连市甘井子区辛如街35号1单元1层1号,大连,大连新星房地产开发有限公司,甘井子,20190706,38.96862607066881,121.52294869064194,新星绿城五期,69,14054,大连生生物业有限公司,0.8,辽宁,10,二手房,2006
开发区黄海西路54号,大连,开发区城建局,开发区,20190706,39.047714586087785,121.76688238228269,青松南里,90,8014,大连经济技术开发区中强物业管理有限公司,0.5,辽宁,10,二手房,1996
开发区黄海西路54号,大连,中国铁路十三局,开发区,20190706,39.047714586087785,121.76688238228269,翠竹小区,118,8116,大连经济技术开发区中强物业管理有限公司,0.3,辽宁,10,二手房,1995
沙河口区富民路120号4-1-1,大连,大连渤海红旗集团有限公司,沙河口,20190706,38.930937859528605,121.5647274237578,马栏小学南,64,11327,大连辽南物业管理有限公司,0.2,辽宁,11,二手房,1992
高新园区海苑街30号1单元1号公建,大连,大连大有文园房屋开发有限公司,高新园区,20190706,20.06392317589085,110.32302599457326,大有文园,50,17059,大连大有恬园物业管理有限公司,2,辽宁,10,二手房,2009
甘井子金地艺境博艺西园2-1号,大连,大连恒昇房地产开发有限公司,甘井子,20190706,39.04402110608829,121.665484498555,福佳新城一期,66,9290,暂无信息,0.9,辽宁,11,二手房,2000
甘井子区泡崖六小区6号楼1单元1层2号,大连,大连新型房地产开发有限公司,甘井子,20190706,38.98033159306754,121.55920598894072,泡崖六区,37,11839,大连新兴物业管理有限公司,0.3,辽宁,11,二手房,1999
无门店信息,大连,大连聚达房地产开发有限公司,旅顺口,20190706,34.52713835999158,118.76812980670795,海尚明珠,162,9856,大连合生物业管理有限公司,1.5,辽宁,11,二手房,2005
沙河口区长江路946号-9,大连,大连机车商业城有限公司,沙河口,20190706,38.913544290955585,121.59450670056631,兴工街,68,13402,街道办事处（居委会）代管物业,0.2,辽宁,11,二手房,1985
沙河口区富国街14号1-1-2,大连,大连浩江房地产开发有限公司,沙河口,20190706,38.901027106600836,121.59047734850638,和平现代城,108,16432,大连万科物业服务有限公司,1,辽宁,11,二手房,2005
无门店信息,大连,大连天启房地产开发有限公司,高新园区,20190706,34.52713835999158,118.76812980670795,百合IT家园,37,12788,大连亮泰安邦物业有限公司,0.6,辽宁,8,二手房,2007
沙河口区红凌路137号,大连,大连大实企业集团房屋开发有限公司,甘井子,20190706,38.922699288974506,121.54713601744747,泊林阳光A区,14,14012,大连弘实物业管理有限公司,0.6,辽宁,8,二手房,2006
沙河口区前程街46号4—1—2号,大连,大连渤海红旗集团有限公司,甘井子,20190706,38.913544290955585,121.59450670056631,彩霞园,15,11487,渤海吉祥物业管理有限公司,0.4,辽宁,8,二手房,1999
甘井子区山东路商业街D区12号公建,大连,无开发商,甘井子,20190706,39.001060021502965,121.58883960371418,兴华路,66,12440,街道办事处（居委会）代管物业,0.5,辽宁,8,二手房,1986
中山区清溪南街11号,大连,无开发商,中山,20190706,38.88919604283904,121.66466481004835,桃仙小区,23,13277,街道办事处（居委会）代管物业,-,辽宁,8,二手房,1992
甘井子区促进路30号2-1-1,大连,大连谷和房屋开发有限公司,甘井子,20190706,38.954133128707575,121.58355746311207,谷和温馨苑,24,17754,大连谷和物业管理有限公司,0.6,辽宁,8,二手房,2002
大连市甘井子区钻石湾和信园13-5,大连,远洋地产有限公司,甘井子,20190706,38.958699272665584,121.61903564217761,远洋钻石湾三期,70,21579,远洋亿家物业服务股份有限公司大连分公司,1.5,辽宁,8,二手房,2014
甘井子区甘井子路32号楼1单元1楼9号,大连,无开发商,甘井子,20190706,38.982488275116516,121.63345389253514,松江小区,36,10320,街道办事处（居委会）代管物业,0.5,辽宁,9,二手房,1980
甘井子区惠泽南园3-4号,大连,大连鹏德房屋开发有限公司,甘井子,20190706,38.939326611323615,121.52337842113351,西山阳光水岸,48,17069,大连三和住邦物业管理有限公司,1,辽宁,9,二手房,2006
中山区华乐街107-115号,大连,大连海昌房地产开发有限公司,中山,20190706,38.92093821499401,121.68879267531725,海昌欣城,103,17334,大连海昌欣城物业管理有限公司,1.2,辽宁,9,二手房,2002
西岗区香炉礁24号1-1,大连,无开发商,西岗,20190706,38.92047268927287,121.61862512554262,工人村,64,10624,街道办事处（居委会）代管物业,0.5,辽宁,9,二手房,1980
沙河口区锦石路8号,大连,大连锦绣房地产开发有限公司,沙河口,20190706,38.94771288948481,121.56110903658733,锦泉南园,42,11469,大连锦绣物业管理有限公司,0.3,辽宁,9,二手房,1995
沙河口区前程街46号4—1—2号,大连,大连渤海红旗集团有限公司,甘井子,20190706,38.913544290955585,121.59450670056631,前程街,43,12059,渤海吉祥物业管理有限公司,0.4,辽宁,9,二手房,1998
金州区五一路先进街道 陶然居2-2,大连,大连金开房地产开发有限公司,金州,20190706,39.0830973395057,121.7630113583655,华邦俪城,117,10292,大连华邦物业有限公司,1.3,辽宁,9,二手房,2010
大连市甘井子区泉水N2区3-13号,大连,暂无信息,甘井子,20190706,39.021116079001885,121.64659997607325,泉水N1区,106,9959,无物业管理服务,0.7,辽宁,9,二手房,1999
沙河口区数码路北段18—20号,大连,大连软景房地产开发有限公司,高新园区,20190706,38.892000603999115,121.5494486394066,软景E居,96,27362,亿达物业管理有限公司,2.6,辽宁,9,二手房,2009
沙河口区绿波路34号楼5单元1楼3号,大连,"大连汇戎开发有限公司,大连东北房屋开发有限公司",沙河口,20190706,38.94049893962156,121.57316620632874,帝欧花园,35,17932,大连绿波建设发展有限公司,0.6,辽宁,9,二手房,2003
金州区金润花园B区47号1单元1层1号2号,大连,暂无信息,金州,20190706,39.10434716151341,121.74517862677146,民馨小区,77,7200,无物业管理服务,0.3,辽宁,9,二手房,2000
甘井子金地艺境博艺西园2-1号,大连,暂无信息,甘井子,20190706,39.04402110608829,121.665484498555,欣家园二期,30,9356,街道办事处（居委会）代管物业,0.5,辽宁,9,二手房,2000
沙河口区南沙街36号台二2号1-1-37,大连,大连康加立置业有限公司,沙河口,20190706,38.90741410359388,121.57685699961822,台四小区,38,13335,大连弘达物业管理有限公司,-,辽宁,9,二手房,1996
甘井子区虹韵路114号,大连,大连亿达美加房地产开发有限公司,甘井子,20190706,38.95653310483457,121.5329869995972,第五郡五号地,89,27549,亿达物业管理有限公司,2,辽宁,9,二手房,2008
甘井子区泉水B2区19-1号,大连,大连金广集团,甘井子,20190706,39.0101309886317,121.60812584213187,金色阳光家园,59,13665,大连金广物业服务有限公司,0.5,辽宁,8,二手房,2002
中山区东港龙湖水晶郦湾7-102,大连,大连保利东港房地产开发有限公司,中山,20190706,38.924700620463895,121.70344398518496,保利天禧,58,25719,保利物业服务有限公司,4.8,辽宁,7,二手房,2015
沙河口区五一路270-274号,大连,无开发商,高新园区,20190706,38.913544290955585,121.59450670056631,由家村,27,13152,无物业管理服务,-,辽宁,8,二手房,1990
沙河口区新生路万客园3-7,大连,大连万科锦绣花城开发有限公司,沙河口,20190706,38.94412875710208,121.57006756704837,万科城市花园,48,20320,大连万科物业服务有限公司,1.5,辽宁,7,二手房,2004
沙河口区前程街46号4—1—2号,大连,大连渤海红旗集团有限公司,甘井子,20190706,38.913544290955585,121.59450670056631,兰丰巷,21,10976,大连辽南物业管理有限公司,0.2,辽宁,7,二手房,1990
中山区民运巷 47号1层2号,大连,无开发商,中山,20190706,38.905955122300846,121.64798148011702,民运巷,16,11219,无物业管理服务,-,辽宁,7,二手房,1989
开发区黄海西路201号107公建,大连,无开发商,开发区,20190706,39.04942604506828,121.80126318235419,岗松里小区,114,7320,大连经济技术开发区海青物业有限公司,0.5,辽宁,8,二手房,1994
金州区拥政街道733号-8号1-2层,大连,无开发商,金州,20190706,39.11690610445662,121.73030803603723,古城甲区,128,7568,街道办事处（居委会）代管物业,0.5,辽宁,8,二手房,1990
沙河口区星海广场B3区20—3号,大连,大连飞通房地产开发有限公司,沙河口,20190706,38.88782715536473,121.5869168319735,东方星海,127,17940,大连兆恒物业管理有限公司,2.9,辽宁,8,二手房,2006
开发区红梅小区19栋-2-1-1号,大连,开发区城建局,开发区,20190706,29.906498897603264,121.5913630631805,红梅小区,47,12712,街道办事处（居委会）代管物业,0.3,辽宁,8,二手房,1992
金州区同济路44号,大连,大连阿尔滨中辰置业有限公司,金州,20190706,39.10476859984152,121.71234684495865,瀛海金洲,99,8431,大连阿尔滨汇城物业服务有限公司,0.5,辽宁,8,二手房,2006
金州区南棉路310号,大连,无开发商,金州,20190706,39.09939229372624,121.72414976100345,南棉小区,153,7298,街道办事处（居委会）代管物业,0.5,辽宁,8,二手房,1987
金州新区先进街道五一路350-1号1-2层,大连,大连市金州区育才房地产开发有限公司,金州,20190706,39.078667146419825,121.77094423323935,康居小区,55,7655,街道办事处（居委会）代管物业,-,辽宁,8,二手房,1995
甘井子区泉水D1区37-7号,大连,大连运腾房地产开发有限公司,甘井子,20190706,39.013992871679214,121.61921940045104,锦泉源D3区,70,12875,大连南虹物业管理有限公司,0.5,辽宁,8,二手房,2006
甘井子区虹城路503号1-1号,大连,大连易和房地产集团有限公司,甘井子,20190706,38.981193588625004,121.49964051837122,岭秀滨城悦和中园,34,16771,大连易兴物业服务有限公司,1.3,辽宁,8,二手房,2009
甘井子区圣林南园3-3号,大连,大连广泰房屋开发有限公司,甘井子,20190706,38.95191781681833,121.54394961192217,美树日记,79,22593,大连华安物业管理有限公司,1.6,辽宁,8,二手房,2007
大连经济技术开发区时代城4-3号1-2号,大连,远洋地产有限公司,开发区,20190706,39.0992481321252,121.83007860699459,远洋时代城三期,88,8728,大连远洋基业物业管理有限公司,1.5,辽宁,8,二手房,2010
甘井子区泉水H3区15号3单元1层2号,大连,大连新型房地产开发有限公司,甘井子,20190706,39.00158439075201,121.62616882572375,龙畔金泉四期,70,13277,大连新型物业管理有限公司,0.4,辽宁,8,二手房,2004
甘井子区小平岛路66-4号,大连,大连软件园瑞安发展有限公司,高新园区,20190706,38.84623138470555,121.51516818634872,悦丽海湾,51,20259,上海丰城物业管理有限公司,2.8,辽宁,8,二手房,2010
开发区杏树里10栋-14,大连,无开发商,开发区,20190706,39.08113818354046,121.78505742127606,松苑山庄,81,5926,大连市金州区先进物业管理中心,0.5,辽宁,8,二手房,1990
无门店信息,大连,大连亚联房地产开发有限公司,甘井子,20190706,34.52713835999158,118.76812980670795,翡翠春城,80,14590,大连亚联物业管理有限公司,1.6,辽宁,7,二手房,2010
中山区清溪南街11号,大连,无开发商,中山,20190706,38.88919604283904,121.66466481004835,秀月小区,44,16938,无物业管理服务,-,辽宁,8,二手房,1982
甘井子金地艺境博艺西园2-1号,大连,大连天盛房地产开发有限公司,甘井子,20190706,39.04402110608829,121.665484498555,金地檀境,73,14927,大连金地物业管理有限公司,2.6,辽宁,7,二手房,2016
开发区黄海西路54号,大连,大连凯伦房地产开发股份有限公司,开发区,20190706,39.047714586087785,121.76688238228269,凯伦凯悦,102,8817,大连凯悦物业管理有限公司,3.1,辽宁,7,二手房,2003
开发区红梅小区19栋-2-1-1号,大连,香港北海集团,开发区,20190706,29.906498897603264,121.5913630631805,君悦豪庭,56,11889,街道办事处（居委会）代管物业,1.2,辽宁,7,二手房,2001
无门店信息,大连,大连万科房地产开发有限公司,旅顺口,20190706,34.52713835999158,118.76812980670795,万科樱花园,58,12914,大连万科物业服务有限公司,2.4,辽宁,7,二手房,2012
开发区大开高吉里33栋6号,大连,大连金港集团有限公司,开发区,20190706,39.07355836059941,121.8280439450145,高祥里,63,7893,街道办事处（居委会）代管物业,0.3,辽宁,7,二手房,1992
无门店信息,大连,大连亿达房地产股份有限公司,旅顺口,20190706,34.52713835999158,118.76812980670795,亿达玉龙湾,44,9360,亿达物业管理有限公司,1.5,辽宁,7,二手房,2010
大连市甘井子区椒房街24号楼2-104链家地产,大连,无开发商,甘井子,20190706,38.985363789837166,121.61034055597686,椒房,84,14233,无物业管理服务,0.5,辽宁,7,二手房,1980
大连市金州区站前街道生辉第一城14-3号1-2层,大连,大连新天润企业集团有限公司,开发区,20190706,39.0569681786798,121.74773530665969,凯旋国际,111,7051,第一东方(大连)物业服务有限公司,2.3,辽宁,7,二手房,2008
甘井子辛吉街150号-7号,大连,大连新星房地产开发有限公司,甘井子,20190706,38.96368508446978,121.52671221254214,新星帕尔美娜,50,15868,大连生生物业有限公司,1,辽宁,7,二手房,2008
金州区先进街道渤海街1-4号1-2层,大连,无开发商,金州,20190706,39.09512910553563,121.74578812616167,金元小区,65,7180,街道办事处（居委会）代管物业,0.1,辽宁,7,二手房,1993
甘井子区华龙南园12-4-3-1-3,大连,大连鹏德房屋开发有限公司,甘井子,20190706,38.98528794231248,121.61028969481718,乐活源,64,13004,大连三和住邦物业管理有限公司,0.5,辽宁,7,二手房,2007
甘井子区红旗西路104-7,大连,大连盛华房地产开发有限公司,甘井子,20190706,38.940335495502666,121.52722586363274,水映西山,61,15420,大连长青物业管理中心,0.9,辽宁,7,二手房,2007
高新园区海苑街30号1单元1号公建,大连,大连大有房屋开发有限公司,高新园区,20190706,20.06392317589085,110.32302599457326,大有恬园二期,43,17335,大连家园物业有限公司,1.2,辽宁,7,二手房,2009
开发区润海园中区65-7号1-2号,大连,华润（大连）房地产有限公司,开发区,20190706,39.04047273176333,121.76392358042445,华润海中国五期,110,14666,华润物业（大连）有限公司,3.1,辽宁,7,二手房,2006
沙河口区展望街29,大连,大连嘉源置业发展有限公司,沙河口,20190706,38.93473052900021,121.57390298303343,御园,39,18105,大连御博物业,2,辽宁,7,二手房,2010
高新园区硅谷假日小区25号楼地下室,大连,大连志恒房地产开发有限公司,高新园区,20190706,38.86467854992112,121.53720784613759,菁英汇,59,15022,大连海创物业管理有限公司,1.2,辽宁,7,二手房,2007
沙河口区红旗东路18-22号2单元1楼3号,大连,大连益嘉房屋开发有限公司,沙河口,20190706,38.913544290955585,121.59450670056631,益嘉广场,55,16798,大连益嘉物业管理有限公司,1.8,辽宁,7,二手房,2010
开发区小孤山西里3栋-11号,大连,大连九龙汇房地产开发有限公司,开发区,20190706,39.02715282297674,121.80682183666346,九龙汇,61,9080,大连宏亮红物业管理有限公司,1.9,辽宁,7,二手房,2007
高新园区海苑街36号1单元2号公建,大连,大连大有房屋开发有限公司,高新园区,20190706,20.06392317589085,110.32302599457326,大有恬园,45,17720,大连家园物业有限公司,0.5,辽宁,7,二手房,2003
甘井子区泉水K2区1号-7,大连,暂无信息,甘井子,20190706,39.01148211821007,121.63131997900962,龙畔金泉五期K2区,55,13021,大连新兴物业管理有限公司,0.5,辽宁,6,二手房,2006
沙河口区富民路120号4-1-1,大连,大连银地置业发展有限公司,沙河口,20190706,38.930937859528605,121.5647274237578,观山蝶恋花,42,15049,大连新展物业管理有限公司,1,辽宁,6,二手房,2004
大连市沙河口区黄河路729号,大连,无开发商,沙河口,20190706,38.91710565765228,121.58954758972729,南昌平小区,59,12917,街道办事处（居委会）代管物业,0.8,辽宁,6,二手房,1986
西岗区黄河路362号公建,大连,大连万峰房地产开发有限公司,西岗,20190706,38.91819905243802,121.61365779430986,万达华府一期,64,26953,大连万景物业管理有限公司,1.3,辽宁,6,二手房,2004
沙河口区星海广场B3区14-2号1层,大连,大连友谊合升房地产开发有限公司,沙河口,20190706,38.88693148294673,121.58735631267305,壹品星海一期,52,23565,大连友谊物业服务有限公司,1.3,辽宁,6,二手房,2004
高新园区硅谷假日小区25号楼地下室,大连,大连鑫亿房屋开发有限公司,高新园区,20190706,38.86467854992112,121.53720784613759,硅谷假日,53,19862,大连斌弘物业管理有限公司,0.8,辽宁,6,二手房,2003
甘井子区华北路花锦园28号23-3-1-2建筑物,大连,大连东特房地产开发有限公司,甘井子,20190706,38.951627958411166,121.5739439799003,东特爱俪舍,43,15976,大连东特祥禾物业管理有限公司,0.6,辽宁,6,二手房,2004
甘井子区海口路77—5号,大连,大连圣韬房地产开发有限公司,甘井子,20190706,38.960286398428124,121.60305183172997,万福居,55,18701,大连圣韬物业管理有限公司,0.5,辽宁,6,二手房,2004
无门店信息,大连,无开发商,甘井子,20190706,34.52713835999158,118.76812980670795,五二三厂,49,8680,无物业管理服务,0.5,辽宁,6,二手房,1970
中山区中南路店212号门头房,大连,无开发商,中山,20190706,38.91149759691359,121.67700561077149,中南路,63,12872,街道办事处（居委会）代管物业,-,辽宁,6,二手房,1987
中山区爱华街13号,大连,大连一方地产有限公司,中山,20190706,38.92541607518685,121.6535728031028,大连国际酒店,21,23147,大连一方物业管理有限公司,3.0,辽宁,6,二手房,1992
甘井子区玉云路27-3-1-3,大连,大连新型房地产开发有限公司,甘井子,20190706,38.97896234099927,121.55865563488358,泡崖三区,81,11071,大连新兴物业管理有限公司,0.5,辽宁,6,二手房,1990
甘井子区红旗西路104-7,大连,大连盛达基业房地产开发有限公司,甘井子,20190706,38.940335495502666,121.52722586363274,依山云水,23,14622,大连盛新物业管理有限公司,0.4,辽宁,6,二手房,2004
西岗区平等街21号1层2号,大连,"无开发商,大连永欣香榭里实业有限公司",西岗,20190706,38.92251066253164,121.63236845125735,香榭里,60,9943,大连金地物业管理有限公司,3.6,辽宁,6,二手房,2000
无门店信息,大连,无开发商,甘井子,20190706,34.52713835999158,118.76812980670795,七星广场,18,9052,街道办事处（居委会）代管物业,0.2,辽宁,6,二手房,1995
开发区安盛里5栋-4,大连,大连华宇房地产开发有限公司,开发区,20190706,23.112106678834838,113.27801046214822,叠翠花香,27,9468,大连经济技术开发区永嘉物业管理有限公司,0.5,辽宁,6,二手房,1999
开发区润海园中区62-9,大连,大连金广嘉亿置地有限公司,开发区,20190706,39.04047273176333,121.76392358042445,大连海湾城一期,111,12466,大连金广物业服务有限公司,2.6,辽宁,7,二手房,2008
中山区解放路604号,大连,无开发商,西岗,20190706,38.89026319122045,121.66407876092346,桃源小学,19,15591,无物业管理服务,-,辽宁,6,二手房,1990
甘井子区甘井子街3号公建,大连,无开发商,甘井子,20190706,38.982086281836246,121.63426694995971,北山小区,24,9164,无物业管理服务,0.2,辽宁,7,二手房,1988
甘井子区玉湖街18号1单元1-1,大连,大连新型房地产开发有限公司,甘井子,20190706,38.97554522550266,121.54552721066896,书香府第二期,23,11516,大连新型物业管理有限公司,0.5,辽宁,6,二手房,2002
金州新区先进街道五一路350-1号1-2层,大连,大连中连房地产开发有限公司,金州,20190706,39.078667146419825,121.77094423323935,聚鑫小区二期,33,7914,大连新生活物业管理有限公司,0.5,辽宁,6,二手房,1995
无门店信息,大连,大华集团大连置业有限公司,高新园区,20190706,34.52713835999158,118.76812980670795,大华锦绣华城四期,40,22697,大连大华物业管理有限公司,2.5,辽宁,6,二手房,2010
甘井子区玉丽街2号楼1单元4号公建,大连,大连新型房地产开发有限公司,甘井子,20190706,38.98705071699301,121.55513043130172,泡崖康馨园,32,10703,大连新兴物业管理有限公司,0.2,辽宁,6,二手房,2000
无门店信息,大连,大连软件园世通开发有限公司,高新园区,20190706,34.52713835999158,118.76812980670795,亿达普罗旺斯二期,87,20790,亿达物业管理有限公司,2.6,辽宁,6,二手房,2010
沙河口区富国街34-3,大连,大连万达房地产开发有限公司,沙河口,20190706,38.90159716600704,121.58930603357904,星海人家,65,27587,大连万景物业管理有限公司,1.2,辽宁,6,二手房,2001
甘井子区玉云路27-3-1-3,大连,暂无信息,甘井子,20190706,38.97896234099927,121.55865563488358,泡崖新六区,47,11180,大连新型物业管理有限公司,0.3,辽宁,6,二手房,1999
无门店信息,大连,大连龙湖西城置业有限公司,甘井子,20190706,34.52713835999158,118.76812980670795,龙湖滟澜山,63,19966,大连龙湖物业服务有限公司,6.6,辽宁,6,二手房,2013
中山区山屏街116号1-1,大连,大连中信海港投资有限公司,中山,20190706,38.90729438486833,121.68598159980013,山屏街,37,11899,暂无信息,-,辽宁,6,二手房,1988
大连经济技术开发区时代城4-3号1-2号,大连,远洋地产有限公司,开发区,20190706,39.0992481321252,121.83007860699459,远洋时代城四期,54,8726,大连远洋基业物业管理有限公司,1.5,辽宁,6,二手房,2010
开发区安盛里5栋-4,大连,大连汽贸房屋开发有限公司,开发区,20190706,23.112106678834838,113.27801046214822,东北明珠,62,12285,大连汽贸物业管理有限公司,1.5,辽宁,6,二手房,2006
中山区碧浪园4号-3号,大连,大连万达房地产开发有限公司,中山,20190706,38.89147289460474,121.69329560326236,虎滩路,52,13115,大连虎滩置业物业管理有限公司,0.2,辽宁,6,二手房,1992
无门店信息,大连,大连益宁房地产开发有限公司,开发区,20190706,34.52713835999158,118.76812980670795,岭湾峰尚二期,83,10205,大连鸿达物业管理有限公司,0.6,辽宁,6,二手房,2010
金州区金湾路132-2号,大连,无开发商,金州,20190706,39.10269111644727,121.72221060686516,胜利西小区,110,7647,街道办事处（居委会）代管物业,0.5,辽宁,6,二手房,1990
开发区杏树里10栋-14,大连,大连名城房地产开发有限公司,开发区,20190706,39.08113818354046,121.78505742127606,名城和顺人家,83,9329,大连君悦天下物业管理中心,0.5,辽宁,6,二手房,2000
金州新区八一路金都嘉园1号楼1号公建,大连,大连元新房地产开发有限公司,金州,20190706,39.05525210261778,121.74865634199398,华夏金城,62,9935,大连元新物业管理有限公司,1.2,辽宁,6,二手房,2002
甘井子区虹城路503号1-1号,大连,大连易和房地产集团有限公司,甘井子,20190706,38.981193588625004,121.49964051837122,岭秀滨城悦和东园,70,15535,大连易兴物业服务有限公司,1.3,辽宁,6,二手房,2009
西岗区黄河路90号公建部分,大连,暂无信息,西岗,20190706,38.92234529815978,121.62829331825485,实验小学市场街,53,23176,无物业管理服务,-,辽宁,6,二手房,1987
沙河口区西南路40号楼,大连,无开发商,沙河口,20190706,38.94143337232082,121.58616557598133,黑石礁景山,23,12126,无物业管理服务,-,辽宁,6,二手房,1980
中山区同心街72号1楼公建,大连,大连泰宸房地产开发有限责任公司,中山,20190706,38.91979245940674,121.64769198230202,伊景华园,67,26123,街道办事处（居委会）代管物业,2.2,辽宁,6,二手房,1990
甘井子区祥龙街2号楼1单元1楼1号,大连,大连宏孚房屋开发有限公司,甘井子,20190706,38.988045874482445,121.60439401971377,宏孚小区,35,10671,无物业管理服务,-,辽宁,5,二手房,1995
西岗区大同街125号,大连,大连新型房地产开发有限公司,西岗,20190706,38.920458602340894,121.61445835429899,银寰花园,25,11072,街道办事处（居委会）代管物业,0.3,辽宁,5,二手房,1995
沙河口区绿清街12号,大连,大连绿波房屋开发集团有限公司,沙河口,20190706,38.93851335419565,121.57334844377094,绿香花园,20,13418,大连大伟物业管理有限公司,0.4,辽宁,5,二手房,2000
大连市甘井子区椒房街24号楼2-104链家地产,大连,大连凯祥房地产开发有限公司,甘井子,20190706,38.985363789837166,121.61034055597686,椒金山庄,20,17052,大连凯祥物业管理有限公司,0.5,辽宁,5,二手房,2000
无门店信息,大连,大连晨阳房地产开发有限公司,金州,20190706,34.52713835999158,118.76812980670795,金科理想城,31,9548,金科物业服务集团有限公司,1.6,辽宁,5,二手房,2014
西岗区鞍山路29号龙畔锦城东门,大连,大连凯润房屋开发有限公司,西岗,20190706,38.92763470697088,121.61498923399098,景润一期,44,11735,无物业管理服务,-,辽宁,5,二手房,1998
甘井子区佳林北园2-7号,大连,大连瑞泰祥房地产开发有限公司,甘井子,20190706,38.96331610956877,121.52802328494242,缇香漫城,56,21049,大连瑞泰祥物业服务有限公司,2,辽宁,5,二手房,2010
"西岗区泰公街20号2层7号 西岗区久寿街22号1层14号""",大连,大连锦绣大厦有限公司,西岗,20190706,38.92600196862723,121.62141976476381,锦绣大厦,9,7627,大连锦绣物业管理有限公司,1,辽宁,5,二手房,2000
开发区翠竹小区33栋4-1-1号,大连,暂无信息,开发区,20190706,30.635492106460237,119.69169575745704,翠竹中区,23,10503,嘉兴物业管理有限公司,0.3,辽宁,5,二手房,1996
沙河口区恒利园42号-8,大连,无开发商,沙河口,20190706,38.93357562498634,121.57914091532649,新建小区,3,11658,无物业管理服务,-,辽宁,5,二手房,1977
甘井子区山东路137号,大连,大连华南房地产开发有限公司,甘井子,20190706,38.99129404608926,121.59172125999353,名贵山庄青年公寓,3,15108,大连弘益达物业管理有限公司,0.5,辽宁,5,二手房,2001
甘井子区哲林北园17-6号,大连,大连恒德房屋开发有限公司,甘井子,20190706,38.9600267109581,121.53876726228256,恒德橄榄季,56,22107,大连恒德物业服务有限公司,1.4,辽宁,6,二手房,2008
经济技术开发区城润万家62-8公建,大连,大连海汇房地产开发有限公司,开发区,20190706,39.06883436780937,117.72669530355309,正源吉祥e家祥福园,52,11676,大连正源物业服务有限公司,1.5,辽宁,6,二手房,2012
沙河口区恒利园42号-8,大连,大连天河房地产开发集团有限公司,沙河口,20190706,38.93357562498634,121.57914091532649,天河新苑,45,13258,大连天河物业管理有限公司,0.4,辽宁,6,二手房,2000
开发区黄海西路54号,大连,开发区城建局,开发区,20190706,39.047714586087785,121.76688238228269,青松北里,52,8499,大连经济技术开发区中强物业管理有限公司,0.2,辽宁,6,二手房,1995
无门店信息,大连,大连软件园瑞安发展有限公司,高新园区,20190706,34.52713835999158,118.76812980670795,大连天地悦翠台,99,15045,大连万科物业服务有限公司,1,辽宁,6,二手房,2010
经济技术开发区城润万家4-5号公建,大连,大连山河永好置业有限公司,开发区,20190706,39.05716325096989,121.75946281983826,山河秀景,55,10099,大连山河物业管理有限公司,1.5,辽宁,6,二手房,2000
无门店信息,大连,大连海脉房地产开发有限公司,金州,20190706,34.52713835999158,118.76812980670795,海脉未来城,31,8406,大连豪斯威物业管理有限公司,1,辽宁,6,二手房,2008
甘井子区红南东街7-7号,大连,大连大实企业集团房屋开发有限公司,甘井子,20190706,38.92880462247992,121.54144910207062,泊林和山,27,11496,大连弘实物业管理有限公司,0.6,辽宁,6,二手房,2007
中山区高尚路28-1号,大连,无开发商,中山,20190706,38.892673425111305,121.67148833870213,高尚路,26,10275,无物业管理服务,0.5,辽宁,5,二手房,1993
西岗区黄河路82号,大连,大连民兴房地产开发有限公司,西岗,20190706,38.92243503020161,121.6287927913896,前城国际二期,32,22599,大连前城花园物业管理有限公司,1.5,辽宁,5,二手房,2000
"西岗区泰公街20号2层7号 西岗区久寿街22号1层14号""",大连,未知,西岗,20190706,38.92600196862723,121.62141976476381,北京街南,60,14327,大连长青物业管理中心,0.2,辽宁,5,二手房,1975
中山区中南路226号,大连,大连亿泰房屋开发有限公司,中山,20190706,38.90029610333926,121.68178899957817,亿泰庄园,14,15095,大连远洋基业物业管理有限公司,0.7,辽宁,5,二手房,1999
开发区润海园中区18#2号,大连,华润（大连）房地产有限公司,开发区,20190706,39.04047273176333,121.76392358042445,华润海中国六期,64,14536,华润物业（大连）有限公司,3.1,辽宁,5,二手房,2015
西岗区八一路196号1-3,大连,大连三环置业有限公司,西岗,20190706,38.92047268927287,121.61862512554262,桃花源小区,51,10326,大连三寰物业管理有限公司,0.5,辽宁,5,二手房,1993
大连市甘井子区丰收路3-5号,大连,大连智和房地产开发有限公司,甘井子,20190706,38.965377255081755,121.58288415324094,华锦铭苑,44,18602,大连东昌物业管理有限公司,1.3,辽宁,5,二手房,2009
大连市沙河口区文萃街1号1-2-2；大连市沙河口区由家五小区五号楼1单元2层1,大连,大连理工科技城建设开发有限公司,高新园区,20190706,38.88596852074166,121.54389553303217,文萃轩小区,44,17397,大连理工物业管理中心,0.2,辽宁,5,二手房,1980
西岗区八一路102号,大连,大连澳南房屋开发有限公司,中山,20190706,38.92047268927287,121.61862512554262,明秀山庄A区,56,34558,绿城物业服务集团有限公司大连分公司,1.9,辽宁,5,二手房,2008
甘井子区祥龙街2号楼1单元1楼1号,大连,大连市大钢集团,甘井子,20190706,38.988045874482445,121.60439401971377,华南沃尔玛六一路,25,11630,街道办事处（居委会）代管物业,0.5,辽宁,5,二手房,1990
甘井子区美域盛景A2区10-6,大连,大连百思泰置业有限公司,甘井子,20190706,39.006221362805846,121.61022278003976,钰桥中央庭院,45,18334,大连百嘉物业管理有限公司,1.8,辽宁,5,二手房,2012
无门店信息,大连,大连世茂嘉年华置业有限公司,金州,20190706,34.52713835999158,118.76812980670795,世茂御龙海湾,267,11284,经纬物业(中国)有限公司,2,辽宁,5,二手房,2011
中山区高尚路28-1号,大连,无开发商,中山,20190706,38.892673425111305,121.67148833870213,高洁巷,37,11387,街道办事处（居委会）代管物业,0.5,辽宁,5,二手房,1990
开发区大开高吉里33栋6号,大连,大连开建集团有限公司,开发区,20190706,39.07355836059941,121.8280439450145,高安里,57,6758,广宜物业有限公司,0.2,辽宁,5,二手房,1998
沙河口区西南路161号,大连,无开发商,沙河口,20190706,38.89269676588945,121.56639953951542,西沟小区,36,12674,无物业管理服务,-,辽宁,5,二手房,1980
沙河口区绿清街12号,大连,无开发商,沙河口,20190706,38.93851335419565,121.57334844377094,绿波B区,19,9772,街道办事处（居委会）代管物业,0.1,辽宁,5,二手房,1992
中山区中青街87号一单元107,大连,无开发商,中山,20190706,38.90213494248529,121.65806522267005,捷凤街,14,10731,无物业管理服务,-,辽宁,5,二手房,1990
沙河口区锦石路8号,大连,大连锦绣房地产开发有限公司,沙河口,20190706,38.94771288948481,121.56110903658733,锦泉中园,37,12199,大连锦绣物业管理有限公司,0.3,辽宁,5,二手房,1990
中山区鲁迅路204号百盛新药特药商店一楼西侧部分,大连,大连港连房地产开发有限公司,中山,20190706,38.9258993614899,121.6768880001226,海港公寓（寺儿沟商圈）,14,12690,大连仁安物业管理有限公司,0.2,辽宁,5,二手房,1990
西岗区香炉礁24号1-1,大连,大连新型房地产开发有限公司,西岗,20190706,38.92047268927287,121.61862512554262,金海花园东园,35,12780,大连新兴物业管理有限公司,0.5,辽宁,5,二手房,1995
甘井子区柳树南街45-11号,大连,中海新海汇（大连）置业有限公司,甘井子,20190706,38.92567666296449,121.4841330254372,中海御湖熙谷,77,15193,大连中海物业管理有限公司,2.2,辽宁,5,二手房,2013
中山区山屏街116号1-1,大连,无开发商,中山,20190706,38.90729438486833,121.68598159980013,怡和街,29,12205,街道办事处（居委会）代管物业,0.5,辽宁,5,二手房,1990
无门店信息,大连,大连宏鼎房地产开发有限公司,旅顺口,20190706,34.52713835999158,118.76812980670795,国宝星月湾,65,11876,大连星海国宝物业管理有限公司,2.5,辽宁,5,二手房,2012
开发区黄海西路201号107公建,大连,开发区城建局,开发区,20190706,39.04942604506828,121.80126318235419,东阁里,44,6956,大连经济技术开发区海青物业有限公司,0.4,辽宁,5,二手房,1994
开发区湾里南12栋-16-17-18号,大连,无开发商,开发区,20190706,39.070782084451,121.8506739675913,东城国际,42,8673,大连乾豪物业管理有限公司,1,辽宁,5,二手房,2005
高新园区书香街1A#1-1-2,大连,大连金弘基房地产开发有限公司,高新园区,20190706,38.880372108393104,121.55218773010999,弘基三期,58,20443,大连金弘基物业管理有限公司,0.5,辽宁,5,二手房,2004
开发区润海园中区18#2号,大连,大连布鲁科房地产开发有限公司,开发区,20190706,39.04047273176333,121.76392358042445,热岛黄金海岸,190,11016,大连戴德梁行物业管理有限公司,1.6,辽宁,5,二手房,2008
大连市甘井子区丰收路3-5号,大连,无开发商,甘井子,20190706,38.965377255081755,121.58288415324094,王家桥,70,15847,大连铁路物业管理有限公司,0.1,辽宁,5,二手房,1987
甘井子区金家街17-7号,大连,暂无信息,甘井子,20190706,38.97493697764367,121.60110987128529,金二街,39,19583,无物业管理服务,-,辽宁,5,二手房,1970
无门店信息,大连,大连万德房地产集团有限公司,开发区,20190706,34.52713835999158,118.76812980670795,万德悦城,109,8365,大连万德物业管理有限公司,1.5,辽宁,5,二手房,2003
甘井子区华东路22号公建,大连,无开发商,甘井子,20190706,38.97736184953593,121.5935814234334,秀山路,30,11742,街道办事处（居委会）代管物业,0.5,辽宁,5,二手房,1986
大连市金州区友谊街道南金华城25号1-2层1号,大连,大连友谊合升房地产开发有限公司,金州,20190706,39.128677228885614,121.71356109978767,恒达花园,75,8325,街道办事处（居委会）代管物业,0.5,辽宁,5,二手房,2003
沙河口区黄河路535号,大连,大连首星房地产开发有限公司,沙河口,20190706,38.91773777159567,121.60217159922856,金色年华公馆,40,26725,大连首星物业管理有限公司,2.8,辽宁,5,二手房,2010
无门店信息,大连,大连乾豪集团有限公司,开发区,20190706,34.52713835999158,118.76812980670795,乾豪新界,80,11284,大连乾豪物业管理有限公司,1.7,辽宁,5,二手房,2010
大连市甘井子区丰收路3-5号,大连,大连万鼎置业有限公司,甘井子,20190706,38.965377255081755,121.58288415324094,万科蓝山,29,26084,大连万科物业服务有限公司,2.9,辽宁,5,二手房,2012
无门店信息,大连,大连运达房地产集团有限公司,甘井子,20190706,34.52713835999158,118.76812980670795,运达诺维溪谷一期,48,16938,大连运达物业有限公司,1.8,辽宁,5,二手房,2010
甘井子区泉水B5区27-9,大连,大连运达房地产集团有限公司,甘井子,20190706,39.01477152073682,121.60970286326823,锦泉源B5区,75,12956,政治物业管理有限公司,0.1,辽宁,5,二手房,1999
沙河口区五一路177-1-1-1,大连,大华集团大连房地产开发有限公司,沙河口,20190706,38.913544290955585,121.59450670056631,大华御庭,53,22284,大连乐尔居物业服务有限公司,1.4,辽宁,5,二手房,2009
甘井子区迎客路郭东街一品蓝天公建14号,大连,大连福田房屋开发有限公司,甘井子,20190706,38.958456949708726,121.556756277476,隽佳欣苑,38,14829,大连安洁物业管理服务有限公司,0.5,辽宁,5,二手房,2004
金州区先进街道陶然居公建2-2号1层,大连,大连金信集团房地产有限公司,金州,20190706,39.08283372756215,121.76170982507143,金信陶然居,83,9623,北京瑞思特物业管理有限公司,0.5,辽宁,5,二手房,1995
开发区金源南里14栋-11号一层部分，14号-12号一层部分,大连,大连开建房地产开发有限公司,开发区,20190706,39.06148862675436,121.82503941311765,金源北里安居小区,75,8425,嘉兴物业管理有限公司,0.3,辽宁,5,二手房,1998
中山区鲁迅路184号1层B—A,大连,大连环海房地产开发有限公司,中山,20190706,38.92590875965419,121.67594393403164,环海公寓,14,10916,大连富民物业管理有限公司,0.5,辽宁,4,二手房,1999
沙河口区红旗东路18-22号2单元1楼3号,大连,无开发商,甘井子,20190706,38.913544290955585,121.59450670056631,天泉山庄,16,12827,大连铁龙安居物业管理有限公司,0.5,辽宁,4,二手房,2000
金州区南棉路310号,大连,无开发商,金州,20190706,39.09939229372624,121.72414976100345,胜利小区,110,8177,无物业管理服务,0.5,辽宁,5,二手房,1986
高新园区海苑街36号1单元2号公建,大连,大连金华兴房地产开发有限公司,高新园区,20190706,20.06392317589085,110.32302599457326,华兴山庄,15,15741,大连华兴物业管理有限公司,0.5,辽宁,4,二手房,2000
高新园区火炬路18号,大连,大连联合柏立置业有限公司,高新园区,20190706,38.937738080520404,117.39340752036043,柏悦国际公寓,47,18210,大连柏悦国际公寓管理有限公司,3.5,辽宁,4,二手房,2005
沙河口区杨树街4-4号公建,大连,大连金弘基房地产开发有限公司,高新园区,20190706,38.88444587249751,121.55130620045541,弘基二期,32,22980,大连金弘基物业管理有限公司,0.6,辽宁,4,二手房,2002
沙河口区西南路161号,大连,无开发商,沙河口,20190706,38.89269676588945,121.56639953951542,大医物业,9,13569,街道办事处（居委会）代管物业,0.5,辽宁,4,二手房,1990
开发区鹏程家园66#-6、66#-7公建,大连,大连新天润企业集团有限公司,开发区,20190706,37.92440451755906,112.59861436589645,水御兰庭,33,9878,大连港力物业管理有限公司,1.1,辽宁,4,二手房,2006
沙河口区黑石礁街5号1层1号,大连,无开发商,沙河口,20190706,38.879813345473714,121.56313742300513,黑石礁,12,12010,无物业管理服务,-,辽宁,4,二手房,1990
西岗区平等街21号1层2号,大连,辽宁宁安房地产开发有限公司,西岗,20190706,38.92251066253164,121.63236845125735,赛维利大厦,20,20712,大连良玖物业管理有限责任公司,1.5,辽宁,4,二手房,2004
甘井子区甘井子路32号楼1单元1楼9号,大连,大连和华房地产开发有限公司,甘井子,20190706,38.982488275116516,121.63345389253514,万成御园,14,14432,大连银力物业管理有限公司,1.3,辽宁,4,二手房,2015
西岗区长春路334号,大连,大连万达房地产开发有限公司,西岗,20190706,38.89807766522607,121.63221082858387,石松小区,18,10941,大连白云物业管理有限公司,0.5,辽宁,4,二手房,1992
甘井子区甘井子路32号楼1单元1楼9号,大连,无开发商,甘井子,20190706,38.982488275116516,121.63345389253514,杨柳街,14,10403,街道办事处（居委会）代管物业,0.5,辽宁,4,二手房,1990
西岗区胜利路33号,大连,暂无信息,西岗,20190706,38.91309771954841,121.62500886627636,34中新开路,3,35902,无物业管理服务,-,辽宁,4,二手房,1992
中山区益民街16号1层1号,大连,无开发商,中山,20190706,38.93092761298906,121.66470740073377,益民街（三八广场）,7,13999,无物业管理服务,-,辽宁,4,二手房,1992
经济技术开发区城润万家4-5号公建,大连,无开发商,开发区,20190706,39.05716325096989,121.75946281983826,西山小区,3,7771,街道办事处（居委会）代管物业,0.5,辽宁,4,二手房,1992
无门店信息,大连,大连中连房地产开发有限公司,金州,20190706,34.52713835999158,118.76812980670795,憬园河畔,67,7941,大连新生活物业管理有限公司,0.4,辽宁,5,二手房,2000
金州区先进街道渤海街1-4号1-2层,大连,无开发商,金州,20190706,39.09512910553563,121.74578812616167,金星小区,27,7909,街道办事处（居委会）代管物业,0.1,辽宁,5,二手房,1993
大连市甘井子区椒房街24号楼2-104链家地产,大连,中铁建（大连）置业有限公司,甘井子,20190706,38.985363789837166,121.61034055597686,青秀蓝湾一期,28,20462,中国铁建地产集团物业公司,1.5,辽宁,5,二手房,2015
甘井子区芳韵街31号,大连,大连亿达房地产股份有限公司,甘井子,20190706,38.95628814568166,121.59125586946814,唯美品格,98,30027,亿达物业管理有限公司,1.5,辽宁,5,二手房,2008
沙河口区富国街14号1-1-2,大连,大连永辉房地产开发有限公司,沙河口,20190706,38.901027106600836,121.59047734850638,百年汇,127,18814,大连百年城物业管理有限公司,2.8,辽宁,5,二手房,2006
金州区凤翔路220号,大连,大连德泰控股有限公司,金州,20190706,39.08410553937731,121.77700083356399,德泰岭秀逸城B区,79,10794,大连德泰物业管理有限公司,1.9,辽宁,5,二手房,2008
无门店信息,大连,大连新跃房地产开发有限公司,金州,20190706,34.52713835999158,118.76812980670795,金海国际花园,219,8003,盘锦瀚新物业管理有限公司,1,辽宁,5,二手房,2005
金州新区先进街道渤海街7-4号1-2层、7-3号1-2层,大连,无开发商,金州,20190706,39.09342713035472,121.74590886291374,金色阳光,18,8267,大连金广物业有限公司,0.5,辽宁,4,二手房,2003
沙河口区中山路417A-4号,大连,无开发商,沙河口,20190706,38.90740323140171,121.59484801084653,同泰街,22,12833,无物业管理服务,0.5,辽宁,4,二手房,1998
沙河口区红旗东路18-22号2单元1楼3号,大连,大连渤海红旗集团有限公司,甘井子,20190706,38.913544290955585,121.59450670056631,红旗东路,45,11823,渤海吉祥物业管理有限公司,0.4,辽宁,4,二手房,1990
甘井子区华北路花锦园28号23-3-1-2建筑物,大连,大连东特房地产开发有限公司,甘井子,20190706,38.951627958411166,121.5739439799003,东特星中环,23,16414,大连东特祥禾物业管理有限公司,0.8,辽宁,4,二手房,2003
无门店信息,大连,大连众仕房地产开发有限公司,开发区,20190706,34.52713835999158,118.76812980670795,山河御景,24,8292,大连山河物业管理有限公司,1.5,辽宁,4,二手房,2010
甘井子区红旗中路143号1层4号,大连,大连红旗兴达房地产开发有限公司,甘井子,20190706,38.93169566676921,121.5426632438217,兴达福山居,24,15018,大连万泰物业管理有限公司,0.4,辽宁,4,二手房,2005
甘井子区红旗中路143号1层4号,大连,亿海房地产开发有限公司,甘井子,20190706,38.93169566676921,121.5426632438217,红旗西路,5,12454,大连万泰物业管理有限公司,0.2,辽宁,4,二手房,1996
甘井子区华东路22号公建,大连,大连凯祥房地产开发有限公司,甘井子,20190706,38.97736184953593,121.5935814234334,环馨山庄,22,13171,大连凯祥物业管理有限公司,0.5,辽宁,4,二手房,2000
沙河口区锦霞南园13号3-1-1,大连,大连锦绣房地产开发有限公司,沙河口,20190706,38.94761264366187,121.55126272246873,锦华南园,16,10758,大连锦绣物业管理有限公司,0.3,辽宁,4,二手房,2000
金州区同济路44号,大连,大连金宸集团,金州,20190706,39.10476859984152,121.71234684495865,连大文润金宸三期,52,11756,大连四通物业管理有限公司,1,辽宁,4,二手房,2009
无门店信息,大连,新兴际华集团有限公司,甘井子,20190706,34.52713835999158,118.76812980670795,中华城,21,15909,大连仲邦维行物业管理有限公司,2.5,辽宁,4,二手房,2017
甘井子区华北路花锦园28号23-3-1-2建筑物,大连,大连东特房地产开发有限公司,甘井子,20190706,38.951627958411166,121.5739439799003,东特金星公馆,32,16240,大连东特祥禾物业管理有限公司,1.2,辽宁,4,二手房,2009
中山区山屏街116号1-1,大连,大连中信海港投资有限公司,中山,20190706,38.90729438486833,121.68598159980013,山峦街,10,11830,无物业管理服务,-,辽宁,4,二手房,1990
金州区南棉路310号,大连,大连金连房地产开发有限公司,金州,20190706,39.09939229372624,121.72414976100345,金连福地,30,8177,街道办事处（居委会）代管物业,0.5,辽宁,4,二手房,2004
无门店信息,大连,无开发商,金州,20190706,34.52713835999158,118.76812980670795,滨海丰园,110,8384,街道办事处（居委会）代管物业,0.5,辽宁,4,二手房,2001
开发区东北三街94号1层,大连,大连同济房地产开发有限公司,开发区,20190706,39.05723508011585,121.80570768630555,新东方公寓三期,88,6692,大连同济物业管理有限公司,1.5,辽宁,4,二手房,2005
无门店信息,大连,大连新兴海韵房地产开发有限公司,金州,20190706,34.52713835999158,118.76812980670795,通用阳光丽景,75,7142,街道办事处（居委会）代管物业,1.4,辽宁,4,二手房,2006
沙河口区华新苑10号楼4号公建,大连,大连祥盛房屋开发有限公司,沙河口,20190706,38.94033750532864,121.58990295130229,香洲心城,24,18770,大连百特物业管理有限公司,1,辽宁,4,二手房,2003
金州区胜利西小区44号楼,大连,大连金宸集团,金州,20190706,39.10507689383061,121.71536524220103,连大文润金宸一二期,41,10735,大连四通物业管理有限公司,0.9,辽宁,4,二手房,2000
沙河口区红凌路137号,大连,大连大实企业集团房屋开发有限公司,甘井子,20190706,38.922699288974506,121.54713601744747,泊林映山,35,12671,大连弘实物业管理有限公司,1.2,辽宁,4,二手房,2010
甘井子区惠泽南园3-4号,大连,大连九衡房地产开发有限公司,甘井子,20190706,38.939326611323615,121.52337842113351,易和熙园,25,19699,大连易兴物业服务有限公司,2.3,辽宁,4,二手房,2013
甘井子区华龙南园12-4-3-1-3,大连,大连长鹭房屋开发有限公司,甘井子,20190706,38.98528794231248,121.61028969481718,晶品枫林,48,13647,北京房修一物业管理有限公司,0.5,辽宁,4,二手房,2008
甘井子区泉水K4区1号2单元1层1号,大连,暂无信息,甘井子,20190706,39.01482019232349,121.63242049308988,龙畔金泉五期K3区,62,13791,大连新兴物业管理有限公司,0.5,辽宁,4,二手房,2008
沙河口区兰田街33号,大连,无开发商,沙河口,20190706,38.926138912221084,121.56486022834609,马栏广场东,23,11475,大连辽南物业管理有限公司,0.2,辽宁,4,二手房,1995
开发区鹏程家园66#-6、66#-7公建,大连,大连神洲众益集团有限公司,开发区,20190706,37.92440451755906,112.59861436589645,众益阳光海岸,93,10556,大连万佳物业管理有限公司,1.2,辽宁,4,二手房,2004
开发区杏花里13#楼-7号,大连,无开发商,开发区,20190706,31.31075067906954,120.63127837058457,杏花里,65,6778,大连经济技术开发区杏林物业管理有限公司,0.3,辽宁,4,二手房,1993
大连开发区金马路169-2-8号,大连,大连德泰控股有限公司,开发区,20190706,39.057398235688176,121.78261137849105,德泰时代广场,42,13499,大连德泰物业管理有限公司,0.5,辽宁,4,二手房,2010
甘井子区虹城路503号1-1号,大连,大连易和房地产集团有限公司,甘井子,20190706,38.981193588625004,121.49964051837122,岭秀滨城悦和西园,28,14110,大连易兴物业服务有限公司,1.3,辽宁,4,二手房,2008
金州区小平岛B组团4号楼3号商铺,大连,大连圣岛房地产开发有限公司,高新园区,20190706,39.05643299166072,121.78943558267059,小平岛海角七号,56,21229,大连凯尔富物业管理有限公司,1.7,辽宁,4,二手房,2009
甘井子区红旗西路104-23,大连,大连鹏德房屋开发有限公司,甘井子,20190706,38.94013845868325,121.5282577714263,逸林派,27,15107,大连三和住邦物业管理有限公司,1.6,辽宁,4,二手房,2010
甘井子区西南路979-7号公建,大连,大连祥盛房屋开发有限公司,甘井子,20190706,38.96275592929325,121.5958698791777,金盛家园,55,17229,大连宏华物业管理有限公司,0.5,辽宁,4,二手房,2001
甘井子辛吉街150号-7号,大连,"大连新界置业有限公司,大连新星房地产开发有限公司",甘井子,20190706,38.96368508446978,121.52671221254214,新星绿城三期,74,13010,大连生生物业管理有限公司,0.5,辽宁,4,二手房,2004
无门店信息,大连,大连安邦房地产开发有限公司,甘井子,20190706,34.52713835999158,118.76812980670795,安邦阳光润城,40,12987,无物业管理服务,-,辽宁,4,二手房,2008
甘井子区泉水B2区19-1号,大连,北方沿海房地产开发（大连）有限公司,甘井子,20190706,39.0101309886317,121.60812584213187,沿海鉴筑二期,20,16631,美佳物业管理（深圳）有限公司大连分公司,1.5,辽宁,4,二手房,2009
甘井子区泉水D6区51号,大连,大连时代房地产开发有限公司,甘井子,20190706,39.00897610161069,121.61789300655198,富士庄园,65,16034,大连佳泰物业管理有限公司,1.2,辽宁,4,二手房,2004
甘井子区玉丽街39号楼3号公建,大连,大连乾元房地产开发有限公司,甘井子,20190706,38.98706755029984,121.55605471197089,和合美家,14,13674,大连广兴物业管理有限公司,0.8,辽宁,4,二手房,1998
沙河口区锦霞南园1号1层公建,大连,大连锦绣房地产开发有限公司,沙河口,20190706,38.947367114450536,121.55342584213675,锦虹北园,21,11936,大连锦绣物业管理有限公司,0.3,辽宁,4,二手房,1996
中山区杏林街66—5号,大连,嘉和房地产集团有限公司,中山,20190706,38.92572771377599,121.66490555592502,嘉和花样年华三期,56,24179,大连嘉和物业管理有限公司,3.5,辽宁,4,二手房,2002
高新园区火炬路18号,大连,大连嘉创房地产开发有限公司,高新园区,20190706,38.937738080520404,117.39340752036043,嘉创E人国际,74,16155,大连紫金物业管理有限公司,2,辽宁,4,二手房,2009
开发区润海园中区62-9,大连,暂无信息,开发区,20190706,39.04047273176333,121.76392358042445,大连海湾城二期,46,12890,大连金广物业服务有限公司,2.6,辽宁,4,二手房,2012
甘井子区泉水H1区54号3单元1层1号,大连,暂无信息,甘井子,20190706,39.0074937564393,121.62382856020916,龙畔金泉五期K1区,38,13726,大连新兴物业管理有限公司,0.5,辽宁,4,二手房,2008
沙河口区黄河路562号,大连,大连新型房地产开发有限公司,沙河口,20190706,38.9167961764482,121.60352063132478,79中科学家公寓,41,20951,大连新兴物业管理有限公司,0.8,辽宁,4,二手房,1995
甘井子区红旗花园23号楼19-24轴公建,大连,大连科宏房屋开发有限公司,甘井子,20190706,38.93108029984587,121.54902145022133,海港楼,21,9583,大连科海物业有限公司,0.2,辽宁,4,二手房,1988
中山区三八广场5号,大连,无开发商,中山,20190706,38.92540000551715,121.6642911149562,良运四季汇,58,22153,大连良运物业管理有限公司,0.8,辽宁,4,二手房,2008
开发区景和园1-7,大连,无开发商,开发区,20190706,30.41892168817929,120.30896459202738,古耕景和园,39,9457,街道办事处（居委会）代管物业,0.5,辽宁,4,二手房,2007
高新园区硅谷假日小区25号楼地下室,大连,浦项（大连）软件园开发有限公司,高新园区,20190706,38.86467854992112,121.53720784613759,浦项道,37,23282,浦项(大连)物业管理有限公司,3.4,辽宁,4,二手房,2015
中山区清溪南街11号,大连,大连澳南房屋开发有限公司,中山,20190706,38.88919604283904,121.66466481004835,明秀嘉园,7,24537,大连澳南物业管理有限公司,1.2,辽宁,4,二手房,2007
沙河口区绿清街12号,大连,大连中海新城置业有限公司,沙河口,20190706,38.93851335419565,121.57334844377094,中海英伦观邸,53,23133,大连中海物业管理有限公司,1.8,辽宁,4,二手房,2009
西岗区平等街21号1层2号,大连,辽宁宁安房地产开发有限公司,西岗,20190706,38.92251066253164,121.63236845125735,良玖国际,42,16291,大连良玖物业管理有限责任公司,3.7,辽宁,4,二手房,2004
甘井子区山东路127-2号,大连,大连市大钢集团,甘井子,20190706,38.99065559549029,121.59126483545545,苍山路,52,12696,街道办事处（居委会）代管物业,0.4,辽宁,4,二手房,1988
甘井子区华北路花锦园28号23-3-1-2建筑物,大连,无开发商,甘井子,20190706,38.951627958411166,121.5739439799003,华北路（甘）,29,15826,街道办事处（居委会）代管物业,0.1,辽宁,4,二手房,1980
甘井子区汇仁街19号12号楼1单元102室,大连,大连凯祥房地产开发有限公司,甘井子,20190706,38.99746297497168,121.58917714380617,名贵山庄亲情园,21,14514,大连弘益达物业管理有限公司,0.5,辽宁,4,二手房,2002
甘井子区辛寨子街道中冶蓝城辛虹园39-7号公建,大连,大连中冶京诚置业有限公司,甘井子,20190706,38.98155611421408,121.49259383356096,中冶蓝城D区,33,15629,大连添翼物业服务有限公司,2,辽宁,4,二手房,2010
甘井子区甘井子街3号公建,大连,无开发商,甘井子,20190706,38.982086281836246,121.63426694995971,甘泉小区,16,12547,街道办事处（居委会）代管物业,0.5,辽宁,4,二手房,1999
甘井子区红南东街7-7号,大连,大连均卫达房地产开发有限公司,甘井子,20190706,38.92880462247992,121.54144910207062,亲亲阳光,9,13093,大连万泰物业管理有限公司,0.5,辽宁,4,二手房,2003
沙河口区黑石礁街5号1层1号,大连,无开发商,沙河口,20190706,38.879813345473714,121.56313742300513,黑石礁广场,31,13659,无物业管理服务,-,辽宁,4,二手房,1980
无门店信息,大连,大连明和房地产开发有限公司,开发区,20190706,34.52713835999158,118.76812980670795,知语山园,36,10755,大连大众物业管理有限公司,1.3,辽宁,4,二手房,2003
金州新区先进街道渤海街7-4号1-2层、7-3号1-2层,大连,大连海洋房地产开发有限公司,金州,20190706,39.09342713035472,121.74590886291374,金海嘉园,20,8358,大连辽渔物业管理有限公司,0.8,辽宁,4,二手房,2003
甘井子区虹港路16号楼1层公建,大连,无开发商,甘井子,20190706,38.9645939333502,121.553851837474,迎客路（机场商圈）,34,12503,街道办事处（居委会）代管物业,0.2,辽宁,4,二手房,1990
沙河口区鞍山路65号美都园7号1单元1层4号公建,大连,大连美辰房地产开发有限公司,沙河口,20190706,38.92755211283745,121.60306664748275,丽景春天,31,19233,大连远洋基业物业管理有限公司,0.8,辽宁,4,二手房,2003
无门店信息,大连,大连宏港房地产开发有限公司,开发区,20190706,34.52713835999158,118.76812980670795,港湾观海,70,8682,大连宏港物业管理有限公司,0.5,辽宁,4,二手房,2010
开发区松苑街23号,大连,大连泰乐房地产开发有限公司,开发区,20190706,22.52087435807652,113.40156105086167,碧海华庭,51,6787,大连海滨物业管理有限公司,0.5,辽宁,4,二手房,2000
沙河口区民权街324号,大连,大连天河房地产开发集团有限公司,沙河口,20190706,38.92064616208148,121.59777611850379,民权小区,42,12924,大连福港物业管理有限公司,0.2,辽宁,4,二手房,1990
大连市金州新区中长街道碧海尚城5-4号1-2层,大连,无开发商,金州,20190706,39.100290954587514,121.7304796052032,碧海尚城,129,8100,街道办事处（居委会）代管物业,0.8,辽宁,4,二手房,2005
大连市金州新区友谊街道和平路59-10号1-2层公建,大连,无开发商,金州,20190706,39.112168401852266,121.72006917947859,古城乙区,196,7455,无物业管理服务,-,辽宁,4,二手房,1992
大连经济技术开发区时代城4-3号1-2号,大连,暂无信息,开发区,20190706,39.0992481321252,121.83007860699459,摩宿公寓,78,7431,大连远洋基业物业管理有限公司,1.5,辽宁,4,二手房,2009
西岗区康平街2号（5号楼3-1-3号）,大连,暂无信息,西岗,20190706,38.91044414697888,121.61980769264477,34中民众街,17,29522,无物业管理服务,-,辽宁,4,二手房,1985
无门店信息,大连,大连乐启房地产开发有限公司,甘井子,20190706,34.52713835999158,118.76812980670795,三寰融创城南园,71,13021,融创物业,2.2,辽宁,4,二手房,2014
开发区黄海西路201号107公建,大连,无开发商,开发区,20190706,39.04942604506828,121.80126318235419,自由港,44,6980,大连安洁物业管理服务有限公司,1.5,辽宁,4,二手房,2000
开发区红星海B区212-1,大连,远洋地产有限公司,开发区,20190706,39.027851194371685,121.80327394132297,红星海五期岚谷,127,13919,大连远洋基业物业管理有限公司,2.2,辽宁,4,二手房,2007
无门店信息,大连,暂无信息,旅顺口,20190706,34.52713835999158,118.76812980670795,荷塘悦色,34,8795,街道办事处（居委会）代管物业,-,辽宁,4,二手房,2000
中山区爱华街13号,大连,无开发商,中山,20190706,38.92541607518685,121.6535728031028,39中安阳街,39,25905,无物业管理服务,-,辽宁,4,二手房,1983
西岗区平等街21号1层2号,大连,暂无信息,西岗,20190706,38.92251066253164,121.63236845125735,实验小学英华街,93,21426,无物业管理服务,0.6,辽宁,4,二手房,1985
西岗区华北路100号1层5号,大连,大连双振房屋开发有限公司,沙河口,20190706,38.92047268927287,121.61862512554262,香茗苑,6,16143,大连双振物业有限公司,0.5,辽宁,4,二手房,2002
大连市甘井子区辛如街35号1单元1层1号,大连,大连新星房地产开发有限公司,甘井子,20190706,38.96862607066881,121.52294869064194,新星绿城六期,42,15201,大连生生物业管理有限公司,1,辽宁,4,二手房,2006
无门店信息,大连,大连市中联房地产开发有限公司,金州,20190706,34.52713835999158,118.76812980670795,卧龙园,29,6770,大连健龙物业管理有限公司,0.5,辽宁,4,二手房,2000
甘井子区华龙南园34-5号34-库4号34-5号,大连,大连运达房地产集团有限公司,甘井子,20190706,38.98270467597865,121.6117222765123,泊岭紫郡,38,13392,大连怡和物业服务有限公司,0.9,辽宁,4,二手房,2008
无门店信息,大连,无开发商,金州,20190706,34.52713835999158,118.76812980670795,永安四季,47,7250,无物业管理服务,0.5,辽宁,3,二手房,2005
中山区杏林街66—5号,大连,无开发商,中山,20190706,38.92572771377599,121.66490555592502,39中民生里,9,27215,街道办事处（居委会）代管物业,0.5,辽宁,3,二手房,1990
西岗区九三街64号,大连,大连金福星房地产开发有限公司,西岗,20190706,38.92047268927287,121.61862512554262,金福星大厦,6,8540,大连金星物业管理中心,2.2,辽宁,3,二手房,2001
甘井子区祥龙街2号楼1单元1楼1号,大连,无开发商,甘井子,20190706,38.988045874482445,121.60439401971377,金荣路,6,12505,无物业管理服务,-,辽宁,3,二手房,1990
甘井子区泉水D1区10-2#1-1-7,大连,大连春达房屋开发有限公司,甘井子,20190706,39.01504676175047,121.61751269364314,景富铭苑,15,12464,庄河金城物业管理有限公司,0.5,辽宁,3,二手房,2004
中山区高尚路28-1号,大连,无开发商,中山,20190706,38.892673425111305,121.67148833870213,宪卫里,16,10558,无物业管理服务,0.5,辽宁,3,二手房,1992
甘井子区华北路花锦园28号23-3-1-2建筑物,大连,大连东特房地产开发有限公司,沙河口,20190706,38.951627958411166,121.5739439799003,东特新居,16,12265,大连东特祥禾物业管理有限公司,0.5,辽宁,3,二手房,1998
中山区爱华街13号,大连,大连新世界广场国际有限公司,中山,20190706,38.92541607518685,121.6535728031028,曼哈顿大厦,45,14053,大连侨乐物业服务有限公司,3.5,辽宁,3,二手房,2004
甘井子区山东路商业街D区12号公建,大连,无开发商,甘井子,20190706,39.001060021502965,121.58883960371418,七绣路,24,12234,街道办事处（居委会）代管物业,0.5,辽宁,3,二手房,1995
西岗区绕山路31号公建一层东侧,大连,无开发商,西岗,20190706,38.90257514466717,121.61412736644739,和云巷,19,10049,无物业管理服务,-,辽宁,3,二手房,1990
沙河口区联合路133号,大连,大连新型房地产开发有限公司,沙河口,20190706,38.91608561262676,121.60480987310456,21中联德小区,5,21149,大连新型物业管理有限公司,0.5,辽宁,3,二手房,1998
无门店信息,大连,大连顺迈房地产开发有限公司,沙河口,20190706,34.52713835999158,118.76812980670795,星海国宝,61,20410,长城物业集团股份有限大连分公司,3,辽宁,3,二手房,2000
金州区南棉路310号,大连,暂无信息,金州,20190706,39.09939229372624,121.72414976100345,环保小区,18,7035,街道办事处（居委会）代管物业,0.5,辽宁,3,二手房,1990
西岗区长春路334号,大连,无开发商,西岗,20190706,38.89807766522607,121.63221082858387,石峰街,13,11220,大连大众物业管理有限公司,0.3,辽宁,3,二手房,1986
沙河口区西南路851号3单元1层3号,大连,暂无信息,沙河口,20190706,38.94344210837944,121.58246796944378,凌山三街,2,10938,无物业管理服务,-,辽宁,3,二手房,1970
沙河口区锦云北园9号2单元1层2号,大连,大连锦绣房地产开发有限公司,沙河口,20190706,38.94836395772248,121.55744845421044,锦云北园,22,10941,大连锦绣物业管理有限公司,0.3,辽宁,3,二手房,1995
西岗区康平街2号（5号楼3-1-3号）,大连,无开发商,西岗,20190706,38.91044414697888,121.61980769264477,长太巷,7,11690,无物业管理服务,-,辽宁,3,二手房,1990
甘井子区红旗花园23号楼19-24轴公建,大连,大连银泰房地产有限公司,甘井子,20190706,38.93108029984587,121.54902145022133,祥和园,22,14588,无物业管理服务,0.5,辽宁,3,二手房,2000
高新园区敬贤街25-9,大连,大连邦盛发展有限公司,高新园区,20190706,38.86879447142154,121.53007349209936,雯君庭,38,21397,大连意美物业服务有限公司,2.3,辽宁,3,二手房,2013
沙河口区五一路326号,大连,大连亿达房地产股份有限公司,高新园区,20190706,38.913544290955585,121.59450670056631,亿达学清园,25,22969,大连软件园物业管理有限公司,1.2,辽宁,3,二手房,2000
金州区光明街道育才街42-6号1-2层,大连,暂无信息,金州,20190706,39.109080894078986,121.7182584929096,芙蓉花园（金州）,30,9919,大连金州新区建房物业管理中心,0.6,辽宁,3,二手房,2007
开发区安盛里5栋-4,大连,中房集团大连房地产有限公司,开发区,20190706,23.112106678834838,113.27801046214822,盛德嘉洲,12,14339,大连中鸣物业服务有限公司,1.8,辽宁,3,二手房,2009
甘井子区西南路950—1号1层1号,大连,暂无信息,甘井子,20190706,38.96304110156522,121.59665499819343,八十中东海街,28,15669,街道办事处（居委会）代管物业,0.2,辽宁,3,二手房,1980
沙河口区中山路417A-4号,大连,大连宝嘉房地产有限公司,沙河口,20190706,38.90740323140171,121.59484801084653,德源筑座,24,22270,大连乐尔居物业服务有限公司,2.5,辽宁,3,二手房,2008
沙河口区成仁街91号,大连,大连万达房地产开发有限公司,沙河口,20190706,38.91539947107844,121.59585638842556,龙祥花园,19,24852,大连万达物业管理有限公司,0.8,辽宁,3,二手房,2001
中山区民运巷 47号1层2号,大连,大连新型房地产开发总公司,中山,20190706,38.905955122300846,121.64798148011702,葵英小区,9,13886,街道办事处（居委会）代管物业,0.3,辽宁,3,二手房,1996
沙河口区星海广场B3区14-9,大连,大连友谊合升房地产开发有限公司,沙河口,20190706,38.88708614275256,121.58732027085938,壹品星海三期,48,23921,大连友谊物业服务有限公司,1.2,辽宁,3,二手房,2004
中山区高尚路28-1号,大连,无开发商,中山,20190706,38.892673425111305,121.67148833870213,高家沟,27,10717,大连景山物业管理有限公司,0.5,辽宁,3,二手房,1992
西岗区黄河路362号公建,大连,大连万达商业地产有限公司,西岗,20190706,38.91819905243802,121.61365779430986,万达华府二期,50,23404,大连万景物业管理有限公司,1.6,辽宁,3,二手房,2005
高新园区红凌路732-4号,大连,大连亿达房地产股份有限公司,高新园区,20190706,38.90204708664442,121.53244406374695,亿达峦翠园,41,20625,亿达物业管理有限公司,1.3,辽宁,3,二手房,2009
沙河口区恒利园42号-8,大连,大连新型房地产开发有限公司,沙河口,20190706,38.93357562498634,121.57914091532649,中铁十三局,16,13313,大连新兴物业管理有限公司,0.3,辽宁,3,二手房,1990
高新园区敬贤街25-9,大连,大连家豪房地产开发有限公司,高新园区,20190706,38.86879447142154,121.53007349209936,圣托里尼,46,21125,大连斌弘物业管理有限公司,1.8,辽宁,3,二手房,2012
中山区职工街96号1-3层公建,大连,无开发商,中山,20190706,38.92565613737007,121.66193575790903,警后大院（三八广场）,19,15023,无物业管理服务,-,辽宁,3,二手房,1993
甘井子区泉水P3区35-2号,大连,暂无信息,甘井子,20190706,39.01530162252779,121.63546089163083,泉水P2区,5,11188,暂无信息,1.2,辽宁,3,二手房,2014
中山区碧浪园4号-3号,大连,无开发商,中山,20190706,38.89147289460474,121.69329560326236,碧海园,19,17789,大连远洋基业物业管理有限公司,0.5,辽宁,3,二手房,2000
西岗区鞍山路65-5号,大连,大连晟大房地产开发有限公司,沙河口,20190706,38.926971569913064,121.60260230348328,亿鑫大厦,2,13551,大连德一物业管理有限公司,1,辽宁,3,二手房,2000
开发区大开高吉里33栋6号,大连,无开发商,开发区,20190706,39.07355836059941,121.8280439450145,高泰里,15,6359,无物业管理服务,-,辽宁,3,二手房,1996
甘井子区泉水B5区27-9,大连,大连华智房地产开发有限公司,甘井子,20190706,39.01477152073682,121.60970286326823,华远新都汇广场,31,12220,街道办事处（居委会）代管物业,1,辽宁,3,二手房,2010
无门店信息,大连,暂无信息,旅顺口,20190706,34.52713835999158,118.76812980670795,龙王塘一号,52,8583,街道办事处（居委会）代管物业,1.2,辽宁,3,二手房,2009
沙河口区中山路417A-4号,大连,无开发商,沙河口,20190706,38.90740323140171,121.59484801084653,连华街,16,15617,无物业管理服务,-,辽宁,3,二手房,1990
沙河口区华北路448号楼1-4公建,大连,无开发商,甘井子,20190706,38.903224944733765,121.56809734950556,周山街,27,16209,街道办事处（居委会）代管物业,0.5,辽宁,3,二手房,1985
大连市甘井子区丰收路3-5号,大连,无开发商,甘井子,20190706,38.965377255081755,121.58288415324094,顺发路,25,12733,街道办事处（居委会）代管物业,0.2,辽宁,3,二手房,1993
无门店信息,大连,无开发商,西岗,20190706,34.52713835999158,118.76812980670795,双兴财富长街（大菜市商圈）,33,14234,街道办事处（居委会）代管物业,0.5,辽宁,3,二手房,2004
大连市甘井子区丰收路3-5号,大连,大连壹高房地产发展有限公司,甘井子,20190706,38.965377255081755,121.58288415324094,朗香小镇,17,21687,大连顶点物业管理有限公司,1.3,辽宁,3,二手房,2008
高新园区硅谷假日小区25号楼地下室,大连,暂无信息,高新园区,20190706,38.86467854992112,121.53720784613759,硅谷假日公寓,19,14880,大连斌弘物业管理有限公司,1.5,辽宁,3,二手房,2004
甘井子区红旗中路143号1层4号,大连,大连红旗兴达房地产开发有限公司,甘井子,20190706,38.93169566676921,121.5426632438217,兴达依山居,29,14027,大连金诚物业管理有限公司,0.3,辽宁,3,二手房,2003
甘井子区西南路979-7号公建,大连,大连圣元房地产开发有限公司,甘井子,20190706,38.96275592929325,121.5958698791777,亿达梧桐路,24,22068,亿达物业管理有限公司,1.5,辽宁,3,二手房,2010
沙河口区西南路358号1—2号,大连,大连泰安房地产开发有限公司,沙河口,20190706,38.90839654326566,121.56908246905662,泰安花园,29,14621,大连三宝物业发展有限公司,0.5,辽宁,3,二手房,1998
沙河口区兰田街33号,大连,渤海恒达房屋开发有限公司,沙河口,20190706,38.926138912221084,121.56486022834609,西苑小区,34,12993,大连西苑物业管理有限公司,0.3,辽宁,3,二手房,1994
沙河口区五一路110-4号,大连,大连亿达房地产股份有限公司,沙河口,20190706,38.913544290955585,121.59450670056631,兰亭山水,40,21319,亿达物业管理有限公司,0.6,辽宁,3,二手房,2002
"西岗区泰公街20号2层7号 西岗区久寿街22号1层14号""",大连,大连万达房地产开发有限公司,西岗,20190706,38.92600196862723,121.62141976476381,万达高层,17,11631,大连白云物业管理公司,0.3,辽宁,3,二手房,1995
沙河口区锦霞南园13号3-1-1,大连,大连锦绣房地产开发有限公司,沙河口,20190706,38.94761264366187,121.55126272246873,锦霞南园,50,11393,大连锦绣物业管理有限公司,0.3,辽宁,3,二手房,1998
中山区东港龙湖水晶郦湾7-102,大连,大连金广地产集团有限公司,中山,20190706,38.924700620463895,121.70344398518496,金广东海岸,69,23669,大连金广物业有限公司,2.2,辽宁,3,二手房,2007
大连市甘井子区张前路620-18号（第19幢1单元1跃2层14号）,大连,无开发商,甘井子,20190706,38.98764207496216,121.52409526893047,嘉安边防家园,13,12584,大连新型物业管理有限公司,1,辽宁,3,二手房,2006
开发区湾里南12栋-16-17-18号,大连,大连金湾实业有限公司,开发区,20190706,39.070782084451,121.8506739675913,湾里西,70,7725,广宜物业有限公司,0.2,辽宁,3,二手房,1996
开发区高新里6栋-8,大连,无开发商,开发区,20190706,39.0710895068195,121.82860134358343,高民里,70,6854,街道办事处（居委会）代管物业,0.2,辽宁,3,二手房,1992
中山区民运巷 47号1层2号,大连,无开发商,中山,20190706,38.905955122300846,121.64798148011702,西山巷,35,10373,无物业管理服务,0.3,辽宁,3,二手房,1980
中山区清溪南街11号,大连,大连澳南房屋开发有限公司,中山,20190706,38.88919604283904,121.66466481004835,明秀山庄B区,34,34953,绿城物业服务集团有限公司大连分公司,1.9,辽宁,3,二手房,2008
无门店信息,大连,大连鲁能置业有限公司,金州,20190706,34.52713835999158,118.76812980670795,鲁能优山美地,94,11153,长城物业集团股份有限大连分公司,1.9,辽宁,3,二手房,2008
沙河口区五四路207-1-9号,大连,中航国际中航地产,沙河口,20190706,38.913544290955585,121.59450670056631,中航国际广场,26,21717,中航物业管理有限公司大连分公司,3.6,辽宁,3,二手房,2000
高新园区海苑街30号1单元1号公建,大连,大连大有文园房屋开发有限公司,高新园区,20190706,20.06392317589085,110.32302599457326,大有文园公寓,19,10826,大连大有恬园物业管理有限公司,2,辽宁,3,二手房,2010
无门店信息,大连,大连万林房地产开发有限公司,甘井子,20190706,34.52713835999158,118.76812980670795,我爱我家,20,14632,大连溪谷阳光物业服务有限公司,1.3,辽宁,3,二手房,2010
中山区金城街26号一楼,大连,无开发商,中山,20190706,38.922282529515634,121.65214466263014,九中洛川街,21,35935,无物业管理服务,-,辽宁,3,二手房,1990
开发区大开高吉里33栋6号,大连,大连开建集团有限公司,开发区,20190706,39.07355836059941,121.8280439450145,高城花园,41,7777,嘉兴物业管理有限公司,0.2,辽宁,3,二手房,2000
甘井子区金家街17-7号,大连,无开发商,甘井子,20190706,38.97493697764367,121.60110987128529,金二小学北,18,21972,无物业管理服务,-,辽宁,3,二手房,1970
无门店信息,大连,大连金宸集团,金州,20190706,34.52713835999158,118.76812980670795,金宸联郡,34,8717,大连四通物业管理有限公司,1.4,辽宁,3,二手房,2012
无门店信息,大连,暂无信息,甘井子,20190706,34.52713835999158,118.76812980670795,亿达春田蝶园,61,17445,亿达物业管理有限公司,2.2,辽宁,3,二手房,2012
甘井子区泉水B2区19-1号,大连,大连运达房地产集团有限公司,甘井子,20190706,39.0101309886317,121.60812584213187,锦泉源B1区,66,13449,大连佳泰物业管理有限公司,0.5,辽宁,3,二手房,2001
甘井子区泉水B2区19-1号,大连,北方沿海房地产开发（大连）有限公司,甘井子,20190706,39.0101309886317,121.60812584213187,沿海鉴筑,32,16883,美佳物业管理（深圳）有限公司大连分公司,1.8,辽宁,3,二手房,2010
开发区正恒园1-16,大连,大连富华房地产有限公司,开发区,20190706,39.04823944344617,121.76165468797754,正泰园A区,14,12159,嘉泰物业管理有限公司,1.9,辽宁,3,二手房,2012
无门店信息,大连,北方沿海房地产开发（大连）有限公司,沙河口,20190706,34.52713835999158,118.76812980670795,星海大观,220,17426,北京世邦魏理仕物业管理服务有限公司大连分公司,4.4,辽宁,3,二手房,2008
大连市开发区湾里东5-6号,大连,大连明和房地产开发有限公司,开发区,20190706,39.07275772231556,121.85888789351343,青国青城,66,11465,大连豪斯沃克物业有限公司,1.5,辽宁,3,二手房,2012
金州区小平岛B组团4号楼3号商铺,大连,大连安达房地产开发有限公司,高新园区,20190706,39.05643299166072,121.78943558267059,小平岛亲海园A2组团,49,20722,大连凯尔富物业管理有限公司,1.7,辽宁,3,二手房,2007
西岗区新田巷27号1-2,大连,无开发商,西岗,20190706,38.893215932589385,121.64103065169111,新河街,17,11192,无物业管理服务,-,辽宁,3,二手房,1990
开发区兴城路29-81层,大连,大连亿锋集团有限公司,开发区,20190706,39.050214252167194,121.75835946441768,亿锋广场三期,52,15267,大连广恒物业管理有限公司,2.8,辽宁,3,二手房,2010
西岗区香炉礁24号1-1,大连,中瑞置业（大连）有限公司,西岗,20190706,38.92047268927287,121.61862512554262,香周首府,83,19441,中融物业管理有限公司,3,辽宁,3,二手房,2008
沙河口区五一路270-274号,大连,大连亿达房地产股份有限公司,高新园区,20190706,38.913544290955585,121.59450670056631,city one,18,14383,街道办事处（居委会）代管物业,0.5,辽宁,3,二手房,2001
大连市甘井子区银田北园14号,大连,暂无信息,甘井子,20190706,38.9742441034389,121.47189841879823,亿达春田银杏园,61,18631,亿达物业管理有限公司,2.2,辽宁,3,二手房,2005
中山区杏林街66—5号,大连,嘉和房地产集团有限公司,中山,20190706,38.92572771377599,121.66490555592502,嘉和花样年华二期,63,21953,大连嘉和物业管理有限公司,2,辽宁,3,二手房,2005
金州区小平岛B组团4号楼3号商铺,大连,大连圣岛房地产开发有限公司,高新园区,20190706,39.05643299166072,121.78943558267059,小平岛海悦山,69,20276,大连凯尔富物业管理有限公司,1.3,辽宁,3,二手房,2008
金州区拥政街道733号-8号1-2层,大连,大连千川房地产有限公司,金州,20190706,39.11690610445662,121.73030803603723,湖畔嘉园,17,11059,大连千川物业管理有限公司,3.8,辽宁,3,二手房,2005
大连市经济技术开发区东城园98-14,大连,大连金湾实业有限公司,开发区,20190706,39.06925526014871,121.8505146710752,裕民新苑,59,8484,大连金湾物业管理有限公司,0.3,辽宁,3,二手房,2002
开发区兴城路29-81层,大连,中合北大荒（大连）置业有限公司,开发区,20190706,39.050214252167194,121.75835946441768,银帆国际,41,12538,大连中合物业管理有限公司,2,辽宁,3,二手房,2012
天河路173-2号 华润考拉22号公建,大连,无开发商,甘井子,20190706,23.14720645345518,113.3277414923158,七江路,24,12511,街道办事处（居委会）代管物业,0.2,辽宁,3,二手房,1995
沙河口区黄河路883号,大连,大连正源房地产开发有限公司,沙河口,20190706,38.919826721475204,121.57749657966676,幸福e家四期,66,32664,大连正源物业服务有限公司,1.2,辽宁,3,二手房,2003
中山区金城街26号一楼,大连,暂无信息,中山,20190706,38.922282529515634,121.65214466263014,解放街,21,24660,无物业管理服务,-,辽宁,3,二手房,1982
西岗区华北路100号1层5号,大连,大连万达房地产开发有限公司,西岗,20190706,38.92047268927287,121.61862512554262,香海花园,22,16521,大连万达物业管理有限公司,0.8,辽宁,3,二手房,1998
红星海A区126-4,大连,远洋地产有限公司,开发区,20190706,39.027851194371685,121.80327394132297,红星海一期城市别馆,113,13891,大连远洋基业物业管理有限公司,2.2,辽宁,3,二手房,2008
无门店信息,大连,暂无信息,开发区,20190706,34.52713835999158,118.76812980670795,十里岗小区,66,5887,大连经济技术开发区盛辉物业服务有限公司,0.5,辽宁,3,二手房,1994
开发区东北三街94号1层,大连,大连港连房地产开发有限公司,开发区,20190706,39.05723508011585,121.80570768630555,海航YOHO湾,45,10503,海航物业管理有限公司大连分公司,1.8,辽宁,3,二手房,2010
沙河口区红凌路137号,大连,大连大实企业集团房屋开发有限公司,甘井子,20190706,38.922699288974506,121.54713601744747,叠翠骏景,13,12343,大连弘实物业管理有限公司,0.4,辽宁,3,二手房,2004
沙河口区锦江园30号1层公建,大连,暂无信息,沙河口,20190706,38.949985113183935,121.56560955976859,锦江园绿莲街,12,11158,绿城物业服务集团有限公司大连分公司,0.2,辽宁,3,二手房,2001
金州新区八一路金都嘉园1号楼1号公建,大连,无开发商,金州,20190706,39.05525210261778,121.74865634199398,古城丙区,65,7375,街道办事处（居委会）代管物业,0.5,辽宁,3,二手房,1997
沙河口区锦石园24-7号第A2-13幢1单元1层1号,大连,大连鼎新房地产开发有限公司,甘井子,20190706,38.913544290955585,121.59450670056631,鼎新鼎润府,33,20858,大连鼎新物业管理有限公司,0.6,辽宁,3,二手房,2005
金州新区先进街道五一路350-1号1-2层,大连,暂无信息,金州,20190706,-,-,聚鑫小区一期,58,7535,大连新生活物业管理有限公司,0.5,辽宁,3,二手房,1993
沙河口区连山街44-2号半地下一层（地上一层部分）,大连,大连亿达房地产股份有限公司,沙河口,20190706,38.892991456958086,121.57299542767161,星海小区,22,11468,无物业管理服务,-,辽宁,3,二手房,1994
金州区拥政街道733号-8号1-2层,大连,大连市金州区房屋开发公司,金州,20190706,39.11690610445662,121.73030803603723,桂林小区,82,7062,街道办事处（居委会）代管物业,0.3,辽宁,3,二手房,1992
中山区杏林街66—5号,大连,大连开建集团有限公司,中山,20190706,38.92572771377599,121.66490555592502,花香维也纳,49,23102,大连开利物业管理有限公司,0.5,辽宁,3,二手房,2003
沙河口区黄埔路427号,大连,大连名仕房地产开发有限公司,高新园区,20190706,38.913544290955585,121.59450670056631,名仕乐居,19,20029,大连万祥物业管理有限公司,1.3,辽宁,3,二手房,2008
金州区光明街道育才街42-6号1-2层,大连,三门振兴房产开发公司,金州,20190706,39.109080894078986,121.7182584929096,育才小区,19,8155,无物业管理服务,-,辽宁,3,二手房,1989
甘井子区甘井子街3号公建,大连,无开发商,甘井子,20190706,38.982086281836246,121.63426694995971,新街,16,9872,无物业管理服务,-,辽宁,3,二手房,1980
中山区北斗街53号1层1号,大连,无开发商,中山,20190706,38.92727355733075,121.67002970974048,勤俭街（二七商圈）,2,11603,无物业管理服务,-,辽宁,2,二手房,1980
大连市金州新区中长街道碧海尚城5-4号1-2层,大连,无开发商,金州,20190706,39.100290954587514,121.7304796052032,金向山花园,5,6447,街道办事处（居委会）代管物业,0.5,辽宁,2,二手房,2000
西岗区八一路196号2-1-12号,大连,暂无信息,西岗,20190706,38.92047268927287,121.61862512554262,八一路（新起屯商圈）,3,16221,无物业管理服务,-,辽宁,2,二手房,1981
中山区高尚路28-1号,大连,无开发商,中山,20190706,38.892673425111305,121.67148833870213,高原街,27,10987,街道办事处（居委会）代管物业,0.5,辽宁,3,二手房,1989
甘井子区虹港路16号楼1层公建,大连,沈阳军区后勤部,甘井子,20190706,38.9645939333502,121.553851837474,金寓花园四期,5,18984,大连大管家物业管理有限公司,1,辽宁,2,二手房,2000
甘井子区山东路137号,大连,无开发商,甘井子,20190706,38.99129404608926,121.59172125999353,天河路,15,12337,街道办事处（居委会）代管物业,0.1,辽宁,2,二手房,1998
中山区益民街16号1层1号,大连,中海地产,中山,20190706,38.93092761298906,121.66470740073377,中海海港城,81,19287,中海物业,4.2,辽宁,3,二手房,2013
西岗区八一路102号,大连,无开发商,西岗,20190706,38.92047268927287,121.61862512554262,智勇巷,7,10750,无物业管理服务,-,辽宁,2,二手房,1989
西岗区长春路334号,大连,无开发商,西岗,20190706,38.89807766522607,121.63221082858387,南石巷,10,11484,无物业管理服务,0.5,辽宁,2,二手房,1992
沙河口区星海广场B3区14-2号1层,大连,大连万达房地产开发有限公司,沙河口,20190706,38.88693148294673,121.58735631267305,大连明珠,69,26570,大连万象美物业管理有限公司,3.5,辽宁,3,二手房,2008
沙河口区西南路40号楼,大连,无开发商,沙河口,20190706,38.94143337232082,121.58616557598133,尖山街,27,13524,无物业管理服务,-,辽宁,3,二手房,1988
中山区东港龙湖水晶郦湾7-102,大连,大连创富房地产开发有限公司,中山,20190706,38.924700620463895,121.70344398518496,中国铁建国滨苑,33,23976,北京国贸物业,4.3,辽宁,3,二手房,2015
沙河口区连山街44-2号半地下一层（地上一层部分）,大连,大连大和中盛房地产有限公司,沙河口,20190706,38.892991456958086,121.57299542767161,颐和星海,103,24196,大连颐和物业管理有限公司,2.5,辽宁,3,二手房,2012
沙河口区五一路110-4号,大连,大连大重房屋开发有限公司,沙河口,20190706,38.913544290955585,121.59450670056631,星台花园一期,35,16283,大连大重房屋开发公司物业管理中心,-,辽宁,3,二手房,1995
大连市沙河口区西南路875号1层21号,大连,大连泰安房地产开发有限公司,沙河口,20190706,38.94485969061231,121.58418648447764,春柳河小区,16,11692,大连三宝物业有限公司,0.5,辽宁,3,二手房,2000
甘井子区哲林北园17-6号,大连,大连科宏房屋开发有限公司,甘井子,20190706,38.9600267109581,121.53876726228256,虹港新居,32,13667,大连空港物业管理有限公司,0.4,辽宁,3,二手房,1996
西岗区新田巷27号1-2,大连,大连海苑房屋开发有限公司,西岗,20190706,38.893215932589385,121.64103065169111,半岛故乡,5,16825,大连半岛物业管理有限公司,0.8,辽宁,2,二手房,2002
高新园敬贤街23-11号,大连,暂无信息,高新园区,20190706,38.869456648212356,121.53023725049893,中海紫御观邸二期,26,21832,大连中海物业管理有限公司,2.6,辽宁,2,二手房,2011
开发区高新里6栋-8,大连,无开发商,开发区,20190706,39.0710895068195,121.82860134358343,新港家园,28,8651,龙祥物业管理有限公司,0.3,辽宁,2,二手房,2003
金州新区先进街道渤海街7-4号1-2层、7-3号1-2层,大连,无开发商,金州,20190706,39.09342713035472,121.74590886291374,金莲怡园,12,7901,街道办事处（居委会）代管物业,-,辽宁,2,二手房,2000
西岗区长春路334号,大连,无开发商,西岗,20190706,38.89807766522607,121.63221082858387,花园巷,3,9972,无物业管理服务,-,辽宁,2,二手房,1990
中山区爱华街13号,大连,大连银洲房地产开发有限公司,中山,20190706,38.92541607518685,121.6535728031028,中央公馆,34,13006,大连银洲物业管理有限公司,3.5,辽宁,2,二手房,2004
无门店信息,大连,大连北方工业房屋开发公司,西岗,20190706,34.52713835999158,118.76812980670795,温馨花园（胜利桥北商圈）,3,11156,北方物业开发有限公司,0.5,辽宁,2,二手房,1999
西岗区胜利路33号,大连,大连恒盛房屋开发有限公司,西岗,20190706,38.91309771954841,121.62500886627636,盛阳山庄,10,11216,大连佳捷物业管理有限公司,0.5,辽宁,2,二手房,1996
甘井子区红韵路114号,大连,大连亿达美加房地产开发有限公司,甘井子,20190706,38.95800216293212,121.53151895549547,第五郡六号地,43,31381,亿达物业管理有限公司,3,辽宁,2,二手房,2009
中山区益民街16号1层1号,大连,大连三鑫房地产开发有限公司,中山,20190706,38.93092761298906,121.66470740073377,金和苑,16,22523,大连报业物业管理有限公司三鑫分公司,3.5,辽宁,2,二手房,2004
天河路173-2号 华润考拉22号公建,大连,大连华南房地产开发有限公司,甘井子,20190706,23.14720645345518,113.3277414923158,名贵山庄华丽园,16,13689,大连弘益达物业管理有限公司,0.5,辽宁,2,二手房,2002
开发区松苑街23号,大连,暂无信息,开发区,20190706,22.52087435807652,113.40156105086167,松峪里二期,6,13289,大连中信物业管理有限公司,0.5,辽宁,2,二手房,2000
甘井子区红旗中路143号1层4号,大连,暂无信息,甘井子,20190706,38.93169566676921,121.5426632438217,湾家花园,9,12724,街道办事处（居委会）代管物业,0.2,辽宁,2,二手房,2000
开发区兴城路29-81层,大连,大连华宇房地产开发有限公司,开发区,20190706,39.050214252167194,121.75835946441768,华宇梧桐苑,16,13276,大连永嘉物业管理公司,1.9,辽宁,2,二手房,2012
甘井子区金北街17号,大连,暂无信息,甘井子,20190706,38.95800216293212,121.53151895549547,山宝花园,15,20786,无物业管理服务,-,辽宁,2,二手房,1970
沙河口区前程街15号1层E-C轴36-44轴公建,大连,大连安邦房地产开发有限公司,甘井子,20190706,38.91588050824643,121.60099647548584,阳光百合,13,17390,渤海吉祥物业管理有限公司,0.8,辽宁,2,二手房,2004
西岗区鞍山路29号龙畔锦城东门,大连,无开发商,西岗,20190706,38.92763470697088,121.61498923399098,双兴北巷（大菜市商圈）,10,10759,街道办事处（居委会）代管物业,0.5,辽宁,2,二手房,1990
甘井子区柳树南街45-11号,大连,大连顺达房屋开发有限公司,甘井子,20190706,38.92567666296449,121.4841330254372,顺达温泉花园一期,10,11139,大连顺达物业服务有限公司,0.6,辽宁,2,二手房,2003
西岗区长红街4号1号公建,大连,大连丰源房地产开发有限公司,西岗,20190706,38.91377414665191,121.6302525225721,丰源小区,16,21274,大连广安物业有限公司,0.5,辽宁,2,二手房,1990
沙河口区星海广场B3区20—3号,大连,大连华奇置业有限公司,沙河口,20190706,38.88782715536473,121.5869168319735,星海旺座,25,14597,大连佳和物业管理有限公司,2.5,辽宁,2,二手房,2004
甘井子区促进路200号,大连,大连鼎新房地产开发有限公司,甘井子,20190706,38.95810188892782,121.58530036264898,鼎新鼎云都,5,16254,大连鼎新物业管理有限公司,0.6,辽宁,2,二手房,2008
金州区小平岛B组团4号楼3号商铺,大连,大连安达房地产开发有限公司,高新园区,20190706,39.05643299166072,121.78943558267059,小平岛E东组团,35,21730,大连凯尔富物业管理有限公司,1.3,辽宁,2,二手房,2007
中山区华乐街71号公建,大连,大连环海房地产开发有限公司,中山,20190706,38.923187679200566,121.6843197903016,华乐小区,18,13790,大连景和物业管理有限公司,0.5,辽宁,2,二手房,2000
金州区凤翔路220号,大连,大连经济技术开发区银海开发置业有限公司,金州,20190706,39.08410553937731,121.77700083356399,达赫山庄,19,12669,街道办事处（居委会）代管物业,0.5,辽宁,2,二手房,2006
西岗区新田巷27号1-2,大连,无开发商,西岗,20190706,38.893215932589385,121.64103065169111,新林巷,21,9085,无物业管理服务,-,辽宁,2,二手房,1990
开发区红星海-B区89-1号,大连,远洋地产有限公司,开发区,20190706,39.027851194371685,121.80327394132297,红星海一期原墅,39,33298,大连远洋基业物业管理有限公司,2.2,辽宁,2,二手房,2010
甘井子区惠泽南园3-7号,大连,大连鹏德房屋开发有限公司,甘井子,20190706,38.939326611323615,121.52337842113351,鹏德同心园,8,15216,大连旺宇物业有限公司,1.7,辽宁,2,二手房,2005
金州新区八一路金都嘉园1号楼1号公建,大连,大连友谊合升房地产开发有限公司,金州,20190706,39.05525210261778,121.74865634199398,龙祥嘉园,78,8183,大连天河物业管理有限公司,0.5,辽宁,2,二手房,1999
中山区华乐街71号公建,大连,无开发商,中山,20190706,38.923187679200566,121.6843197903016,春园里,28,12270,无物业管理服务,-,辽宁,2,二手房,1990
金州区同济路44号,大连,大连新界置业有限公司,金州,20190706,39.10476859984152,121.71234684495865,新青年印象,72,7877,大连新青年物业管理有限公司,1.3,辽宁,2,二手房,2008
中山区同心街72号1楼公建,大连,大连万达房地产开发有限公司,西岗,20190706,38.91979245940674,121.64769198230202,雍景台,8,18252,大连万达物业管理有限公司,3.5,辽宁,2,二手房,2000
大连市金州区友谊街道南金华城25号1-2层1号,大连,大连金华房地产开发有限公司,金州,20190706,39.128677228885614,121.71356109978767,金华小区三期,11,9368,大连金华兴物业有限公司,1.2,辽宁,2,二手房,2009
甘井子区千山路66号楼2单元1楼2号,大连,大连祥盛房屋开发有限公司,甘井子,20190706,38.985716774397915,121.58287796391829,水彩巷,17,11819,大连新华物业管理有限公司,0.1,辽宁,2,二手房,1999
西岗区胜利路33号,大连,暂无信息,西岗,20190706,38.91309771954841,121.62500886627636,34中兴民街,10,27338,无物业管理服务,-,辽宁,2,二手房,1970
中山区中南路226号,大连,大连市建设控股有限公司,中山,20190706,38.90029610333926,121.68178899957817,欧洲小镇,11,17964,大连大众物业管理有限公司,0.8,辽宁,2,二手房,2004
大连市高新园区七贤中路63号,大连,大连宏都房地产开发有限公司,高新园区,20190706,38.86053006357667,121.53273606963094,宏都峰景,36,20753,大连东方百瑞物业管理有限公司,1.9,辽宁,2,二手房,2012
无门店信息,大连,大连永高房屋开发有限公司,西岗,20190706,34.52713835999158,118.76812980670795,功勋街（胜利桥北商圈）,18,12057,无物业管理服务,-,辽宁,2,二手房,1990
西岗区长春路334号,大连,无开发商,西岗,20190706,38.89807766522607,121.63221082858387,石葵路（石道街商圈）,15,12978,街道办事处（居委会）代管物业,0.5,辽宁,2,二手房,1983
开发区兴城路29-81层,大连,大连瑞宇置业有限公司,开发区,20190706,39.050214252167194,121.75835946441768,心海阳光,11,12861,大连经济技术开发区盛辉物业服务有限公司,1.8,辽宁,2,二手房,2011
甘井子区泉水B5区27-9,大连,大连运达房地产集团有限公司,甘井子,20190706,39.01477152073682,121.60970286326823,锦泉源B6区,21,14307,政治物业管理有限公司,0.5,辽宁,2,二手房,2010
沙河口区富国街14号1-1-2,大连,无开发商,沙河口,20190706,38.901027106600836,121.59047734850638,星云街,18,11228,无物业管理服务,-,辽宁,2,二手房,1990
西岗区黄河路362号公建,大连,大连万佳房地产开发有限公司,西岗,20190706,38.91819905243802,121.61365779430986,优豪斯,13,25297,大连万佳物业管理有限公司,1.2,辽宁,2,二手房,2002
中山区鲁迅路184号1层B—A,大连,无开发商,中山,20190706,38.92590875965419,121.67594393403164,新柳街,8,13544,无物业管理服务,-,辽宁,2,二手房,1985
大连市高新园区桃峪园4-2号第31幢-2层8号,大连,大连软件园安博开发有限公司,高新园区,20190706,38.9189536667856,121.62163148459285,亿达普罗旺斯,75,22213,亿达物业管理有限公司,2.6,辽宁,2,二手房,2013
高新园区火炬路18号,大连,大连海创房地产开发有限公司,高新园区,20190706,38.937738080520404,117.39340752036043,芝麻街,67,14030,大连海创物业管理有限公司,2.4,辽宁,2,二手房,2004
金州区同济路44号,大连,大连市金州区光明房地产开发有限公司,金州,20190706,39.10476859984152,121.71234684495865,绿苑小区,38,7231,街道办事处（居委会）代管物业,0.5,辽宁,2,二手房,2000
西岗区八一路196号2-1-12号,大连,无开发商,西岗,20190706,38.92047268927287,121.61862512554262,八一路（八一路商圈）,21,11213,无物业管理服务,-,辽宁,2,二手房,1990
金州区拥政街道733号-8号1-2层,大连,大连市金州区房屋开发公司,金州,20190706,39.11690610445662,121.73030803603723,春和小区,34,7335,街道办事处（居委会）代管物业,0.1,辽宁,2,二手房,1995
中山区同心街72号1楼公建,大连,大连振屹房屋开发有限公司,中山,20190706,38.91979245940674,121.64769198230202,城市广场,32,15612,大连振屹物业有限公司,3.5,辽宁,2,二手房,2004
中山区华乐街107-115号,大连,大连复城置业有限公司,中山,20190706,38.92093821499401,121.68879267531725,星光耀广场,20,24836,上海复瑞物业管理有限公司大连分公司,4.8,辽宁,2,二手房,2015
无门店信息,大连,暂无信息,开发区,20190706,34.52713835999158,118.76812980670795,民生园,25,7068,暂无信息,-,辽宁,2,二手房,2015
中山区武昌街武昌公寓6号公建,大连,无开发商,中山,20190706,38.912280913445784,121.64921130527547,气象街,19,21127,街道办事处（居委会）代管物业,0.5,辽宁,2,二手房,1980
甘井子区迎客路郭东街一品蓝天公建14号,大连,沈阳军区后勤部,甘井子,20190706,38.958456949708726,121.556756277476,金寓花园五期,7,18423,大连瑞祥物业管理有限公司,1,辽宁,2,二手房,2009
中山区中南路226号,大连,大连亿成房屋开发有限公司,中山,20190706,38.90029610333926,121.68178899957817,亿成花园,5,13828,大连维尔利物业管理有限公司,0.8,辽宁,2,二手房,2000
中山区解放路471-22号,大连,大连青云天下房地产有限公司,中山,20190706,38.901309943567504,121.65419095766659,青云天下,11,24473,大连青云天下物业服务有限公司,4.3,辽宁,2,二手房,2018
大连市沙河口区知邻街50号,大连,无开发商,沙河口,20190706,38.913544290955585,121.59450670056631,玉门街,16,11719,无物业管理服务,-,辽宁,2,二手房,1990
中山区解放路471-22号,大连,无开发商,中山,20190706,38.901309943567504,121.65419095766659,解放路（青云街商圈）,8,12214,街道办事处（居委会）代管物业,0.6,辽宁,2,二手房,1995
高新园区海苑街36号1单元2号公建,大连,千汇德（大连）置业有限公司,高新园区,20190706,20.06392317589085,110.32302599457326,哈佛映像,17,18787,大连千汇德物业管理有限公司,1.2,辽宁,2,二手房,2009
中山区武昌街武昌公寓6号公建,大连,暂无信息,中山,20190706,38.912280913445784,121.64921130527547,南山西花厅,7,11767,暂无信息,1,辽宁,2,二手房,2002
中山区南山路59号1层4号,大连,无开发商,中山,20190706,38.91992239075882,121.6479206962747,昆明街（独立街）,12,25829,无物业管理服务,-,辽宁,2,二手房,1988
金州区凤翔路220号,大连,大连鸿玮置业有限公司,金州,20190706,39.08410553937731,121.77700083356399,鸿玮澜山一期,32,15588,大连鸿玮物业服务有限公司,1.8,辽宁,2,二手房,2009
西岗区长春路334号,大连,无开发商,西岗,20190706,38.89807766522607,121.63221082858387,桥东巷,5,11029,无物业管理服务,-,辽宁,2,二手房,1982
中山区民建街10号1单元1号,大连,无开发商,中山,20190706,38.925444479476894,121.66915026954452,建华巷（三八广场）,10,14560,无物业管理服务,-,辽宁,2,二手房,1990
甘井子区知音园20号3单元1层1号,大连,大连诚信万奕房地产开发有限公司,高新园区,20190706,38.95800216293212,121.53151895549547,万奕学院派,25,27027,大连空港物业管理有限公司,1.2,辽宁,2,二手房,2009
甘井子区汇达园26号,大连,大连市大钢集团,甘井子,20190706,38.99704654604941,121.59758808878767,华南沃尔玛六平路,17,12337,街道办事处（居委会）代管物业,0.5,辽宁,2,二手房,1990
甘井子区汇达园26号,大连,大连红星美凯龙投资发展有限公司,甘井子,20190706,38.99704654604941,121.59758808878767,红星国际广场,154,14564,红星物业管理有限公司,1.5,辽宁,2,二手房,2012
沙河口区西南路358号1—2号,大连,大连东兴置业有限公司,沙河口,20190706,38.90839654326566,121.56908246905662,西山园中园,29,22038,大连东昌物业管理有限公司,1.2,辽宁,2,二手房,2007
金州新区八一路金都嘉园1号楼1号公建,大连,大连锦阳房地产开发有限公司,金州,20190706,39.05525210261778,121.74865634199398,古城天下,6,7308,大连锦阳房地产开发有限公司,1,辽宁,2,二手房,2004
开发区大开高吉里33栋6号,大连,大连联富地产有限公司,开发区,20190706,39.07355836059941,121.8280439450145,城宁家园,7,9432,大连联富物业有限公司,1.5,辽宁,2,二手房,2013
无门店信息,大连,大连百年港湾商业开发有限公司,西岗,20190706,34.52713835999158,118.76812980670795,百年港湾,57,17953,大连百年城物业管理有限公司,3.5,辽宁,2,二手房,2014
甘井子区美域盛景A2区10-6,大连,大连时代房地产开发有限公司,甘井子,20190706,39.006221362805846,121.61022278003976,泉水友好园,38,13577,大连爱静物业服务有限公司,0.5,辽宁,2,二手房,1998
高新园区敬贤街25-9,大连,大连东盛房地产开发有限公司,高新园区,20190706,38.86879447142154,121.53007349209936,东盛启城,36,17407,大连东盛物业管理有限公司,2.3,辽宁,2,二手房,2010
沙河口区西南路358号1—2号,大连,大连城市建设集团有限公司,沙河口,20190706,38.90839654326566,121.56908246905662,台扩小区,8,11395,大连新华物业管理有限公司,0.1,辽宁,2,二手房,1994
甘井子区柳树南街45-10号,大连,大连顺达房屋开发有限公司,甘井子,20190706,38.92567666296449,121.4841330254372,顺达温泉花园三期,35,11828,大连顺达物业服务有限公司,0.6,辽宁,2,二手房,2005
沙河口区沙能街101号1单元1层1号,大连,大连政府城区改造办公室,沙河口,20190706,38.9366316275348,121.59031205759763,新居佳园,15,13733,大连大力物业管理有限公司,1.5,辽宁,2,二手房,2010
高新园区红凌路732-4号,大连,大华集团大连房地产开发有限公司,高新园区,20190706,38.90204708664442,121.53244406374695,大华爱琴湾,47,21299,大连大华物业管理有限公司,1.8,辽宁,2,二手房,2010
甘井子区亿家缘虹韵路205,大连,大连亿达美加房地产开发有限公司,甘井子,20190706,38.95647848453699,121.53130152244339,第五郡四号地,51,28694,亿达物业管理有限公司,2,辽宁,2,二手房,2004
中山区民建街10号1单元1号,大连,大连港连房地产开发有限公司,中山,20190706,38.925444479476894,121.66915026954452,海港公寓（三八广场）,24,21959,大连海港物业管理有限公司,0.2,辽宁,2,二手房,1996
开发区安盛里5栋-4,大连,大连光伸房地产开发有限公司,开发区,20190706,23.112106678834838,113.27801046214822,光伸外企公寓,13,6686,无物业管理服务,0.5,辽宁,2,二手房,2001
中山区爱华街13号,大连,大连华鹏房地产有限公司,中山,20190706,38.92541607518685,121.6535728031028,海派优座,14,15590,第一东方（大连）物业服务有限公司,2.5,辽宁,2,二手房,2008
沙河口区五一路270-274号,大连,大连誉园房地产开发有限公司,高新园区,20190706,38.913544290955585,121.59450670056631,斯坦福院落,24,21543,第一太平戴维斯物业顾问（北京）有限公司大连分公司,1.2,辽宁,2,二手房,2008
甘井子区虹港路16号楼1层公建,大连,亿达房地产开发有限公司,甘井子,20190706,38.9645939333502,121.553851837474,虹港路（机场商圈）,38,13530,亿达物业管理有限公司,0.2,辽宁,2,二手房,1992
甘井子区华东路22号公建,大连,无开发商,甘井子,20190706,38.97736184953593,121.5935814234334,经四街,10,12172,街道办事处（居委会）代管物业,0.5,辽宁,2,二手房,1989
中山区华乐街71号公建,大连,大连中银房地产开发有限公司,中山,20190706,38.923187679200566,121.6843197903016,澳景园,37,18128,大连衡德物业管理有限公司,1,辽宁,2,二手房,2002
大连市开发区抚顺街30号,大连,无开发商,开发区,20190706,38.92272284555705,121.5977239817503,翠南管委会院,24,9925,街道办事处（居委会）代管物业,0.5,辽宁,2,二手房,1996
西岗区鞍山路29号龙畔锦城东门,大连,大连铁龙房地产开发有限公司,西岗,20190706,38.92763470697088,121.61498923399098,北岗新居,20,14794,大连铁龙物业管理有限公司,0.5,辽宁,2,二手房,2002
甘井子区华东路33-5号,大连,暂无信息,甘井子,20190706,38.97497080220593,121.59479866243332,巾帼小区,31,11993,大连新华物业管理有限公司,-,辽宁,2,二手房,1993
大连市金州区友谊街道南金华城25号1-2层1号,大连,无开发商,金州,20190706,39.128677228885614,121.71356109978767,金园新村,36,7488,大连金州友谊物业公司,0.5,辽宁,2,二手房,2004
大连市甘井子区软件园路122号,大连,大连理工科技城建设开发有限公司,高新园区,20190706,38.89286578891647,121.53266600180116,理工园,20,14454,街道办事处（居委会）代管物业,1,辽宁,2,二手房,2000
无门店信息,大连,大连金石文化旅游投资有限公司,金州,20190706,34.52713835999158,118.76812980670795,大连金石天成,50,8679,大连万达物业管理有限公司,1.8,辽宁,2,二手房,2009
沙河口区西南路40号楼,大连,大连金通房屋开发有限公司,沙河口,20190706,38.94143337232082,121.58616557598133,海韵花园,12,13716,大连金通物业管理有限公司,0.4,辽宁,2,二手房,2000
西岗区长春路334号,大连,大连源通房地产开发有限公司,西岗,20190706,38.89807766522607,121.63221082858387,南石源居,3,17649,大连源通物业管理有限公司,1.3,辽宁,2,二手房,2009
中山区中南路店212号门头房,大连,峰尚房屋开发有限公司,中山,20190706,38.91149759691359,121.67700561077149,峰尚中南,15,15884,大连银洲物业管理有限公司,2.2,辽宁,2,二手房,2010
开发区黄海西路201号107公建,大连,无开发商,开发区,20190706,39.04942604506828,121.80126318235419,倚平里,47,8183,街道办事处（居委会）代管物业,0.5,辽宁,2,二手房,2000
中山区北斗街53号1层1号,大连,大连大森房地产开发有限公司,中山,20190706,38.92727355733075,121.67002970974048,东港林苑,21,17282,大连美心物业管理有限公司,2.8,辽宁,2,二手房,2010
甘井子区华北路花锦园28号23-3-1-2建筑物,大连,大连东特房地产开发有限公司,甘井子,20190706,38.951627958411166,121.5739439799003,星加坡花园,23,17897,大连东特祥禾物业管理有限公司,0.6,辽宁,2,二手房,2003
金州区站前街道盛滨花园B区13号楼2号公建,大连,大连连铁房地产开发有限公司,金州,20190706,39.09609011892329,121.7335816409767,金舍嘉苑,23,8280,街道办事处（居委会）代管物业,0.5,辽宁,2,二手房,2005
中山区民建街10号1单元1号,大连,无开发商,中山,20190706,38.925444479476894,121.66915026954452,39中和阳街,17,18808,无物业管理服务,-,辽宁,2,二手房,1990
中山区清溪南街11号,大连,无开发商,中山,20190706,38.88919604283904,121.66466481004835,小龙街,15,17738,无物业管理服务,0.5,辽宁,2,二手房,1985
沙河口区鞍山路65号美都园7号1单元1层4号公建,大连,远洋地产有限公司,沙河口,20190706,38.92755211283745,121.60306664748275,绿都园,18,14584,大连峰霖物业管理有限公司,0.6,辽宁,2,二手房,2000
中山区南山路59号1层4号,大连,无开发商,中山,20190706,38.91992239075882,121.6479206962747,祝胜街（昆明街）,6,17139,无物业管理服务,-,辽宁,2,二手房,1988
沙河口区星海广场B3区14-9,大连,大连一方地产有限公司,沙河口,20190706,38.88708614275256,121.58732027085938,星海阳光,25,23373,大连中海物业管理有限公司,1.6,辽宁,2,二手房,2000
开发区高新里6栋-8,大连,无开发商,开发区,20190706,39.0710895068195,121.82860134358343,高志里小区,43,6811,街道办事处（居委会）代管物业,0.3,辽宁,2,二手房,1993
西岗区八一路196号2-1-12号,大连,大连欧美亚房地产开发有限公司,西岗,20190706,38.92047268927287,121.61862512554262,名城国际公馆,9,18594,无物业管理服务,-,辽宁,2,二手房,2004
无门店信息,大连,暂无信息,开发区,20190706,34.52713835999158,118.76812980670795,山河枫景,35,6252,大连山河物业管理有限公司,1.2,辽宁,2,二手房,2001
无门店信息,大连,大连乾豪集团有限公司,开发区,20190706,34.52713835999158,118.76812980670795,乾豪海岸花园,14,15951,大连乾豪物业管理有限公司,2,辽宁,2,二手房,2000
甘井子区玉丽街2号楼1单元4号公建,大连,暂无信息,甘井子,20190706,38.98705071699301,121.55513043130172,玉山路,28,10792,大连新兴物业管理有限公司,0.5,辽宁,2,二手房,2002
中山区武昌街武昌公寓6号公建,大连,大连武昌房地产开发有限公司,中山,20190706,38.912280913445784,121.64921130527547,部居逸阁,23,13433,大连宜佳物业管理有限公司,1,辽宁,2,二手房,2005
甘井子辛吉街150号-7号,大连,大连新星房地产开发有限公司,甘井子,20190706,38.96368508446978,121.52671221254214,新星绿城二期,22,12991,大连生生物业管理有限公司,0.5,辽宁,2,二手房,2004
甘井子区金北街17号,大连,大连悦泰集团有限公司,甘井子,20190706,38.95800216293212,121.53151895549547,悦泰馨家,30,25469,大连优豪斯物业管理有限公司,0.5,辽宁,2,二手房,2003
中山区益民街16号1层1号,大连,无开发商,中山,20190706,38.93092761298906,121.66470740073377,永胜街（三八广场）,18,14571,无物业管理服务,-,辽宁,2,二手房,1990
红星海A区126-4,大连,远洋地产有限公司,开发区,20190706,39.027851194371685,121.80327394132297,红星海四期城市别馆二号,79,13438,大连远洋基业物业管理有限公司,2.2,辽宁,2,二手房,2010
开发区红星海B区212-1,大连,远洋地产有限公司,开发区,20190706,39.027851194371685,121.80327394132297,红星海时光的岸,74,13551,大连远洋基业物业管理有限公司,2.2,辽宁,2,二手房,2013
甘井子区华东路22号公建,大连,大连金广地产集团有限公司,甘井子,20190706,38.97736184953593,121.5935814234334,华东路（山东路商圈）,26,11794,大连嘉和物业管理有限公司,0.5,辽宁,2,二手房,1990
中山区解放路471-22号,大连,大连圣北开发有限公司,中山,20190706,38.901309943567504,121.65419095766659,亿达云集,96,19794,亿达物业管理有限公司,1.9,辽宁,2,二手房,2014
西岗区八一路196号1-3,大连,暂无信息,西岗,20190706,38.92047268927287,121.61862512554262,靠山中巷,1,10968,社区物业,-,辽宁,2,二手房,1990
西岗区长红街4号1号公建,大连,暂无信息,西岗,20190706,38.91377414665191,121.6302525225721,34中长红街,28,24172,无物业管理服务,-,辽宁,2,二手房,1960
金州新区八一路金都嘉园1号楼1号公建,大连,大连市金州区房屋开发公司,金州,20190706,39.05525210261778,121.74865634199398,平安小区,18,7950,无物业管理服务,0.2,辽宁,2,二手房,1994
金州区拥政街道733号-8号1-2层,大连,大连盛铭资产管理有限公司,金州,20190706,39.11690610445662,121.73030803603723,安盛花园（金州）,22,10787,大连经济技术开发区海青物业有限公司,1,辽宁,2,二手房,2000
沙河口区连山街44-2号半地下一层（地上一层部分）,大连,大连远东房屋开发有限公司,沙河口,20190706,38.892991456958086,121.57299542767161,星海大第,14,23389,大连斌宏物业管理有限公司,1,辽宁,2,二手房,2005
高新园区火炬路18号,大连,大连海脉房地产开发有限公司,高新园区,20190706,38.937738080520404,117.39340752036043,MINI印象,139,15119,大连豪斯威物业管理有限公司,2.2,辽宁,2,二手房,2000
中山区金城街26号一楼,大连,辽宁远大房屋开发有限公司,中山,20190706,38.922282529515634,121.65214466263014,远大大厦,44,10226,街道办事处（居委会）代管物业,2.5,辽宁,2,二手房,1997
大连市甘井子区逸林南园1-1号,大连,大连三联置业有限公司,甘井子,20190706,38.95800216293212,121.53151895549547,三鼎春天,90,24733,瑞联德（大连）物业管理有限公司,2.8,辽宁,2,二手房,2018
中山区民建街10号1单元1号,大连,无开发商,中山,20190706,38.925444479476894,121.66915026954452,39中爱阳街,25,19760,无物业管理服务,-,辽宁,2,二手房,1993
沙河口区民权街324号,大连,大连城市建设集团有限公司,沙河口,20190706,38.92064616208148,121.59777611850379,天兴新家园,14,28255,大连天兴物业管理有限公司,0.5,辽宁,2,二手房,1999
大连市沙河口区知邻街50号,大连,大连软件园开发有限公司,沙河口,20190706,38.913544290955585,121.59450670056631,宅语原,67,20376,亿达物业管理有限公司,2,辽宁,2,二手房,2008
无门店信息,大连,大连光洋龙驰置业有限公司,开发区,20190706,34.52713835999158,118.76812980670795,泽林苑,16,11826,大连光洋龙驰置业物业有限公司,1.6,辽宁,2,二手房,2013
西岗区中山路158号唐山街市场外14号,大连,大连胜利路拓宽改造工程建设有限公司,西岗,20190706,38.91688106727098,121.63201298398174,星海绿山城,36,29924,大连星海融汇物业管理有限公司,1.5,辽宁,2,二手房,2010
甘井子区锦城东园1号3单元1层2号,大连,大连锦绣房地产开发有限公司,沙河口,20190706,38.952805477462775,121.55656194973994,锦城东园,50,19079,大连锦绣物业管理有限公司,0.6,辽宁,2,二手房,2004
金州区凤翔路220号,大连,大连鸿玮置业有限公司,金州,20190706,39.08410553937731,121.77700083356399,鸿玮澜山二期,53,14483,大连鸿玮物业服务有限公司,1.8,辽宁,2,二手房,2010
无门店信息,大连,暂无信息,金州,20190706,34.52713835999158,118.76812980670795,东才苑,29,7117,街道办事处（居委会）代管物业,-,辽宁,2,二手房,1998
无门店信息,大连,大连运达房地产集团有限公司,甘井子,20190706,34.52713835999158,118.76812980670795,运达诺维溪谷三期,20,17359,大连运达物业有限公司,2,辽宁,2,二手房,2010
甘井子区迎客路郭东街一品蓝天公建14号,大连,沈阳军区后勤部,甘井子,20190706,38.958456949708726,121.556756277476,金寓花园三期,6,17494,大连瑞祥物业管理有限公司,1,辽宁,2,二手房,2008
中山区虎滩路176号4-1-2,大连,无开发商,中山,20190706,38.890884710033156,121.69257379232747,碧波园,39,10812,大连虎滩置业物业管理有限公司,0.2,辽宁,2,二手房,1997
沙河口区中山路417A-4号,大连,大连电业房地产开发有限公司,沙河口,20190706,38.90740323140171,121.59484801084653,电力公寓,11,16063,街道办事处（居委会）代管物业,0.7,辽宁,2,二手房,2000
沙河口区连山街10号2-1-2,大连,大连城市建设集团有限公司,沙河口,20190706,38.89637522563413,121.57143690983219,莱州街,39,11242,无物业管理服务,-,辽宁,2,二手房,1990
中山区中青街87号一单元107,大连,大连亿达房地产股份有限公司,中山,20190706,38.90213494248529,121.65806522267005,青云林海,48,22331,亿达物业管理有限公司,1,辽宁,2,二手房,2001
金州区小平岛B组团4号楼3号商铺,大连,安达圣岛开发有限公司,高新园区,20190706,39.05643299166072,121.78943558267059,小平岛亲海园,65,17451,大连凯尔富物业管理有限公司,1.3,辽宁,2,二手房,2007
大连市甘井子区辛如街35号1单元1层1号,大连,暂无信息,甘井子,20190706,38.96862607066881,121.52294869064194,苹果公寓（住宅）,49,11411,大连生生物业有限公司,0.8,辽宁,2,二手房,2007
沙河口区长江路946号-9,大连,无开发商,沙河口,20190706,38.913544290955585,121.59450670056631,城品城,18,18969,大连万景物业管理有限公司,2,辽宁,2,二手房,2010
沙河口区联合路133号,大连,大连万达房地产开发有限公司,沙河口,20190706,38.91608561262676,121.60480987310456,79中万泰花园,36,26578,大连万泰物业管理有限公司,0.8,辽宁,2,二手房,1996
经济技术开发区城润万家4-5号公建,大连,诠盛置业（大连）有限公司,开发区,20190706,39.05716325096989,121.75946281983826,清都记忆,44,12252,金科物业服务集团有限公司,0.5,辽宁,2,二手房,2010
大连市甘井子区泉水N2区3-13号,大连,大连半岛集团有限公司,甘井子,20190706,39.021116079001885,121.64659997607325,半岛泉水欣座,30,14978,大连半岛物业管理有限公司,1.5,辽宁,2,二手房,2010
开发区景和园1-7,大连,开发区城建局,开发区,20190706,30.41892168817929,120.30896459202738,小孤山东里,94,6420,大连广谊物业管理有限公司,0.4,辽宁,2,二手房,1998
沙河口区西南路851号3单元1层3号,大连,无开发商,沙河口,20190706,38.94344210837944,121.58246796944378,春柳街,13,11947,街道办事处（居委会）代管物业,0.1,辽宁,2,二手房,1980
西岗区中山路158号唐山街市场外14号,大连,暂无信息,西岗,20190706,38.91688106727098,121.63201298398174,34中松花街,12,28031,无物业管理服务,-,辽宁,2,二手房,1980
沙河口区联合路133号,大连,亿达集团大连房地产开发有限公司,沙河口,20190706,38.91608561262676,121.60480987310456,21中亿达广场,2,20091,亿达物业管理有限公司,1.2,辽宁,1,二手房,1999
无门店信息,大连,暂无信息,金州,20190706,34.52713835999158,118.76812980670795,金馨园一区,2,6821,暂无信息,-,辽宁,1,二手房,-
沙河口区红旗东路18-22号2单元1楼3号,大连,大连渤海红旗集团有限公司,沙河口,20190706,38.913544290955585,121.59450670056631,马栏南街,0,11854,大连辽南物业管理有限公司,0.2,辽宁,1,二手房,1990
无门店信息,大连,暂无信息,沙河口,20190706,34.52713835999158,118.76812980670795,第八干休所,0,14007,暂无信息,-,辽宁,1,二手房,-
大连市金州区友谊街道南金华城25号1-2层1号,大连,暂无信息,金州,20190706,39.128677228885614,121.71356109978767,金连公寓,5,6584,无物业管理服务,-,辽宁,1,二手房,2000
甘井子区华东路33-5号,大连,大连宜和房地产开发有限公司,甘井子,20190706,38.97497080220593,121.59479866243332,松江路,3,10998,大连新华物业管理有限公司,-,辽宁,1,二手房,1993
中山区金城街26号一楼,大连,暂无信息,中山,20190706,38.922282529515634,121.65214466263014,昆明街（一德街）,0,14375,暂无信息,-,辽宁,1,二手房,1992
中山区共建巷61号,大连,无开发商,中山,20190706,38.91828093658718,121.66259221532148,39中望海街,12,25579,街道办事处（居委会）代管物业,0.5,辽宁,2,二手房,1970
中山区同心街72号1楼公建,大连,无开发商,中山,20190706,38.91979245940674,121.64769198230202,胜利东路,0,15125,无物业管理服务,-,辽宁,1,二手房,1988
西岗区八一路102号,大连,无开发商,西岗,20190706,38.92047268927287,121.61862512554262,华林巷,0,14151,无物业管理服务,-,辽宁,1,二手房,-
西岗区胜利路33号,大连,暂无信息,西岗,20190706,38.91309771954841,121.62500886627636,34中云山街,2,36903,暂无信息,-,辽宁,1,二手房,1990
无门店信息,大连,暂无信息,甘井子,20190706,34.52713835999158,118.76812980670795,盐岛湖,88,11051,无物业管理服务,0.2,辽宁,2,二手房,2000
沙河口区锦石路8号,大连,大连运腾房地产开发有限公司,沙河口,20190706,38.94771288948481,121.56110903658733,锦云南园,70,10443,大连锦绣物业管理有限公司,0.3,辽宁,2,二手房,1995
中山区爱华街13号,大连,大连修竹房屋开发有限公司,中山,20190706,38.92541607518685,121.6535728031028,修竹大厦,17,13935,大连修竹物业管理有限公司,2.5,辽宁,2,二手房,2004
大连市甘井子中华路街道汇畅街48号,大连,大连嘉盈置业有限公司,甘井子,20190706,39.0059299196697,121.59621871231741,宏都熙景,38,21920,大连宏都物业管理有限公司,2.3,辽宁,2,二手房,2015
沙河口区黄浦路18号—5号公建,大连,大连良运房地产开发有限公司,高新园区,20190706,38.8771225143479,121.54427480390662,翰林观海,31,22918,大连良运物业管理有限公司,0.8,辽宁,2,二手房,2003
中山区民建街10号1单元1号,大连,无开发商,中山,20190706,38.925444479476894,121.66915026954452,39中明阳街,37,19839,无物业管理服务,-,辽宁,2,二手房,1990
甘井子区华北路花锦园28号23-3-1-2建筑物,大连,无开发商,甘井子,20190706,38.951627958411166,121.5739439799003,久胜街,23,16731,街道办事处（居委会）代管物业,0.1,辽宁,2,二手房,1985
金州新区八一路金都嘉园1号楼1号公建,大连,大连天程置业有限公司,金州,20190706,39.05525210261778,121.74865634199398,御河壹號,11,10077,大连天程置业有限公司,1.2,辽宁,2,二手房,2015
无门店信息,大连,大连振富房屋开发有限公司,西岗,20190706,34.52713835999158,118.76812980670795,振富公寓（胜利桥北商圈）,35,8986,大连中海振富物业管理有限公司,1.1,辽宁,1,二手房,2002
金州区同济路44号,大连,暂无信息,金州,20190706,39.10476859984152,121.71234684495865,阿尔滨家属楼,15,6351,无物业管理服务,-,辽宁,1,二手房,1998
西岗区长春路334号,大连,无开发商,西岗,20190706,38.89807766522607,121.63221082858387,新城街（石道街商圈）,8,11382,无物业管理服务,-,辽宁,1,二手房,1989
中山区爱华街13号,大连,暂无信息,中山,20190706,38.92541607518685,121.6535728031028,九中万民街,3,38186,无物业管理服务,-,辽宁,1,二手房,1995
开发区松苑街23号,大连,大连神洲众益集团有限公司,开发区,20190706,22.52087435807652,113.40156105086167,松海里小区,3,11431,无物业管理服务,0.5,辽宁,1,二手房,2000
沙河口区联合路133号,大连,无开发商,沙河口,20190706,38.91608561262676,121.60480987310456,联合路,4,11562,无物业管理服务,-,辽宁,1,二手房,1995
中山区中青街87号一单元107,大连,无开发商,中山,20190706,38.90213494248529,121.65806522267005,中青街,4,16040,无物业管理服务,-,辽宁,1,二手房,1996
西岗区长红街4号1号公建,大连,暂无信息,西岗,20190706,38.91377414665191,121.6302525225721,34中茂田巷,7,29639,无物业管理服务,-,辽宁,1,二手房,1984
无门店信息,大连,大连辽渔建设集团有限公司,甘井子,20190706,34.52713835999158,118.76812980670795,宇圣明珠,5,11245,大连辽渔物业管理有限公司,0.8,辽宁,1,二手房,2013
莲花山路89-3号,大连,无开发商,西岗,20190706,38.902848261803356,121.6041720815823,世纪家园(西岗),7,16963,大连铁龙物业管理有限公司,0.3,辽宁,1,二手房,2000
中山区中青街87号一单元107,大连,无开发商,中山,20190706,38.90213494248529,121.65806522267005,光华巷,4,11105,无物业管理服务,-,辽宁,1,二手房,1990
"西岗区泰公街20号2层7号 西岗区久寿街22号1层14号""",大连,大连安大房屋开发有限公司,西岗,20190706,38.92600196862723,121.62141976476381,万达公寓,6,9442,庄河金城物业管理有限公司,0.8,辽宁,1,二手房,1997
大连市高新园区软件园路1A-3号,大连,无开发商,高新园区,20190706,38.89360013642285,121.54653763548625,中辰国际公寓,5,16465,大连阿尔滨汇城物业服务有限公司,2.5,辽宁,1,二手房,2005
沙河口区连山街10号2-1-2,大连,大连城市建设集团有限公司,沙河口,20190706,38.89637522563413,121.57143690983219,城建花园,10,17194,大连城建开发集团物业管理有限公司,0.5,辽宁,1,二手房,2002
沙河口区连山街10号2-1-2,大连,大连三业房屋开发有限公司,沙河口,20190706,38.89637522563413,121.57143690983219,龙山花园,4,13612,无物业管理服务,-,辽宁,1,二手房,1999
沙河口区西南路358号1—2号,大连,大连恒安房地产开发有限公司,沙河口,20190706,38.90839654326566,121.56908246905662,水芙山竹,9,21818,大连上达物业管理有限公司,0.6,辽宁,1,二手房,2005
中山区爱华街13号,大连,大连上鼎大厦有限公司,中山,20190706,38.92541607518685,121.6535728031028,上鼎大厦,15,9804,大连上鼎物业管理有限公司,11.6,辽宁,1,二手房,2000
西岗区绕山路31号公建一层东侧,大连,无开发商,西岗,20190706,38.90257514466717,121.61412736644739,彩云路,11,9732,无物业管理服务,-,辽宁,1,二手房,1990
中山区益民街16号1层1号,大连,无开发商,中山,20190706,38.93092761298906,121.66470740073377,职工街（三八广场）,7,15242,无物业管理服务,2,辽宁,1,二手房,1992
中山区高尚路28-1号,大连,无开发商,中山,20190706,38.892673425111305,121.67148833870213,高福街,11,11275,无物业管理服务,-,辽宁,1,二手房,1993
沙河口区联合路133号,大连,大连三星大厦发展有限公司,西岗,20190706,38.91608561262676,121.60480987310456,三星公寓,2,11368,大连铁道物业管理有限责任公司,0.3,辽宁,1,二手房,1996
金州区同济路44号,大连,大连金世纪房地产经纪有限公司,金州,20190706,39.10476859984152,121.71234684495865,教师公寓,13,8647,大连恒天物业管理公司,-,辽宁,1,二手房,2007
沙河口区星海广场B3区14-9,大连,无开发商,沙河口,20190706,38.88708614275256,121.58732027085938,星海三街,2,12684,街道办事处（居委会）代管物业,0.5,辽宁,1,二手房,1990
大连市沙河口区西南路875号1层21号,大连,暂无信息,沙河口,20190706,38.94485969061231,121.58418648447764,凌云街,3,11400,无物业管理服务,-,辽宁,1,二手房,1980
甘井子区惠泽南园3-4号,大连,大连鑫河房地产开发有限公司,甘井子,20190706,38.939326611323615,121.52337842113351,绿色家园,12,12344,绿色家园物业管理有限公司,0.3,辽宁,1,二手房,2004
西岗区康平街2号（5号楼3-1-3号）,大连,暂无信息,西岗,20190706,38.91044414697888,121.61980769264477,胜利路（莲花白云商圈）,1,11520,无物业管理服务,-,辽宁,1,二手房,1995
开发区小孤山西里3栋-11号,大连,大连光伸房地产开发有限公司,开发区,20190706,39.02715282297674,121.80682183666346,绿洲半岛二期,23,8912,大连经济技术开发区光伸物业服务有限公司,1,辽宁,1,二手房,2004
中山区南山路59号1层4号,大连,无开发商,中山,20190706,38.91992239075882,121.6479206962747,南山路（昆明街商圈）,1,18372,无物业管理服务,-,辽宁,1,二手房,1982
中山区爱华街13号,大连,无开发商,中山,20190706,38.92541607518685,121.6535728031028,九中爱华街,8,39141,无物业管理服务,-,辽宁,1,二手房,1988
沙河口区红旗东路18-22号2单元1楼3号,大连,大连益海房屋开发有限公司,沙河口,20190706,38.913544290955585,121.59450670056631,西苑花园,6,14605,大连宏溢达物业管理有限公司,0.5,辽宁,1,二手房,2000
中山区山屏街116号1-1,大连,暂无信息,中山,20190706,38.90729438486833,121.68598159980013,山屏美境,6,17105,无物业管理服务,3.5,辽宁,1,二手房,2009
无门店信息,大连,无开发商,西岗,20190706,34.52713835999158,118.76812980670795,光辉巷（胜利桥北商圈）,0,9922,无物业管理服务,-,辽宁,1,二手房,1990
中山区南山路59号1层4号,大连,深圳市东山开发有限公司,中山,20190706,38.91992239075882,121.6479206962747,昆明花园,7,21520,深圳市东山物业管理有限公司,0.5,辽宁,1,二手房,2000
沙河口区民权街324号,大连,大连中源翔房屋开发有限公司,沙河口,20190706,38.92064616208148,121.59777611850379,79中五四华庭,12,28493,大连祥益物业管理有限公司,2.6,辽宁,1,二手房,2008
西岗区长春路334号,大连,无开发商,西岗,20190706,38.89807766522607,121.63221082858387,纪念街(石道街商圈),9,11398,无物业管理服务,-,辽宁,1,二手房,1990
沙河口区中山路417A-4号,大连,无开发商,沙河口,20190706,38.90740323140171,121.59484801084653,太原街,6,12229,无物业管理服务,-,辽宁,1,二手房,1959
中山区北斗街53号1层1号,大连,无开发商,中山,20190706,38.92727355733075,121.67002970974048,鲁迅路（二七商圈）,5,11998,无物业管理服务,-,辽宁,1,二手房,1996
中山区碧浪园4号-3号,大连,大连铁路房地产开发有限责任公司,中山,20190706,38.89147289460474,121.69329560326236,山水家园二期,2,22026,大连铁道物业管理有限责任公司,0.5,辽宁,1,二手房,2003
中山区爱华街13号,大连,暂无信息,中山,20190706,38.92541607518685,121.6535728031028,九中杏林街,7,41532,无物业管理服务,6,辽宁,1,二手房,1995
大连经济技术开发区同和里7栋-9号,大连,无开发商,开发区,20190706,39.04901984220615,121.7885236929847,绿色家园小区,8,10996,大连经济技术开发区白石物业管理有限公司,0.5,辽宁,1,二手房,2001
中山区武昌街武昌公寓6号公建,大连,无开发商,中山,20190706,38.912280913445784,121.64921130527547,合力巷,5,11018,无物业管理服务,-,辽宁,1,二手房,1980
沙河口区红旗东路18-22号2单元1楼3号,大连,无开发商,甘井子,20190706,38.913544290955585,121.59450670056631,兰兴巷,3,12723,大连辽南物业管理有限公司,0.2,辽宁,1,二手房,1992
西岗区绕山路31号公建一层东侧,大连,无开发商,西岗,20190706,38.90257514466717,121.61412736644739,康庄街,4,10219,无物业管理服务,-,辽宁,1,二手房,1988
沙河口区昌黎街77号楼第1层公建,大连,清远君行房地产有限公司,沙河口,20190706,38.91974518366595,121.5902918379551,君安国际,1,8714,街道办事处（居委会）代管物业,11,辽宁,1,二手房,2010
中山区民建街10号1单元1号,大连,暂无信息,中山,20190706,38.925444479476894,121.66915026954452,港湾街（二七商圈）,4,18630,无物业管理服务,-,辽宁,1,二手房,1990
大连市金州新区友谊街道和平路59-10号1-2层公建,大连,无开发商,金州,20190706,39.112168401852266,121.72006917947859,新金州大厦,1,7118,街道办事处（居委会）代管物业,0.5,辽宁,1,二手房,2006
西岗区新田巷11号三单元103,大连,大连市中联房地产开发有限公司,西岗,20190706,38.89276612016956,121.64190731791966,卧龙山庄,7,13396,大连健龙物业管理有限公司,0.5,辽宁,1,二手房,2001
大连市沙河口区黄河路729号,大连,无开发商,沙河口,20190706,38.91710565765228,121.58954758972729,黄河路（西安路商圈）,3,10479,无物业管理服务,-,辽宁,1,二手房,1995
中山区华乐街71号公建,大连,大连新型房地产开发有限公司,中山,20190706,38.923187679200566,121.6843197903016,春海街,6,11225,无物业管理服务,-,辽宁,1,二手房,1992
中山区北斗街53号1层1号,大连,无开发商,中山,20190706,38.92727355733075,121.67002970974048,丹东街（二七商圈）,8,14028,无物业管理服务,-,辽宁,1,二手房,1993
无门店信息,大连,大连融昇房地产开发有限公司,甘井子,20190706,34.52713835999158,118.76812980670795,鹿港小镇,10,11238,大连三和住邦物业管理有限公司,1.3,辽宁,1,二手房,2015
西岗区胜利路33号,大连,暂无信息,西岗,20190706,38.91309771954841,121.62500886627636,34中果林巷,14,25909,无物业管理服务,-,辽宁,1,二手房,1990
中山区中青街87号一单元107,大连,大连金生房地产开发有限公司,中山,20190706,38.90213494248529,121.65806522267005,金生佳苑,10,18978,大连金宇物业管理有限公司,1,辽宁,1,二手房,2003
甘井子区惠泽南园3-7号,大连,大连利丰房地产开发有限公司,甘井子,20190706,38.939326611323615,121.52337842113351,国安宜居,10,18910,大连易明物业服务有限公司,2,辽宁,1,二手房,2014
大连市甘井子区椒房街24号楼2-104链家地产,大连,大连圣韬房地产开发有限公司,甘井子,20190706,38.985363789837166,121.61034055597686,万福山庄,29,14698,大连海旭物业管理有限公司,0.5,辽宁,1,二手房,1996
甘井子区华东路22号公建,大连,暂无信息,甘井子,20190706,38.97736184953593,121.5935814234334,经一街,2,12072,无物业管理服务,-,辽宁,1,二手房,1990
金州新区先进街道渤海街7-4号1-2层、7-3号1-2层,大连,大连金连房地产开发有限公司,金州,20190706,39.09342713035472,121.74590886291374,金纺馨公寓,17,7045,金州区物业管理有限公司,-,辽宁,1,二手房,2005
中山区中南路226号,大连,大连华钧房地产开发有限公司,中山,20190706,38.90029610333926,121.68178899957817,半山花园,5,12577,大连仁和物业管理有限公司,0.7,辽宁,1,二手房,2000
开发区金源南里14栋-11号一层部分，14号-12号一层部分,大连,商金源地产,开发区,20190706,39.06148862675436,121.82503941311765,金苑新居,20,8643,嘉兴物业管理有限公司,0.3,辽宁,1,二手房,2004
开发区东北三街94号1层,大连,无开发商,开发区,20190706,39.05723508011585,121.80570768630555,倚山花园,12,9400,街道办事处（居委会）代管物业,1.1,辽宁,1,二手房,2000
莲花山路89-3号,大连,暂无信息,沙河口,20190706,38.902848261803356,121.6041720815823,美丽巷,2,13812,无物业管理服务,-,辽宁,1,二手房,-
中山区虎滩路176号4-1-2,大连,大连三寰房地产开发有限公司,中山,20190706,38.890884710033156,121.69257379232747,碧涛北园,21,11790,大连虎滩置业物业管理有限公司,0.2,辽宁,1,二手房,1997
西岗区绕山路31号公建一层东侧,大连,无开发商,西岗,20190706,38.90257514466717,121.61412736644739,绕山路,22,11208,无物业管理服务,-,辽宁,1,二手房,1990
沙河口区西南路643号,大连,无开发商,沙河口,20190706,38.943483429804665,121.5833555851182,西厢街,8,9606,无物业管理服务,-,辽宁,1,二手房,1990
西岗区平等街21号1层2号,大连,大连吉嘉置业有限公司,西岗,20190706,38.92251066253164,121.63236845125735,锦华银座,12,20649,大连吉嘉物业管理有限公司,5,辽宁,1,二手房,2003
中山区金城街26号一楼,大连,无开发商,中山,20190706,38.922282529515634,121.65214466263014,39中柳林街,8,25308,街道办事处（居委会）代管物业,-,辽宁,1,二手房,1990
西岗区康平街2号（5号楼3-1-3号）,大连,大连新型房地产开发有限公司,西岗,20190706,38.91044414697888,121.61980769264477,新华公寓,8,15776,大连新型物业管理有限公司,0.5,辽宁,1,二手房,1997
沙河口区连山街44-2号半地下一层（地上一层部分）,大连,大连宏都房地产开发有限公司,沙河口,20190706,38.892991456958086,121.57299542767161,宏都筑景Ⅱ期,7,26503,东方百瑞物业有限公司,1.8,辽宁,1,二手房,2010
开发区金马路169-2-6号房屋,大连,暂无信息,开发区,20190706,39.057398235688176,121.78261137849105,华堂大厦,6,9526,街道办事处（居委会）代管物业,1.5,辽宁,1,二手房,2000
中山区解放路471-22号,大连,暂无信息,中山,20190706,38.901309943567504,121.65419095766659,青云公寓,1,9363,暂无信息,1,辽宁,1,二手房,1990
西岗区中山路158号唐山街市场外14号,大连,暂无信息,西岗,20190706,38.91688106727098,121.63201298398174,34中唐山街,11,28604,无物业管理服务,0.1,辽宁,1,二手房,1990
金州新区先进街道五一路350-1号1-2层,大连,辽宁宝林集团大连房地产开发公司,金州,20190706,39.078667146419825,121.77094423323935,宝林凤凰城,23,9154,宝林集团物业管理有限公司,0.5,辽宁,1,二手房,2012
西岗区新田巷27号1-2,大连,无开发商,西岗,20190706,38.893215932589385,121.64103065169111,新秀街（新起屯商圈）,11,10785,无物业管理服务,-,辽宁,1,二手房,1992
中山区鲁迅路204号百盛新药特药商店一楼西侧部分,大连,无开发商,中山,20190706,38.9258993614899,121.6768880001226,春港街,4,12285,无物业管理服务,-,辽宁,1,二手房,1988
中山区中青街43号,大连,大连亿达房地产股份有限公司,中山,20190706,38.90150598268117,121.65711014604845,青云映山,20,26674,亿达物业管理有限公司,1.3,辽宁,1,二手房,2005
中山区中南路226号,大连,万科中山置业有限公司,中山,20190706,38.90029610333926,121.68178899957817,万科中南府,2,28418,大连万科物业服务有限公司,5,辽宁,1,二手房,2015
无门店信息,大连,暂无信息,西岗,20190706,34.52713835999158,118.76812980670795,民航大连疗养院,1,15124,无物业管理服务,-,辽宁,1,二手房,1990
金州区南棉路310号,大连,大连阿尔滨集团房地产开发有限公司,金州,20190706,39.09939229372624,121.72414976100345,荣盛小区,9,8928,街道办事处（居委会）代管物业,1,辽宁,1,二手房,1999
甘井子区促进路30号2-1-1,大连,无开发商,甘井子,20190706,38.954133128707575,121.58355746311207,柳河小区,12,11761,大连衡德物业管理有限公司,0.2,辽宁,1,二手房,1994
无门店信息,大连,暂无信息,旅顺口,20190706,34.52713835999158,118.76812980670795,金川家园,31,11520,暂无信息,-,辽宁,1,二手房,2003
西岗区中山路158号唐山街市场外14号,大连,暂无信息,西岗,20190706,38.91688106727098,121.63201298398174,34中畅通街,3,28390,无物业管理服务,-,辽宁,1,二手房,1980
沙河口区西南路358号1—2号,大连,大连中城房地产开发有限公司,沙河口,20190706,38.90839654326566,121.56908246905662,中城公园里,12,21343,渤海吉祥物业管理有限公司,1.8,辽宁,1,二手房,2008
沙河口区黄河路535号,大连,大连春达房屋开发有限公司,沙河口,20190706,38.91773777159567,121.60217159922856,79中数控大厦,8,23309,大连欧德物业管理有限公司,1.2,辽宁,1,二手房,1998
中山区共建巷61号,大连,暂无信息,中山,20190706,38.91828093658718,121.66259221532148,山林街（三八商圈）,2,25626,无物业管理服务,-,辽宁,1,二手房,1990
开发区润海园中区62-9,大连,暂无信息,开发区,20190706,39.04047273176333,121.76392358042445,大连海湾城三期,24,12337,大连金广物业服务有限公司,3,辽宁,1,二手房,2015
沙河口区锦石园24-7号第A2-13幢1单元1层1号,大连,大连锦绣房地产开发有限公司,沙河口,20190706,38.913544290955585,121.59450670056631,锦绣燕居沙河口区一期,3,17577,大连锦绣物业管理有限公司,1.2,辽宁,1,二手房,2010
甘井子区汇仁街19号12号楼1单元102室,大连,大连华南房地产开发有限公司,甘井子,20190706,38.99746297497168,121.58917714380617,名贵山庄华彩园,10,14833,大连弘益达物业管理有限公司,0.5,辽宁,1,二手房,2003
金州区拥政街道733号-8号1-2层,大连,无开发商,金州,20190706,39.11690610445662,121.73030803603723,建兴苑,32,7508,街道办事处（居委会）代管物业,0.5,辽宁,1,二手房,1999
中山区鲁迅路184号1层B—A,大连,无开发商,中山,20190706,38.92590875965419,121.67594393403164,北斗街（寺儿沟商圈）,1,14109,无物业管理服务,-,辽宁,1,二手房,1988
沙河口区五四路207-1-9号,大连,无开发商,沙河口,20190706,38.913544290955585,121.59450670056631,成仁街,18,13151,无物业管理服务,-,辽宁,1,二手房,1995
西岗区黄河路362号公建,大连,亿达集团大连房地产开发有限公司,西岗,20190706,38.91819905243802,121.61365779430986,亿达新世界,8,17666,亿达物业管理有限公司,0.5,辽宁,1,二手房,2001
中山区武昌街武昌公寓6号公建,大连,无开发商,中山,20190706,38.912280913445784,121.64921130527547,向阳街,12,11104,无物业管理服务,-,辽宁,1,二手房,1980
沙河口区杨树街4—2号,大连,无开发商,高新园区,20190706,38.8832931099998,121.55440002481825,龙江路（学府商圈）,6,13995,无物业管理服务,-,辽宁,1,二手房,1992
金州区站前街道盛滨花园B区13号楼2号公建,大连,大连阿尔滨集团房地产开发有限公司,金州,20190706,39.09609011892329,121.7335816409767,盛滨花园D区,11,7138,大连阿尔滨集团物业管理有限公司,0.4,辽宁,1,二手房,2003
莲花山路89-3号,大连,大连铁路房地产开发有限责任公司,西岗,20190706,38.902848261803356,121.6041720815823,新华小区(西岗),11,14261,大连铁路物业管理有限公司,0.3,辽宁,1,二手房,1998
沙河口区五四路207-1-9号,大连,大连华邦房地产开发有限公司,沙河口,20190706,38.913544290955585,121.59450670056631,华邦上都,20,18984,大连华邦物业有限公司,1.7,辽宁,1,二手房,2004
无门店信息,大连,暂无信息,中山,20190706,34.52713835999158,118.76812980670795,明秀庄园一期,14,43387,大连澳邦致和物业服务有限公司,3.2,辽宁,1,二手房,2012
中山区高尚路28-1号,大连,大连海华房地产开发有限公司,中山,20190706,38.892673425111305,121.67148833870213,海贝花园,10,11612,街道办事处（居委会）代管物业,1,辽宁,1,二手房,1995
西岗区鞍山路29号龙畔锦城东门,大连,大连万达房地产开发有限公司,西岗,20190706,38.92763470697088,121.61498923399098,长春花园,20,18019,大连万达物业管理有限公司,0.5,辽宁,1,二手房,1996
沙河口区锦江园30号1层公建,大连,大连恒诚房地产开发有限公司,沙河口,20190706,38.949985113183935,121.56560955976859,恒大帝景,29,21284,金碧物业有限公司大连分公司,2.5,辽宁,1,二手房,2016
甘井子区玉湖街25号2单元1层3号,大连,大连新型房地产开发有限公司,甘井子,20190706,38.97626265183615,121.54617349027997,书香府第一期,13,12011,大连新兴物业管理有限公司,0.5,辽宁,1,二手房,2002
开发区正恒园1-16,大连,大连世纪桥置业有限公司,开发区,20190706,39.04823944344617,121.76165468797754,远洋金马杰座,40,12906,大连卓信和悦物业管理有限公司,2.4,辽宁,1,二手房,2017
中山区华乐街107-115号,大连,大连华旭置业有限公司,中山,20190706,38.92093821499401,121.68879267531725,东港第,25,34831,大连华锐世纪物业管理有限公司,3,辽宁,1,二手房,2014
中山区中南路226号,大连,大连悦泰集团有限公司,中山,20190706,38.90029610333926,121.68178899957817,悦泰林里,15,27270,大连腾馨物业管理有限公司,1.2,辽宁,1,二手房,2006
沙河口区五一路109-4号,大连,大连正源房地产开发有限公司,沙河口,20190706,38.913544290955585,121.59450670056631,幸福e家一期,23,31618,大连正源物业服务有限公司,0.8,辽宁,1,二手房,2001
高新园区书香街1A#1-1-2,大连,大连金弘基房地产开发有限公司,高新园区,20190706,38.880372108393104,121.55218773010999,弘基一期,27,20501,大连金弘基物业管理有限公司,0.6,辽宁,1,二手房,2000
开发区东北三街94号1层,大连,无开发商,开发区,20190706,39.05723508011585,121.80570768630555,华冠大厦,26,7130,街道办事处（居委会）代管物业,1.2,辽宁,1,二手房,2003
沙河口区联合路133号,大连,大连建兴房屋开发有限公司,沙河口,20190706,38.91608561262676,121.60480987310456,21中学中山南苑,2,23501,大连自然物业管理有限公司,1.3,辽宁,1,二手房,2001
沙河口区中山路552-1-1公建,大连,大连绿城房地产开发有限公司,沙河口,20190706,38.90339064542996,121.593567176308,深蓝中心,37,20687,绿城物业服务集团有限公司大连分公司,4.9,辽宁,1,二手房,2009
甘井子区华北路花锦园28号23-3-1-2建筑物,大连,无开发商,甘井子,20190706,38.951627958411166,121.5739439799003,大连门广场,11,16982,街道办事处（居委会）代管物业,0.1,辽宁,1,二手房,1988
沙河口区富国街34-3,大连,大连万达房地产开发有限公司,沙河口,20190706,38.90159716600704,121.58930603357904,星海自由港,18,20821,大连万景物业管理有限公司,1.2,辽宁,1,二手房,2002
西岗区三元街73号3单元1层2,大连,暂无信息,西岗,20190706,38.91459734722941,121.63112153703432,34中自学巷,13,24974,无物业管理服务,-,辽宁,1,二手房,1993
中山区中南路店212号门头房,大连,无开发商,中山,20190706,38.91149759691359,121.67700561077149,转山小区,18,12922,大连怡和物业服务有限公司,0.3,辽宁,1,二手房,1990
中山区华乐街93—1号,大连,大连鸿雁房地产开发公司,中山,20190706,38.921950924512124,121.68673151242629,海之恋花园,28,17403,大连鸿雁物业有限公司,0.8,辽宁,1,二手房,2001
沙河口区富国街14号1-1-2,大连,无开发商,沙河口,20190706,38.901027106600836,121.59047734850638,西安路（和平广场商圈）,5,13402,无物业管理服务,-,辽宁,1,二手房,1990
大连市甘井子区柳林园8-7号,大连,大连西成房地产开发有限公司,甘井子,20190706,38.91290525308349,121.47673750074993,恒大檀溪郡,23,13552,金碧物业有限公司大连分公司,2.4,辽宁,1,二手房,2016
无门店信息,大连,大连光伸房地产开发有限公司,开发区,20190706,34.52713835999158,118.76812980670795,光伸卧龙港湾,20,9205,大连经济技术开发区光伸物业服务有限公司,1.5,辽宁,1,二手房,2010
莲花山路89-3号,大连,大连安邦房屋开发公司,沙河口,20190706,38.902848261803356,121.6041720815823,金地海景,17,13487,无物业管理服务,-,辽宁,1,二手房,2003
沙河口区成仁街91号,大连,大连城市建设集团有限公司,沙河口,20190706,38.91539947107844,121.59585638842556,79中学中盈家园,23,20385,街道办事处（居委会）代管物业,0.5,辽宁,1,二手房,2002
金州新区八一路金都嘉园1号楼1号公建,大连,无开发商,金州,20190706,39.05525210261778,121.74865634199398,老街坊小区,17,8792,街道办事处（居委会）代管物业,0.5,辽宁,1,二手房,1997
沙河口区五一路110-4号,大连,大连市中联房地产开发有限公司,沙河口,20190706,38.913544290955585,121.59450670056631,星海中龙园,21,20548,大连斌弘物业管理有限公司,0.6,辽宁,1,二手房,2003
沙河口区黄河路883号,大连,无开发商,沙河口,20190706,38.919826721475204,121.57749657966676,黄河路（辽师商圈）,2,11596,大连辽南物业管理有限公司,0.5,辽宁,1,二手房,1970
沙河口区华北路404号,大连,大连元泰房屋开发有限公司,沙河口,20190706,38.8862815932937,121.59082948696123,福居家园,9,16118,渤海吉祥物业管理有限公司,0.5,辽宁,1,二手房,2003
开发区杏树里10栋-14,大连,大连开建集团有限公司,开发区,20190706,39.08113818354046,121.78505742127606,杏林山庄二期,19,9711,华隆物业管理有限责任公司,0.8,辽宁,1,二手房,2003
沙河口区黄浦路18号—5号公建,大连,无开发商,高新园区,20190706,38.8771225143479,121.54427480390662,东电小区,18,14510,大连凌电物业管理有限公司,0.3,辽宁,1,二手房,1992
无门店信息,大连,暂无信息,金州,20190706,34.52713835999158,118.76812980670795,九苑小区,67,6368,无物业管理服务,0.5,辽宁,1,二手房,2008
中山区职工街96号1-3层公建,大连,大连泛华房屋开发有限公司,中山,20190706,38.92565613737007,121.66193575790903,泛华领城,32,13514,无物业管理服务,3.2,辽宁,1,二手房,1994
中山区岭前街53-5,大连,暂无信息,中山,20190706,38.89487069426055,121.65795959631497,胜鼎桃源,23,21424,暂无信息,1.8,辽宁,1,二手房,2015
西岗区黄河路90号公建部分,大连,大连民兴房地产开发有限公司,西岗,20190706,38.92234529815978,121.62829331825485,前城国际一期,24,24211,大连前城花园物业管理有限公司,1,辽宁,1,二手房,2003
金州区南棉路310号,大连,无开发商,金州,20190706,39.09939229372624,121.72414976100345,金色华庭,26,7007,大连阿尔滨集团物业管理有限公司,-,辽宁,1,二手房,2005
甘井子区山东路商业街D区12号公建,大连,大连市大钢集团,甘井子,20190706,39.001060021502965,121.58883960371418,梅山路,10,12638,街道办事处（居委会）代管物业,0.1,辽宁,1,二手房,1981
沙河口区锦霞南园1号1层公建,大连,大连锦绣房地产开发有限公司,沙河口,20190706,38.947367114450536,121.55342584213675,锦虹南园,18,10937,大连锦绣物业管理有限公司,0.3,辽宁,1,二手房,1998
甘井子区锦城西园4#3-1-1,大连,沈阳军区后勤部,甘井子,20190706,38.95286223185571,121.55129044777,金寓花园一期,4,16665,大连瑞祥物业管理有限公司,0.5,辽宁,1,二手房,2003
甘井子区虹港路16号楼1层公建,大连,大连建园房地产开发有限公司,甘井子,20190706,38.9645939333502,121.553851837474,城市印象,48,15796,大连天兴物业管理有限公司,1.8,辽宁,1,二手房,2009
中山区解放路471-22号,大连,无开发商,中山,20190706,38.901309943567504,121.65419095766659,广兴巷,6,12465,街道办事处（居委会）代管物业,-,辽宁,1,二手房,1980
金州区南棉路310号,大连,无开发商,金州,20190706,39.09939229372624,121.72414976100345,拥军小区,38,7427,无物业管理服务,-,辽宁,1,二手房,1994
中山区清溪南街11号,大连,大连澳南房屋开发有限公司,中山,20190706,38.88919604283904,121.66466481004835,清溪南苑,3,19391,大连中园房地产物业公司,0.6,辽宁,1,二手房,2003
甘井子区惠泽南园3-7号,大连,大连长鹭房屋开发有限公司,甘井子,20190706,38.939326611323615,121.52337842113351,长鹭悦湖,9,20004,大连旺宇物业有限公司,1.9,辽宁,1,二手房,2014
甘井子区华东路22号公建,大连,无开发商,甘井子,20190706,38.97736184953593,121.5935814234334,华东路（金三角商圈）,14,12135,无物业管理服务,0.5,辽宁,1,二手房,1990
甘井子区促进路30号2-1-1,大连,大连泰安房地产开发有限公司,沙河口,20190706,38.954133128707575,121.58355746311207,春柳园,18,10709,街道办事处（居委会）代管物业,0.5,辽宁,1,二手房,1995
大连市金州新区中长街道碧海尚城5-4号1-2层,大连,无开发商,金州,20190706,39.100290954587514,121.7304796052032,体育场小区,68,7422,街道办事处（居委会）代管物业,2,辽宁,1,二手房,1995
沙河口区成仁街91号,大连,"大连峰景房地产开发有限公司,无开发商",沙河口,20190706,38.91539947107844,121.59585638842556,科技广场,27,10878,街道办事处（居委会）代管物业,0.8,辽宁,1,二手房,2000
沙河口区黑石礁街5号1层1号,大连,大连鹏生房地产开发有限公司,沙河口,20190706,38.879813345473714,121.56313742300513,鹏莱花园,13,15027,大连新兴物业管理有限公司,0.3,辽宁,1,二手房,1998
西岗区新田巷27号1-2,大连,无开发商,西岗,20190706,38.893215932589385,121.64103065169111,新联巷,6,11604,无物业管理服务,-,辽宁,1,二手房,1996
开发区黄海西路201号107公建,大连,无开发商,开发区,20190706,39.04942604506828,121.80126318235419,新云里,24,8404,街道办事处（居委会）代管物业,0.5,辽宁,1,二手房,1996
中山区同心街72号1楼公建,大连,无开发商,中山,20190706,38.91979245940674,121.64769198230202,万家巷（昆明街）,13,16688,无物业管理服务,-,辽宁,1,二手房,1980
金州区小平岛B组团4号楼3号商铺,大连,大连圣岛房地产开发有限公司,高新园区,20190706,39.05643299166072,121.78943558267059,小平岛揽海名寓,31,20327,大连凯尔富物业管理有限公司,1.7,辽宁,1,二手房,2010
甘井子区红凌路109号,大连,无开发商,甘井子,20190706,38.923388478439314,121.54860212120927,红凌小区,5,9527,无物业管理服务,-,辽宁,1,二手房,1995
金州新区先进街道五一路350-1号1-2层,大连,大连鸿德置业有限公司,金州,20190706,39.078667146419825,121.77094423323935,左岸阳光,21,8601,大连鸿德物业管理有限公司,1.2,辽宁,1,二手房,2014
大连市甘井子区逸林南园1-1号,大连,暂无信息,甘井子,20190706,38.95800216293212,121.53151895549547,三鼎春天B区,44,28280,瑞联德（大连）物业管理有限公司,3.2,辽宁,1,二手房,2015
甘井子区海口路77—5号,大连,暂无信息,甘井子,20190706,38.960286398428124,121.60305183172997,鹏辉新世纪五期,13,19394,大连鹏辉物业管理有限公司,0.6,辽宁,1,二手房,2009
西岗区绕山路31号公建一层东侧,大连,无开发商,西岗,20190706,38.90257514466717,121.61412736644739,山庄北三街,9,10279,无物业管理服务,-,辽宁,1,二手房,1990
中山区解放路471-22号,大连,大连长策房屋开发有限公司,西岗,20190706,38.901309943567504,121.65419095766659,捷山观海,9,19628,大连鑫晟物业管理有限公司,2,辽宁,1,二手房,2008
无门店信息,大连,远洋地产有限公司,开发区,20190706,34.52713835999158,118.76812980670795,远洋时代城二期,12,9478,大连远洋基业物业管理有限公司,1.5,辽宁,1,二手房,2012
甘井子区汇仁街19号12号楼1单元102室,大连,大连华南房地产开发有限公司,甘井子,20190706,38.99746297497168,121.58917714380617,名贵山庄华夏园,11,14077,大连弘益达物业管理有限公司,0.5,辽宁,1,二手房,2003
开发区金源南里14栋-11号一层部分，14号-12号一层部分,大连,大连经济技术开发区金源实业有限公司,开发区,20190706,39.06148862675436,121.82503941311765,金源名府,25,10929,街道办事处（居委会）代管物业,1,辽宁,1,二手房,2009
大连市甘井子区逸林南园1-1号,大连,暂无信息,甘井子,20190706,38.95800216293212,121.53151895549547,三鼎春天A区,23,24654,瑞联德（大连）物业管理有限公司,3.2,辽宁,1,二手房,2015
经济技术开发区城润万家4-5号公建,大连,志广房地产有限公司,开发区,20190706,39.05716325096989,121.75946281983826,恒安花园,21,9415,大连志广物业管理有限责任公司,0.9,辽宁,1,二手房,2002
甘井子区西南路芳茗园30号楼,大连,大连泰华房地产开发有限公司,甘井子,20190706,38.961395177040636,121.59546002818708,泰华府邸,17,18764,大连华安物业管理有限公司,1.5,辽宁,1,二手房,2009
无门店信息,大连,大连鹏辉房地产开发有限公司,甘井子,20190706,34.52713835999158,118.76812980670795,鹏辉新天居三期,55,14471,大连鹏辉物业管理有限公司,0.8,辽宁,1,二手房,2008
中山区武昌街武昌公寓6号公建,大连,无开发商,中山,20190706,38.912280913445784,121.64921130527547,同福新居,5,12913,无物业管理服务,-,辽宁,1,二手房,2003
金州区拥政街道733号-8号1-2层,大连,暂无信息,金州,20190706,39.11690610445662,121.73030803603723,八一花园,14,8726,暂无信息,0.2,辽宁,1,二手房,2000
沙河口区锦霞南园13号4单元1层3号,大连,大连锦绣房地产开发有限公司,沙河口,20190706,38.947634390493555,121.5510543155904,锦华中园,53,12295,大连锦绣物业管理有限公司,0.5,辽宁,1,二手房,2000
西岗区长春路334号,大连,无开发商,西岗,20190706,38.89807766522607,121.63221082858387,长春路（石道街商圈）,20,11855,无物业管理服务,-,辽宁,1,二手房,1989
