address,city,developer,district,index_date,lat,lng,name,osv,price,property,property_fee,province,tv,type,year
甘井子区玉湖街25号2单元1层3号,大连,大连新型房地产开发有限公司,甘井子,20190516,38.97626265183615,121.54617349027997,泡崖四区,157,10532,大连新型物业管理有限公司,0.5,辽宁,26,二手房,2002
大连经济技术开发区东城天下98-14,大连,大连乾豪集团有限公司,开发区,20190516,39.069195091289004,121.8502099927954,东城天下,338,8601,大连远洋基业物业管理有限公司,0.9,辽宁,46,二手房,2005
沙河口区华新苑10号楼4号公建,大连,大连新型房地产开发有限公司,沙河口,20190516,38.94033750532864,121.58990295130229,侯一小区,151,11183,大连新兴物业管理有限公司,0.3,辽宁,28,二手房,1989
沙河口区沙能街101号1单元1层1号,大连,大连新型房地产开发有限公司,沙河口,20190516,38.9366316275348,121.59031205759763,侯二小区,179,11073,街道办事处（居委会）代管物业,0.1,辽宁,32,二手房,1985
甘井子区榆林街37号-12公建,大连,大连新型房地产开发有限公司,甘井子,20190516,38.980133141940186,121.52779506952932,泡崖美林园,266,11502,大连新型物业管理有限公司,0.6,辽宁,57,二手房,2003
甘井子区宜居园10-1号房屋,大连,大连万科房地产开发有限公司,甘井子,20190516,38.99913094587405,121.52084969112292,万科魅力之城,220,14628,大连万科物业服务有限公司,1.5,辽宁,32,二手房,2012
甘井子区泉水D1区37-7号,大连,大连运腾房地产开发有限公司,甘井子,20190516,39.013992871679214,121.61921940045104,锦泉源D2区,213,13226,大连嘉毅物业管理有限公司,0.5,辽宁,29,二手房,2005
开发区湾里南12栋-16-17-18号,大连,大连金湾实业有限公司,开发区,20190516,39.070782084451,121.8506739675913,湾里南小区,357,8671,大连金湾物业管理有限公司,0.3,辽宁,37,二手房,2003
甘井子区祥溢园4号1单元1层9号公建,大连,大连长鹭房屋开发有限公司,甘井子,20190516,38.92981664067587,121.54940314023253,亲亲家园,72,15170,渤海吉祥物业管理有限公司,0.5,辽宁,26,二手房,2004
大连开发区金马路169-2-8号,大连,大连亿锋房地产实业有限公司,开发区,20190516,39.057398235688176,121.78261137849105,亿锋现代城,164,9958,亿锋豪景物业管理有限公司,1.1,辽宁,27,二手房,2006
金州区金润花园B区47号1单元1层1号2号,大连,大连辽大房地产开发有限公司,金州,20190516,39.10434716151341,121.74517862677146,金润小区B区,190,8195,大连新兴物业管理有限公司,0.4,辽宁,28,二手房,2005
大连经济技术开发区时代城4-3号1-2号,大连,远洋地产有限公司,开发区,20190516,39.0992481321252,121.83007860699459,远洋时代城一期,176,9204,大连远洋基业物业管理有限公司,1.5,辽宁,23,二手房,2012
大连市金州区站前街道生辉第一城14-3号1-2层,大连,大连新希望家园房地产有限公司,金州,20190516,39.0569681786798,121.74773530665969,新希望家园,194,8705,大连新希望物业服务有限公司,1.2,辽宁,23,二手房,2009
沙河口区新生路万客园3-7,大连,大连绿波房屋开发集团有限公司,沙河口,20190516,38.94412875710208,121.57006756704837,绿波小区,147,10813,大连绿波建设发展有限公司,0.2,辽宁,25,二手房,1998
大连市甘井子区柳林园8-7号,大连,大连万科置业有限公司,甘井子,20190516,38.91290525308349,121.47673750074993,万科溪之谷,209,14558,大连万科物业服务有限公司,0.6,辽宁,20,二手房,2007
开发区湾里南12栋-16-17-18号,大连,大连金湾实业有限公司,开发区,20190516,39.070782084451,121.8506739675913,湾里东,198,8128,大连金湾物业管理有限公司,0.5,辽宁,23,二手房,2004
沙河口区昌黎街22号,大连,大连城市建设集团有限公司,沙河口,20190516,38.91975785098891,121.59109628369768,北昌平小区,124,12463,无物业管理服务,-,辽宁,18,二手房,1983
甘井子区玉丽街2号楼1单元4号公建,大连,大连新型房地产开发有限公司,甘井子,20190516,38.98705071699301,121.55513043130172,泡崖七区,116,10705,大连新兴物业管理有限公司,0.3,辽宁,19,二手房,1999
甘井子区汇仁街22号,大连,远洋地产有限公司,甘井子,20190516,38.99712640764999,121.58834420439493,远洋广场,190,17551,大连远洋基业物业管理有限公司,1.4,辽宁,19,二手房,2010
西岗区香炉礁24号1-1,大连,无开发商,西岗,20190516,38.92047268927287,121.61862512554262,香炉礁,195,10927,街道办事处（居委会）代管物业,0.1,辽宁,19,二手房,1979
沙河口区五一路177-1-1-1,大连,无开发商,沙河口,20190516,38.913544290955585,121.59450670056631,台山,85,11772,街道办事处（居委会）代管物业,0.5,辽宁,20,二手房,1987
开发区正恒园1-16,大连,大连华宇房地产开发有限公司,开发区,20190516,39.04823944344617,121.76165468797754,左岸经典,251,9028,大连豪之英物业管理有限公司,1.8,辽宁,20,二手房,2009
甘井子区宜居园10-1号房屋,大连,大连万科房地产开发有限公司,甘井子,20190516,38.99913094587405,121.52084969112292,万科朗润园,108,14884,大连万科物业服务有限公司,1.5,辽宁,19,二手房,2010
开发区东北三街94号1层,大连,大连欣达房地产开发有限公司,开发区,20190516,39.05723508011585,121.80570768630555,倚山里小区,236,7462,大连经济技术开发区聚盛达物业管理有限公司,0.2,辽宁,20,二手房,1996
金州区鹏程家园53#-8,大连,大连光伸房地产开发有限公司,开发区,20190516,39.03523987258615,121.80826248065051,绿洲半岛北岸,126,9244,大连经济技术开发区光伸物业服务有限公司,1.2,辽宁,20,二手房,2007
金州新区先进街道渤海街7-4号1-2层、7-3号1-2层,大连,原金州纺织厂房地产公司,金州,20190516,39.09342713035472,121.74590886291374,金纺小区,170,6937,街道办事处（居委会）代管物业,0.5,辽宁,20,二手房,1985
甘井子区红旗花园23号楼19-24轴公建,大连,大连红旗兴达房地产开发有限公司,甘井子,20190516,38.93108029984587,121.54902145022133,兴达花园,80,12679,大连万泰物业管理有限公司,0.3,辽宁,20,二手房,2000
沙河口区富民路120号4-1-1,大连,大连渤海红旗集团有限公司,沙河口,20190516,38.930937859528605,121.5647274237578,马栏小学北,77,10466,街道办事处（居委会）代管物业,0.2,辽宁,20,二手房,1994
沙河口区华北路448号楼1-4公建,大连,无开发商,沙河口,20190516,38.903224944733765,121.56809734950556,刘家桥,90,10771,街道办事处（居委会）代管物业,0.1,辽宁,21,二手房,1981
甘井子区玉丽街2号楼1单元4号公建,大连,大连新型房地产开发总公司,甘井子,20190516,38.98705071699301,121.55513043130172,泡崖康顺园,144,10976,大连新兴物业管理有限公司,0.5,辽宁,21,二手房,2007
甘井子区祥龙街2号楼1单元1楼1号,大连,大连恒新房地产开发有限公司,甘井子,20190516,38.988045874482445,121.60439401971377,华东人家,41,14409,大连福佳物业管理有限公司,1,辽宁,16,二手房,2007
无门店信息,大连,无开发商,甘井子,20190516,34.52713835999158,118.76812980670795,石油六闾,65,9099,街道办事处（居委会）代管物业,0.5,辽宁,17,二手房,1989
沙河口区马栏北街186号,大连,大连渤海红旗集团有限公司,甘井子,20190516,38.913544290955585,121.59450670056631,马栏北街,38,11426,大连辽南物业管理有限公司,0.2,辽宁,16,二手房,1993
大连市开发区左岸经典正恒园1-17,大连,大连神洲众益集团有限公司,开发区,20190516,39.049057070649155,121.76187404250511,万国宫馆一期,130,13193,加拿大高力国际物业服务有限公司,2.4,辽宁,13,二手房,2009
大连市甘井子中华路街道汇畅街48号,大连,远洋地产有限公司,甘井子,20190516,39.0059299196697,121.59621871231741,远洋荣域,165,18751,远洋亿家物业服务股份有限公司大连分公司,2.8,辽宁,17,二手房,2016
沙河口区星海广场B3区20—3号,大连,大连飞通房地产开发有限公司,沙河口,20190516,38.88782715536473,121.5869168319735,东方星海,117,17850,大连兆恒物业管理有限公司,2.9,辽宁,13,二手房,2009
沙河口区敦煌路357号10-11轴公建,大连,无开发商,沙河口,20190516,38.93891619583455,121.59150694046835,车家村,34,10197,街道办事处（居委会）代管物业,0.5,辽宁,13,二手房,1989
无门店信息,大连,大连万德房地产集团有限公司,开发区,20190516,34.52713835999158,118.76812980670795,万德悦城,102,8222,大连万德物业管理有限公司,1.5,辽宁,13,二手房,2010
天河路173-2号 华润考拉22号公建,大连,华润置地（大连）开发有限公司,甘井子,20190516,23.14720645345518,113.3277414923158,华润考拉住区,86,15161,华润物业（大连）有限公司,2.5,辽宁,13,二手房,2015
金州区先进街道陶然居公建2-2号1层,大连,大连金信集团房地产有限公司,金州,20190516,39.08283372756215,121.76170982507143,桃园小区,200,6868,街道办事处（居委会）代管物业,0.5,辽宁,13,二手房,1992
沙河口区黄浦路18号—5号公建,大连,无开发商,高新园区,20190516,38.8771225143479,121.54427480390662,凌源街,26,13338,大连凌电物业管理有限公司,0.1,辽宁,13,二手房,1981
甘井子区泉水A2区10-3号,大连,源祥房地产开发有限公司,甘井子,20190516,39.00419463553784,121.61128690376383,美域盛景,134,12592,大连新华物业管理有限公司,0.8,辽宁,14,二手房,2008
甘井子区泉水D6区51号,大连,大连金广集团,甘井子,20190516,39.00897610161069,121.61789300655198,枫丹丽城,90,15771,大连金广物业有限公司,1.5,辽宁,13,二手房,2012
开发区景和园1-7,大连,大连市政府工程建设指挥部,开发区,20190516,30.41892168817929,120.30896459202738,小孤山中里,104,7679,大连广谊物业管理有限公司,0.4,辽宁,14,二手房,1999
开发区润海园中区62-9,大连,华润（大连）房地产有限公司,开发区,20190516,39.04047273176333,121.76392358042445,华润海中国四期,125,14054,华润物业（大连）有限公司,3.1,辽宁,14,二手房,2014
开发区黄海西路54号,大连,开发区城建局,开发区,20190516,39.047714586087785,121.76688238228269,青松北里,48,8169,大连经济技术开发区中强物业管理有限公司,0.2,辽宁,14,二手房,1996
沙河口区西南路643号,大连,无开发商,沙河口,20190516,38.943483429804665,121.5833555851182,北甸街,42,11493,无物业管理服务,-,辽宁,14,二手房,1983
无门店信息,大连,大连一方生态城房地产开发有限公司,开发区,20190516,34.52713835999158,118.76812980670795,一方天鹅湖,178,8007,大连一方物业管理有限公司,2,辽宁,15,二手房,2010
开发区兴城路29-81层,大连,大连亿锋房地产实业有限公司,开发区,20190516,39.050214252167194,121.75835946441768,亿锋广场一期,91,14500,大连广恒物业管理有限公司,2.5,辽宁,15,二手房,2013
金州区金润小区B区861单元102,大连,大连辽大房地产开发有限公司,金州,20190516,39.10615165380565,121.74639264534615,金润小区A区,150,8509,大连新兴物业管理有限公司,0.4,辽宁,15,二手房,2005
沙河口区富国街14号1-1-2,大连,大连浩江房地产开发有限公司,沙河口,20190516,38.901027106600836,121.59047734850638,和平现代城,91,16372,大连万科物业服务有限公司,1,辽宁,15,二手房,2005
甘井子区泉水H3区15号3单元1层2号,大连,大连新型房地产开发有限公司,甘井子,20190516,39.00158439075201,121.62616882572375,龙畔金泉四期,71,13131,大连新型物业管理有限公司,0.4,辽宁,11,二手房,2005
开发区安盛里5栋-4,大连,大连开建集团有限公司,开发区,20190516,23.112106678834838,113.27801046214822,开建阳光馨苑,90,9615,大连开利物业管理有限公司,1.2,辽宁,10,二手房,2009
甘井子区泉水D1区37-7号,大连,大连运腾房地产开发有限公司,甘井子,20190516,39.013992871679214,121.61921940045104,锦泉源D3区,61,12378,大连南虹物业管理有限公司,0.5,辽宁,11,二手房,2007
无门店信息,大连,大连聚达房地产开发有限公司,旅顺口,20190516,34.52713835999158,118.76812980670795,海尚明珠,153,9903,大连合生物业管理有限公司,1.5,辽宁,11,二手房,2016
沙河口区富民路120号4-1-1,大连,大连渤海红旗集团有限公司,沙河口,20190516,38.930937859528605,121.5647274237578,马栏小学南,50,10891,大连辽南物业管理有限公司,0.2,辽宁,11,二手房,1995
沙河口区锦霞南园13号4单元1层3号,大连,大连锦绣房地产开发有限公司,沙河口,20190516,38.947634390493555,121.5510543155904,锦华中园,58,12151,大连锦绣物业管理有限公司,0.5,辽宁,11,二手房,2001
甘井子区千山路66号楼2单元1楼2号,大连,大连宜和房地产开发有限公司,甘井子,20190516,38.985716774397915,121.58287796391829,盛世闲庭,56,15126,大连衡德物业管理有限公司,0.5,辽宁,10,二手房,2003
沙河口区西南路851号3单元1层3号,大连,无开发商,沙河口,20190516,38.94344210837944,121.58246796944378,李家街,25,11382,无物业管理服务,0.1,辽宁,11,二手房,1985
沙河口区五一路219-1,大连,大连亿达房地产股份有限公司,沙河口,20190516,38.913544290955585,121.59450670056631,桃山小区,78,9878,街道办事处（居委会）代管物业,0.5,辽宁,11,二手房,1998
沙河口区锦石路8号,大连,大连锦绣房地产开发有限公司,沙河口,20190516,38.94771288948481,121.56110903658733,锦泉南园,55,11412,大连锦绣物业管理有限公司,0.3,辽宁,11,二手房,1996
金州区凤翔路220号,大连,大连润景房地产开发有限公司,金州,20190516,39.08410553937731,121.77700083356399,恒盛阳光美麓,168,9586,沈阳阳光鑫地物业管理有限公司大连分公司,1.6,辽宁,11,二手房,2011
开发区鹏程家园66#-6、66#-7公建,大连,大连海富花园开发有限公司,开发区,20190516,37.92440451755906,112.59861436589645,海富经典,125,9961,大连银帆物业管理有限公司,1.2,辽宁,9,二手房,2009
西岗区平等街21号1层2号,大连,暂无信息,西岗,20190516,38.92251066253164,121.63236845125735,实验小学英华街,85,21301,无物业管理服务,0.6,辽宁,11,二手房,1989
甘井子区中华路泉水A1区86号4单元1层1号,大连,大连运泽房地产开发有限公司,甘井子,20190516,39.0040531092963,121.60742125620513,润泽园,96,16733,大连城建开发集团物业管理有限公司,1.4,辽宁,9,二手房,2012
沙河口区中山路417A-4号,大连,大连海孚房地产开发有限公司,沙河口,20190516,38.90740323140171,121.59484801084653,华业玫瑰东方,78,26610,深圳华业物业管理有限公司大连分公司,3.5,辽宁,9,二手房,2011
甘井子区红旗中路143号1层4号,大连,大连保利红旗房地产开发有限公司,甘井子,20190516,38.93169566676921,121.5426632438217,保利西山林语,81,20270,保利物业服务有限公司,1.5,辽宁,9,二手房,2014
大连市沙河口区文萃街1号1-2-2；大连市沙河口区由家五小区五号楼1单元2层1,大连,大连理工科技城建设开发有限公司,高新园区,20190516,38.88596852074166,121.54389553303217,文萃轩小区,36,17082,大连理工物业管理中心,0.2,辽宁,9,二手房,1990
金州区先进街道陶然居公建2-2号1层,大连,大连金信集团房地产有限公司,金州,20190516,39.08283372756215,121.76170982507143,金信陶然居,67,9340,北京瑞思特物业管理有限公司,0.5,辽宁,9,二手房,2007
金州新区先进街道渤海街7-4号1-2层、7-3号1-2层,大连,大连九鼎置地有限公司,金州,20190516,39.09342713035472,121.74590886291374,万科城,89,11082,大连万科物业服务有限公司,2.2,辽宁,9,二手房,2015
甘井子区红旗中路143号1层4号,大连,大连红旗兴达房地产开发有限公司,甘井子,20190516,38.93169566676921,121.5426632438217,兴达依山居,32,13902,大连金诚物业管理有限公司,0.3,辽宁,9,二手房,2004
高新园区硅谷假日小区25号楼地下室,大连,大连鑫亿房屋开发有限公司,高新园区,20190516,38.86467854992112,121.53720784613759,硅谷假日,55,19731,大连斌弘物业管理有限公司,0.8,辽宁,9,二手房,2005
高新园区黄浦路901S号1单元1层3号,大连,大连海创房地产开发有限公司,高新园区,20190516,38.85845801548294,121.51687109601923,谷歌里,38,14728,大连海创物业管理有限公司,1.2,辽宁,9,二手房,2009
沙河口区五一路326号,大连,大连亿达房地产股份有限公司,高新园区,20190516,38.913544290955585,121.59450670056631,亿达学清园,23,23255,大连软件园物业管理有限公司,0.5,辽宁,9,二手房,2001
开发区红梅小区19栋-2-1-1号,大连,香港北海集团,开发区,20190516,29.906498897603264,121.5913630631805,君悦豪庭,50,11064,街道办事处（居委会）代管物业,1.2,辽宁,9,二手房,2004
大连市金州新区中长街道碧海尚城5-4号1-2层,大连,无开发商,金州,20190516,39.100290954587514,121.7304796052032,碧海尚城,122,8153,街道办事处（居委会）代管物业,0.8,辽宁,9,二手房,2007
沙河口区西南路643号,大连,无开发商,沙河口,20190516,38.943483429804665,121.5833555851182,西关街,47,11238,无物业管理服务,-,辽宁,8,二手房,1995
沙河口区绿清街12号,大连,大连绿波房屋开发集团有限公司,沙河口,20190516,38.93851335419565,121.57334844377094,绿波花园,26,13099,大连绿波建设发展有限公司,0.6,辽宁,8,二手房,2001
大连市甘井子区钻石湾和信园13-5,大连,远洋地产有限公司,甘井子,20190516,38.958699272665584,121.61903564217761,远洋钻石湾三期,70,21040,远洋亿家物业服务股份有限公司大连分公司,1.5,辽宁,8,二手房,2014
沙河口区绿波路34号楼5单元1楼3号,大连,大连东北房屋开发有限公司,沙河口,20190516,38.94049893962156,121.57316620632874,帝欧花园,33,17402,大连绿波建设发展有限公司,0.6,辽宁,8,二手房,2005
沙河口区锦石路8号,大连,大连锦绣房地产开发有限公司,沙河口,20190516,38.94771288948481,121.56110903658733,锦泉中园,32,12159,大连锦绣物业管理有限公司,0.3,辽宁,8,二手房,1996
无门店信息,大连,大连航逸房地产开发有限公司,甘井子,20190516,34.52713835999158,118.76812980670795,中航华府,42,14486,中航物业管理有限公司大连分公司,2.5,辽宁,8,二手房,2016
甘井子区柳树南街45-10号,大连,中体产业集团大连乐百年置业有限公司,甘井子,20190516,38.92567666296449,121.4841330254372,中体奥林匹克花园,71,13547,广东中奥物业有限公司大连分公司,1.9,辽宁,8,二手房,2010
无门店信息,大连,大连益宁房地产开发有限公司,开发区,20190516,34.52713835999158,118.76812980670795,岭湾峰尚二期,84,9779,大连鸿达物业管理有限公司,0.6,辽宁,8,二手房,2010
大连市金州新区中长街道碧海尚城5-4号1-2层,大连,大连集品置业有限公司,金州,20190516,39.100290954587514,121.7304796052032,东林世家,45,14972,大连百安物业管理有限公司,1,辽宁,8,二手房,2008
中山区益民街16号1层1号,大连,大连恒力德实业开发有限公司,中山,20190516,38.93092761298906,121.66470740073377,港湾壹号,80,14143,大连日航酒店物业管理有限公司,3.8,辽宁,8,二手房,2009
甘井子区红南东街7-7号,大连,大连均卫达房地产开发有限公司,甘井子,20190516,38.92880462247992,121.54144910207062,亲亲阳光,12,12930,大连万泰物业管理有限公司,0.5,辽宁,8,二手房,2004
开发区黄海西路54号,大连,中国铁路十三局,开发区,20190516,39.047714586087785,121.76688238228269,翠竹小区,113,7773,大连经济技术开发区中强物业管理有限公司,0.3,辽宁,8,二手房,1996
中山区碧浪园4号-3号,大连,大连万达房地产开发有限公司,中山,20190516,38.89147289460474,121.69329560326236,虎滩路,45,12626,大连虎滩置业物业管理有限公司,0.2,辽宁,8,二手房,1995
金州区胜利西小区44号楼,大连,大连金宸集团,金州,20190516,39.10507689383061,121.71536524220103,连大文润金宸一二期,50,10330,大连四通物业管理有限公司,0.9,辽宁,8,二手房,2010
金州区金润小区B区861单元102,大连,大连中连房地产开发有限公司,金州,20190516,39.10615165380565,121.74639264534615,自然天城B区,68,7197,大连新生活物业管理有限公司,0.4,辽宁,9,二手房,2010
大连市甘井子区泉水R2区33-4号第8幢1单元1跃2层9号,大连,大连天意房地产开发有限公司,甘井子,20190516,39.00961080610692,121.63892035059047,金地檀溪,89,18060,大连金地物业管理有限公司,2.6,辽宁,9,二手房,2014
金州区金润小区B区861单元102,大连,大连新型房地产开发有限公司,金州,20190516,39.10615165380565,121.74639264534615,糖果小区,77,8809,大连新兴物业管理有限公司,0.5,辽宁,9,二手房,2011
沙河口区联合路133号,大连,无开发商,沙河口,20190516,38.91608561262676,121.60480987310456,79中永平,100,26860,无物业管理服务,-,辽宁,9,二手房,1994
大连市开发区左岸经典正恒园1-17,大连,大连神洲众益集团有限公司,开发区,20190516,39.049057070649155,121.76187404250511,万国宫馆二期,131,14026,加拿大高力国际物业服务有限公司,2.4,辽宁,9,二手房,2009
开发区松苑街23号,大连,大连盛和房地产开发有限公司,开发区,20190516,22.52087435807652,113.40156105086167,北欧假日,119,11769,大连鸿达物业管理有限公司,1.1,辽宁,9,二手房,2005
金州新区站前街道生辉第一城5号楼1-2层4号,大连,大连公路工程集团生辉房地产开发有限公司,金州,20190516,39.05819721414208,121.74650438736514,生辉第一城,126,10902,大连生辉物业管理有限公司,1.2,辽宁,8,二手房,2007
大连市甘井子区椒房街24号楼2-104链家地产,大连,无开发商,甘井子,20190516,38.985363789837166,121.61034055597686,椒房,91,13738,无物业管理服务,0.5,辽宁,7,二手房,1985
甘井子区泡崖六小区6号楼1单元1层2号,大连,大连新型房地产开发有限公司,甘井子,20190516,38.98033159306754,121.55920598894072,泡崖六区,33,11504,大连新兴物业管理有限公司,0.3,辽宁,7,二手房,2000
甘井子区华龙南园12-4-3-1-3,大连,大连鹏德房屋开发有限公司,甘井子,20190516,38.98528794231248,121.61028969481718,乐活源,72,12914,大连三和住邦物业管理有限公司,0.5,辽宁,7,二手房,2009
甘井子区虹城路503号1-1号,大连,大连易和房地产集团有限公司,甘井子,20190516,38.981193588625004,121.49964051837122,岭秀滨城悦和中园,27,15679,大连易兴物业服务有限公司,1.3,辽宁,7,二手房,2009
中山区杏林街66—5号,大连,嘉和房地产集团有限公司,中山,20190516,38.92572771377599,121.66490555592502,嘉和花样年华三期,49,24356,大连嘉和物业管理有限公司,3.5,辽宁,7,二手房,2007
沙河口区锦石园24-7号第A2-13幢1单元1层1号,大连,大连鼎新房地产开发有限公司,甘井子,20190516,38.913544290955585,121.59450670056631,鼎新鼎润府,28,19919,大连鼎新物业管理有限公司,0.6,辽宁,7,二手房,2006
甘井子区虹城路503号1-1号,大连,大连新星房地产开发有限公司,甘井子,20190516,38.981193588625004,121.49964051837122,艾维尼小城,85,15488,大连生生物业有限公司,1.8,辽宁,8,二手房,2010
开发区润海园中区18#2号,大连,大连布鲁科房地产开发有限公司,开发区,20190516,39.04047273176333,121.76392358042445,热岛黄金海岸,183,11013,大连戴德梁行物业管理有限公司,1.6,辽宁,8,二手房,2010
甘井子区泉水D1区37-7号,大连,大连运腾房地产开发有限公司,甘井子,20190516,39.013992871679214,121.61921940045104,锦泉源D1区,77,14052,大连嘉合物业管理有限公司,0.5,辽宁,8,二手房,2005
开发区红星海-B区89-1号,大连,远洋地产有限公司,开发区,20190516,39.027851194371685,121.80327394132297,红星海五期青屿蓝,205,14832,大连远洋基业物业管理有限公司,2.2,辽宁,8,二手房,2012
甘井子辛吉街150号-7号,大连,大连新星房地产开发有限公司,甘井子,20190516,38.96368508446978,121.52671221254214,新星帕尔美娜,37,15524,大连生生物业有限公司,1,辽宁,8,二手房,2009
沙河口区富国街14号1-1-2,大连,大连永辉房地产开发有限公司,沙河口,20190516,38.901027106600836,121.59047734850638,百年汇,110,18524,大连百年城物业管理有限公司,2.8,辽宁,8,二手房,2007
开发区兴城路29-81层,大连,大连兆佳房地产开发有限公司,开发区,20190516,39.050214252167194,121.75835946441768,自由向,54,13977,大连华安物业管理有限公司,2.4,辽宁,8,二手房,2008
金州区先进街道渤海街1-4号1-2层,大连,无开发商,金州,20190516,39.09512910553563,121.74578812616167,金元小区,58,7084,街道办事处（居委会）代管物业,0.1,辽宁,8,二手房,1993
金州新区先进街道五一路350-1号1-2层,大连,大连市金州区育才房地产开发有限公司,金州,20190516,39.078667146419825,121.77094423323935,康居小区,57,7625,街道办事处（居委会）代管物业,-,辽宁,8,二手房,1998
沙河口区西南路161号,大连,无开发商,沙河口,20190516,38.89269676588945,121.56639953951542,孙家沟,76,12187,无物业管理服务,-,辽宁,8,二手房,1990
中山区山屏街116号1-1,大连,大连中信海港投资有限公司,中山,20190516,38.90729438486833,121.68598159980013,山屏街,38,11727,暂无信息,-,辽宁,7,二手房,1988
大连经济技术开发区东城天下98-14,大连,大连富远房地产开发有限公司,开发区,20190516,39.069195091289004,121.8502099927954,一河两公园,65,10116,大连锦明物业服务有限公司,1.7,辽宁,7,二手房,2016
开发区润海园中区18#2号,大连,华润（大连）房地产有限公司,开发区,20190516,39.04047273176333,121.76392358042445,华润海中国六期,58,14561,华润物业（大连）有限公司,3.1,辽宁,7,二手房,2016
甘井子区金家街17-7号,大连,暂无信息,甘井子,20190516,38.97493697764367,121.60110987128529,金二街,44,19548,无物业管理服务,-,辽宁,7,二手房,1970
高新园区硅谷假日小区25号楼地下室,大连,大连志恒房地产开发有限公司,高新园区,20190516,38.86467854992112,121.53720784613759,菁英汇,55,15605,大连海创物业管理有限公司,1.2,辽宁,7,二手房,2007
沙河口区恒利园42号-8,大连,大连新型房地产开发有限公司,沙河口,20190516,38.93357562498634,121.57914091532649,中铁十三局,17,13191,大连新兴物业管理有限公司,0.3,辽宁,7,二手房,1993
大连市甘井子区辛如街35号1单元1层1号,大连,大连新星房地产开发有限公司,甘井子,20190516,38.96862607066881,121.52294869064194,新星绿城五期,65,13965,大连生生物业有限公司,0.8,辽宁,7,二手房,2009
无门店信息,大连,大连金地房地产开发有限公司,金州,20190516,34.52713835999158,118.76812980670795,金地新里程,42,6790,大连金铭物业管理有限公司,0.8,辽宁,7,二手房,2008
沙河口区锦霞南园13号3-1-1,大连,大连锦绣房地产开发有限公司,沙河口,20190516,38.94761264366187,121.55126272246873,锦霞南园,45,11011,大连锦绣物业管理有限公司,0.3,辽宁,7,二手房,1998
甘井子区泉水H3区15号3单元1层2号,大连,大连新型房地产开发有限公司,甘井子,20190516,39.00158439075201,121.62616882572375,龙畔金泉二期,80,12769,大连新型物业管理有限公司,0.5,辽宁,7,二手房,2004
中山区华乐街107-115号1单元1层2号,大连,大连海昌房地产开发有限公司,中山,20190516,38.92093821499401,121.68879267531725,海昌欣城,90,16903,大连海昌欣城物业管理有限公司,1.2,辽宁,7,二手房,2002
无门店信息,大连,大连唐银盛兴置业有限公司,开发区,20190516,34.52713835999158,118.76812980670795,钻石9座,47,9954,大连佳家物业管理有限公司,1.5,辽宁,7,二手房,2014
中山区碧浪园4号-3号,大连,大连三寰房地产开发有限公司,中山,20190516,38.89147289460474,121.69329560326236,碧浪园一期,42,13809,大连峰霖物业管理有限公司,0.3,辽宁,7,二手房,1999
沙河口区红旗东路18-22号2单元1楼3号,大连,大连渤海红旗集团有限公司,甘井子,20190516,38.913544290955585,121.59450670056631,红旗东路,45,11912,渤海吉祥物业管理有限公司,0.4,辽宁,7,二手房,1992
无门店信息,大连,大连中海新城置业有限公司,甘井子,20190516,34.52713835999158,118.76812980670795,中海凤凰熙岸,63,13687,大连中海物业管理有限公司,2.3,辽宁,7,二手房,2016
开发区鹏程家园66#-6、66#-7公建,大连,大连新天润企业集团有限公司,开发区,20190516,37.92440451755906,112.59861436589645,水御兰庭,38,9820,大连港力物业管理有限公司,1.1,辽宁,7,二手房,2007
甘井子区泉水D1区10-2#1-1-7,大连,大连运达房地产集团有限公司,甘井子,20190516,39.01504676175047,121.61751269364314,锦泉源B4区,59,11265,大连佳泰物业管理有限公司,0.5,辽宁,7,二手房,2002
甘井子区芳韵街31号,大连,大连亿达房地产股份有限公司,甘井子,20190516,38.95628814568166,121.59125586946814,唯美品格,100,30061,亿达物业管理有限公司,1.5,辽宁,7,二手房,2009
开发区黄海西路54号,大连,大连凯伦房地产开发股份有限公司,开发区,20190516,39.047714586087785,121.76688238228269,凯伦凯悦,109,8695,大连凯悦物业管理有限公司,3.1,辽宁,7,二手房,2008
甘井子区华龙南园12-4-3-1-3,大连,大连长鹭房屋开发有限公司,甘井子,20190516,38.98528794231248,121.61028969481718,晶品枫林,50,13685,北京房修一物业管理有限公司,0.5,辽宁,7,二手房,2008
沙河口区兰田街33号,大连,无开发商,沙河口,20190516,38.926138912221084,121.56486022834609,马栏广场东,19,11080,大连辽南物业管理有限公司,0.2,辽宁,7,二手房,1995
中山区武昌街武昌公寓6号公建,大连,无开发商,中山,20190516,38.912280913445784,121.64921130527547,宪立巷,21,9850,无物业管理服务,-,辽宁,6,二手房,1988
无门店信息,大连,大连龙湖西城置业有限公司,甘井子,20190516,34.52713835999158,118.76812980670795,龙湖滟澜山,59,20362,大连龙湖物业服务有限公司,6.6,辽宁,6,二手房,2015
甘井子区山东路315号14栋1单元1跃2层13号,大连,华润置地（大连）有限公司,甘井子,20190516,39.00206212579579,121.59357231641214,华润置地广场二期,57,20474,华润物业（大连）有限公司,2.9,辽宁,6,二手房,2013
西岗区长红街4号1号公建,大连,无开发商,西岗,20190516,38.91377414665191,121.6302525225721,34中林荫巷,10,26532,无物业管理服务,-,辽宁,6,二手房,1997
大连市甘井子区融田西园52-11,大连,大连圣安房地产开发有限公司,甘井子,20190516,38.95800216293212,121.53151895549547,亿达春田晴湾,74,17255,亿达物业管理有限公司,2.2,辽宁,6,二手房,2013
西岗区香炉礁24号1-1,大连,大连新型房地产开发有限公司,西岗,20190516,38.92047268927287,121.61862512554262,金海花园西园,56,11842,无物业管理服务,0.5,辽宁,6,二手房,2001
大连市金州新区中长街道碧海尚城5-4号1-2层,大连,无开发商,金州,20190516,39.100290954587514,121.7304796052032,体育场小区,72,7232,街道办事处（居委会）代管物业,2,辽宁,6,二手房,1995
甘井子区千山路26号,大连,大连市大钢集团,甘井子,20190516,38.985697948031984,121.58768860037272,华中街,32,12136,街道办事处（居委会）代管物业,0.1,辽宁,6,二手房,1986
无门店信息,大连,大连宏港房地产开发有限公司,开发区,20190516,34.52713835999158,118.76812980670795,港湾观海,65,8653,大连宏港物业管理有限公司,0.5,辽宁,6,二手房,2013
沙河口区富民路120号4-1-1,大连,大连银地置业发展有限公司,沙河口,20190516,38.930937859528605,121.5647274237578,观山蝶恋花,37,14742,大连新展物业管理有限公司,1,辽宁,6,二手房,2011
开发区安盛里5栋-4,大连,大连华宇房地产开发有限公司,开发区,20190516,23.112106678834838,113.27801046214822,叠翠花香,30,9225,大连经济技术开发区永嘉物业管理有限公司,0.5,辽宁,6,二手房,2000
甘井子区西南路979-7号公建,大连,大连祥盛房屋开发有限公司,甘井子,20190516,38.96275592929325,121.5958698791777,金盛家园,49,17078,大连宏华物业管理有限公司,0.5,辽宁,6,二手房,2001
"西岗区泰公街20号2层7号 西岗区久寿街22号1层14号""",大连,大连润德君城房地产开发有限公司,西岗,20190516,38.92600196862723,121.62141976476381,北京公园,38,23949,大连润德物业管理有限公司,2.2,辽宁,6,二手房,2010
西岗区八一路196号1-3,大连,大连三环置业有限公司,西岗,20190516,38.92047268927287,121.61862512554262,桃花源小区,45,10212,大连三寰物业管理有限公司,0.5,辽宁,6,二手房,1996
开发区高新里6栋-8,大连,无开发商,开发区,20190516,39.0710895068195,121.82860134358343,高志里小区,44,6564,街道办事处（居委会）代管物业,0.3,辽宁,6,二手房,1993
莲花山路89-3号,大连,大连胜利路拓宽改造工程建设有限公司,沙河口,20190516,38.902848261803356,121.6041720815823,星海融汇,100,21828,大连星海湾商务区物业管理有限公司,1.5,辽宁,6,二手房,2014
金州区小平岛B组团4号楼3号商铺,大连,大连圣岛房地产开发有限公司,高新园区,20190516,39.05643299166072,121.78943558267059,小平岛海悦山,66,19901,大连凯尔富物业管理有限公司,1.3,辽宁,6,二手房,2011
甘井子区柳树南街45-10号,大连,大连都源置业有限公司,甘井子,20190516,38.92567666296449,121.4841330254372,依云溪谷,66,15378,大连远洋物业管理有限公司,1.2,辽宁,6,二手房,2008
沙河口区红凌路137号,大连,大连大实企业集团房屋开发有限公司,甘井子,20190516,38.922699288974506,121.54713601744747,泊林映山,28,12337,大连弘实物业管理有限公司,1.2,辽宁,6,二手房,2011
沙河口区华北路448号楼1-4公建,大连,无开发商,甘井子,20190516,38.903224944733765,121.56809734950556,周山街,20,16382,街道办事处（居委会）代管物业,0.5,辽宁,6,二手房,1989
沙河口区前程街46号4—1—2号,大连,大连渤海红旗集团有限公司,甘井子,20190516,38.913544290955585,121.59450670056631,兰丰巷,16,10496,大连辽南物业管理有限公司,0.2,辽宁,5,二手房,1992
中山区北斗街53号1层1号,大连,大连运达房地产集团有限公司,中山,20190516,38.92727355733075,121.67002970974048,运达嘉洲阳光,33,18898,大连运达物业有限公司,1.8,辽宁,5,二手房,2007
甘井子辛吉街150号-7号,大连,大连金马房屋开发有限公司,甘井子,20190516,38.96368508446978,121.52671221254214,金马圣隆,27,13067,大连金马圣隆物业管理有限公司,0.5,辽宁,5,二手房,2006
金州区南棉路310号,大连,大连金连房地产开发有限公司,金州,20190516,39.09939229372624,121.72414976100345,金连福地,28,7900,街道办事处（居委会）代管物业,0.5,辽宁,5,二手房,2010
甘井子区华龙南园34-5号34-库4号34-5号,大连,大连钧卫达房地产开发有限公司,甘井子,20190516,38.98270467597865,121.6117222765123,亲亲美境,20,12159,大连三和住邦物业管理有限公司,0.9,辽宁,6,二手房,2008
沙河口区恒利园42号-8,大连,大连天河房地产开发集团有限公司,沙河口,20190516,38.93357562498634,121.57914091532649,天河新苑,38,13013,大连天河物业管理有限公司,0.4,辽宁,6,二手房,2000
经济技术开发区城润万家62-8公建,大连,大连海汇房地产开发有限公司,开发区,20190516,39.06883436780937,117.72669530355309,正源吉祥e家祥福园,56,11399,大连正源物业服务有限公司,1.5,辽宁,6,二手房,2015
甘井子区哲林北园17-6号,大连,大连恒德房屋开发有限公司,甘井子,20190516,38.9600267109581,121.53876726228256,恒德橄榄季,60,21809,大连恒德物业服务有限公司,1.4,辽宁,6,二手房,2009
金州区金湾路132-2号,大连,大连金新房地产开发有限公司,金州,20190516,39.10269111644727,121.72221060686516,金州福佳新天地广场,98,8360,大连福佳物业管理有限公司,1.8,辽宁,6,二手房,2011
开发区湾里南12栋-16-17-18号,大连,无开发商,开发区,20190516,39.070782084451,121.8506739675913,东城国际,45,8626,大连乾豪物业管理有限公司,1,辽宁,6,二手房,2006
无门店信息,大连,大连经开万达广场投资有限公司,开发区,20190516,34.52713835999158,118.76812980670795,大连开发区万达广场,118,9209,大连万达物业管理有限公司,2.5,辽宁,6,二手房,2015
中山区清溪南街11号,大连,无开发商,中山,20190516,38.88919604283904,121.66466481004835,秀月小区,40,17241,无物业管理服务,0.5,辽宁,6,二手房,1982
开发区红星海B区212-1,大连,远洋地产有限公司,开发区,20190516,39.027851194371685,121.80327394132297,红星海时光的岸,72,13549,大连远洋基业物业管理有限公司,2.2,辽宁,6,二手房,2015
高新园敬贤街23-11号,大连,中海东丰地产（大连）有限公司,高新园区,20190516,38.869456648212356,121.53023725049893,中海华庭,66,20293,大连中海物业管理有限公司,2,辽宁,6,二手房,2009
甘井子区泉水B5区27-9,大连,大连运达房地产集团有限公司,甘井子,20190516,39.01477152073682,121.60970286326823,锦泉源B5区,69,12733,政治物业管理有限公司,0.1,辽宁,6,二手房,1999
无门店信息,大连,大连环宇置业有限公司,开发区,20190516,34.52713835999158,118.76812980670795,环宇品阁,75,6265,大连环宇物业管理有限公司,1.5,辽宁,6,二手房,2010
金州新区润海园中区18#2号,大连,华润置地（大连）有限公司,开发区,20190516,39.04047273176333,121.76392358042445,华润海中国二期,158,14297,华润物业（大连）有限公司,2.8,辽宁,6,二手房,2011
无门店信息,大连,大连海脉房地产开发有限公司,金州,20190516,34.52713835999158,118.76812980670795,海脉未来城,24,8164,大连豪斯威物业管理有限公司,1,辽宁,6,二手房,2013
沙河口区富国街34-3,大连,大连万达房地产开发有限公司,沙河口,20190516,38.90159716600704,121.58930603357904,星海人家,64,26973,大连万景物业管理有限公司,1.2,辽宁,6,二手房,2001
甘井子区华北路花锦园28号23-3-1-2建筑物,大连,大连市中联房地产开发有限公司,甘井子,20190516,38.951627958411166,121.5739439799003,香周路（甘）,24,16660,街道办事处（居委会）代管物业,0.1,辽宁,5,二手房,1987
沙河口区西南路643号,大连,无开发商,沙河口,20190516,38.943483429804665,121.5833555851182,恒达花园（沙河口）,12,11944,无物业管理服务,-,辽宁,5,二手房,1990
沙河口区绿清街12号,大连,无开发商,沙河口,20190516,38.93851335419565,121.57334844377094,绿波B区,20,9225,街道办事处（居委会）代管物业,0.1,辽宁,5,二手房,1992
沙河口区黄河路535号,大连,大连首星房地产开发有限公司,沙河口,20190516,38.91773777159567,121.60217159922856,金色年华公馆,45,25982,大连首星物业管理有限公司,2.8,辽宁,5,二手房,2011
开发区松苑街23号,大连,大连泰乐房地产开发有限公司,开发区,20190516,22.52087435807652,113.40156105086167,碧海华庭,51,6848,大连海滨物业管理有限公司,0.5,辽宁,5,二手房,2005
无门店信息,大连,大连宏鼎房地产开发有限公司,旅顺口,20190516,34.52713835999158,118.76812980670795,国宝星月湾,61,11761,大连星海国宝物业管理有限公司,2.5,辽宁,5,二手房,2015
甘井子区虹港路16号楼1层公建,大连,亿达房地产开发有限公司,甘井子,20190516,38.9645939333502,121.553851837474,虹港路（机场商圈）,38,12264,亿达物业管理有限公司,0.2,辽宁,5,二手房,1996
无门店信息,大连,大连鹏玥房地产开发有限公司,开发区,20190516,34.52713835999158,118.76812980670795,中环城市广场,22,9092,大连鹏玥物业公司,1.5,辽宁,5,二手房,2015
开发区黄海西路54号,大连,开发区城建局,开发区,20190516,39.047714586087785,121.76688238228269,青松南里,91,7935,大连经济技术开发区中强物业管理有限公司,0.5,辽宁,5,二手房,2003
大连市金州新区友谊街道和平路59-10号1-2层公建,大连,无开发商,金州,20190516,39.112168401852266,121.72006917947859,和平小区,32,8266,街道办事处（居委会）代管物业,0.1,辽宁,5,二手房,1996
西岗区长春路334号,大连,大连新型房地产开发总公司,西岗,20190516,38.89807766522607,121.63221082858387,林茂小区,35,10237,大连新型物业管理有限公司,0.2,辽宁,5,二手房,1995
无门店信息,大连,大连航宇房屋开发有限公司,甘井子,20190516,34.52713835999158,118.76812980670795,西郊棠梨园,14,11598,渤海吉祥物业管理有限公司,0.5,辽宁,5,二手房,2007
无门店信息,大连,大连天启房地产开发有限公司,高新园区,20190516,34.52713835999158,118.76812980670795,百合IT家园,39,12648,大连亮泰安邦物业有限公司,0.6,辽宁,5,二手房,2008
开发区杏树里10栋-14,大连,大连名城房地产开发有限公司,开发区,20190516,39.08113818354046,121.78505742127606,名城和顺人家,78,9165,大连君悦天下物业管理中心,0.5,辽宁,5,二手房,2010
无门店信息,大连,大连亿达房地产股份有限公司,旅顺口,20190516,34.52713835999158,118.76812980670795,亿达玉龙湾,57,9347,亿达物业管理有限公司,1.5,辽宁,5,二手房,2013
甘井子区红旗花园23号楼19-24轴公建,大连,大连科宏房屋开发有限公司,甘井子,20190516,38.93108029984587,121.54902145022133,海港楼,19,8829,大连科海物业有限公司,0.2,辽宁,5,二手房,1996
沙河口区锦霞南园1号1层公建,大连,大连锦绣房地产开发有限公司,沙河口,20190516,38.947367114450536,121.55342584213675,锦虹北园,16,11925,大连锦绣物业管理有限公司,0.3,辽宁,5,二手房,1998
甘井子区红旗西路104-23,大连,大连鹏德房屋开发有限公司,甘井子,20190516,38.94013845868325,121.5282577714263,逸林派,25,14772,大连三和住邦物业管理有限公司,1.6,辽宁,5,二手房,2011
甘井子区促进路30号2-1-1,大连,福佳集团有限公司,甘井子,20190516,38.954133128707575,121.58355746311207,府佳名都,43,17948,大连富佳物业管理有限公司,0.5,辽宁,5,二手房,2002
大连市甘井子区张前路620-18号（第19幢1单元1跃2层14号）,大连,无开发商,甘井子,20190516,38.98764207496216,121.52409526893047,嘉安边防家园,15,12174,大连新型物业管理有限公司,1,辽宁,5,二手房,2009
中山区金城街26号一楼,大连,无开发商,中山,20190516,38.922282529515634,121.65214466263014,九中洛川街,22,35430,无物业管理服务,-,辽宁,5,二手房,1995
无门店信息,大连,大连馨悦房地产开发有限公司,金州,20190516,34.52713835999158,118.76812980670795,悦泰山里,83,10251,大连百安物业管理有限公司,0.5,辽宁,5,二手房,2009
开发区润海园中区30-1,大连,暂无信息,开发区,20190516,39.04047273176333,121.76392358042445,华润海中国七期,67,16698,华润物业（大连）有限公司开发区分公司,3.1,辽宁,5,二手房,2016
中山区爱华街13号,大连,无开发商,中山,20190516,38.92541607518685,121.6535728031028,39中安阳街,34,26051,无物业管理服务,-,辽宁,5,二手房,1990
沙河口区黑石礁街3号1层1-1号,大连,无开发商,沙河口,20190516,38.880058010307856,121.56313403908827,浪花街,43,11307,无物业管理服务,-,辽宁,5,二手房,1991
甘井子区泉水B2区19-1号,大连,大连运达房地产集团有限公司,甘井子,20190516,39.0101309886317,121.60812584213187,锦泉源B1区,66,13264,大连佳泰物业管理有限公司,0.5,辽宁,5,二手房,2001
开发区红星海B区212-1,大连,远洋地产有限公司,开发区,20190516,39.027851194371685,121.80327394132297,红星海五期岚谷,115,14112,大连远洋基业物业管理有限公司,2.2,辽宁,5,二手房,2012
甘井子区华北路花锦园28号23-3-1-2建筑物,大连,大连东特房地产开发有限公司,甘井子,20190516,38.951627958411166,121.5739439799003,东特爱俪舍,37,15937,大连东特祥禾物业管理有限公司,0.6,辽宁,5,二手房,2004
中山区清溪南街11号,大连,大连锦绣房地产开发有限公司,中山,20190516,38.88919604283904,121.66466481004835,秀月广场,24,12271,无物业管理服务,0.5,辽宁,5,二手房,1994
甘井子区惠泽南园3-4号,大连,大连全统房地产开发有限公司,甘井子,20190516,38.939326611323615,121.52337842113351,全统西山丽水,16,14729,大连新华物业管理有限公司,0.5,辽宁,5,二手房,2008
沙河口区知心园10号公建,大连,大连软件园开发有限公司,高新园区,20190516,38.893977135945136,121.55667141994431,亿达国际新城,42,22510,亿达物业管理有限公司,1,辽宁,5,二手房,2004
中山区民运巷 47号1层2号,大连,无开发商,中山,20190516,38.905955122300846,121.64798148011702,民运巷,18,10887,无物业管理服务,-,辽宁,5,二手房,1996
甘井子区汇仁街22号,大连,中铁建（大连）置业有限公司,甘井子,20190516,38.99712640764999,121.58834420439493,动力院景三期汇善园,46,15519,大连铁龙安居物业管理有限公司,0.9,辽宁,5,二手房,2007
开发区小孤山西里3栋-11号,大连,大连九龙汇房地产开发有限公司,开发区,20190516,39.02715282297674,121.80682183666346,九龙汇,51,8835,大连宏亮红物业管理有限公司,1.9,辽宁,5,二手房,2009
甘井子区圣林南园3-3号,大连,大连广泰房屋开发有限公司,甘井子,20190516,38.95191781681833,121.54394961192217,美树日记,73,22384,大连华安物业管理有限公司,1.6,辽宁,5,二手房,2009
金州新区先进街道五一路350-1号1-2层,大连,大连中连房地产开发有限公司,金州,20190516,39.078667146419825,121.77094423323935,聚鑫小区二期,37,7755,大连新生活物业管理有限公司,0.5,辽宁,5,二手房,2008
金州区同济路44号,大连,大连金宸集团,金州,20190516,39.10476859984152,121.71234684495865,连大文润金宸三期,61,11155,大连四通物业管理有限公司,1,辽宁,5,二手房,2010
沙河口区展望街29,大连,大连嘉源置业发展有限公司,沙河口,20190516,38.93473052900021,121.57390298303343,御园,40,18039,大连御博物业,2,辽宁,5,二手房,2015
甘井子区华龙南园12-4-3-1-3,大连,大连瑞祥房地产开发有限公司,甘井子,20190516,38.98528794231248,121.61028969481718,今都小区,45,12006,大连泰安物业管理有限公司,0.2,辽宁,5,二手房,1996
沙河口区黄河路883号,大连,大连正源房地产开发有限公司,沙河口,20190516,38.919826721475204,121.57749657966676,幸福e家四期,66,33140,大连正源物业服务有限公司,1.2,辽宁,5,二手房,2007
沙河口区五一路270-274号,大连,大连亿达房地产股份有限公司,高新园区,20190516,38.913544290955585,121.59450670056631,city one,20,14073,亿达物业管理有限公司,0.5,辽宁,5,二手房,2006
无门店信息,大连,大连运达房地产集团有限公司,甘井子,20190516,34.52713835999158,118.76812980670795,运达诺维溪谷一期,42,16531,大连运达物业有限公司,1.8,辽宁,5,二手房,2010
无门店信息,大连,无开发商,甘井子,20190516,34.52713835999158,118.76812980670795,七星广场,17,8945,街道办事处（居委会）代管物业,0.2,辽宁,5,二手房,1995
金州新区先进街道渤海街7-4号1-2层、7-3号1-2层,大连,无开发商,金州,20190516,39.09342713035472,121.74590886291374,金色阳光,16,8142,大连金广物业有限公司,0.5,辽宁,5,二手房,2005
沙河口区联合路133号,大连,大连新型房地产开发有限公司,沙河口,20190516,38.91608561262676,121.60480987310456,21中天兴花园一期,28,19742,大连万泰物业管理有限公司,0.5,辽宁,5,二手房,1998
西岗区鞍山路29号龙畔锦城东门,大连,无开发商,西岗,20190516,38.92763470697088,121.61498923399098,铁路西站,23,11921,无物业管理服务,-,辽宁,5,二手房,1981
甘井子区甘井子街3号公建,大连,无开发商,甘井子,20190516,38.982086281836246,121.63426694995971,北山小区,26,8620,无物业管理服务,0.2,辽宁,5,二手房,1988
沙河口区长江路738号,大连,大连大世界房地产开发有限公司,西岗,20190516,38.913544290955585,121.59450670056631,第九频道,40,26144,大世界商业联合机构,3.6,辽宁,5,二手房,2014
沙河口区前程街46号4—1—2号,大连,大连渤海红旗集团有限公司,甘井子,20190516,38.913544290955585,121.59450670056631,前程街,45,11821,渤海吉祥物业管理有限公司,0.4,辽宁,5,二手房,2000
中山区中南路店212号门头房,大连,无开发商,中山,20190516,38.91149759691359,121.67700561077149,中南路,61,12822,街道办事处（居委会）代管物业,-,辽宁,5,二手房,1989
无门店信息,大连,暂无信息,甘井子,20190516,34.52713835999158,118.76812980670795,亿达春田蝶园,61,17058,亿达物业管理有限公司,2.2,辽宁,5,二手房,2014
沙河口区锦石路8号,大连,大连运腾房地产开发有限公司,沙河口,20190516,38.94771288948481,121.56110903658733,锦云南园,69,9998,大连锦绣物业管理有限公司,0.3,辽宁,5,二手房,1996
甘井子区玉丽街2号楼1单元4号公建,大连,大连新型房地产开发有限公司,甘井子,20190516,38.98705071699301,121.55513043130172,泡崖康居园,44,10207,大连新兴物业管理有限公司,0.5,辽宁,5,二手房,2000
金州区同济路44号,大连,大连峰景房地产开发有限公司,金州,20190516,39.10476859984152,121.71234684495865,峰景西海岸,51,9073,大连峰景物业有限公司,0.8,辽宁,5,二手房,2009
开发区东北三街94号1层,大连,大连港连房地产开发有限公司,开发区,20190516,39.05723508011585,121.80570768630555,海航YOHO湾,36,10328,海航物业管理有限公司大连分公司,1.8,辽宁,5,二手房,2014
金州区凤翔路220号,大连,大连德泰控股有限公司,金州,20190516,39.08410553937731,121.77700083356399,德泰岭秀逸城B区,79,10830,大连德泰物业管理有限公司,1.9,辽宁,4,二手房,2013
开发区东北三街94号1层,大连,大连同济房地产开发有限公司,开发区,20190516,39.05723508011585,121.80570768630555,新东方公寓三期,91,6623,大连同济物业管理有限公司,1.5,辽宁,5,二手房,2007
甘井子区山东路127-2号,大连,大连市大钢集团,甘井子,20190516,38.99065559549029,121.59126483545545,苍山路,47,12709,街道办事处（居委会）代管物业,0.4,辽宁,4,二手房,1989
甘井子区红旗西路104-7,大连,大连盛华房地产开发有限公司,甘井子,20190516,38.940335495502666,121.52722586363274,水映西山,51,16312,大连长青物业管理中心,0.9,辽宁,5,二手房,2007
甘井子金地艺境博艺西园2-1号,大连,大连天意房地产开发有限公司,甘井子,20190516,39.04402110608829,121.665484498555,金地艺境,143,14897,大连金地物业管理有限公司,0.5,辽宁,5,二手房,2011
无门店信息,大连,大连安邦房地产开发有限公司,甘井子,20190516,34.52713835999158,118.76812980670795,安邦阳光润城,38,13061,无物业管理服务,-,辽宁,4,二手房,2011
沙河口区黄埔路427号,大连,大连名仕房地产开发有限公司,高新园区,20190516,38.913544290955585,121.59450670056631,名仕乐居,17,20411,大连万祥物业管理有限公司,1.3,辽宁,4,二手房,2008
沙河口区黑石礁街3号1层1-1号,大连,大连辰熙房地产开发有限公司,沙河口,20190516,38.880058010307856,121.56313403908827,辰熙星海国际,26,15738,大连世邦友好物业管理有限公司,2.2,辽宁,4,二手房,2006
西岗区香炉礁24号1-1,大连,大连新型房地产开发有限公司,西岗,20190516,38.92047268927287,121.61862512554262,金海花园东园,28,12886,大连新兴物业管理有限公司,0.5,辽宁,4,二手房,2001
中山区爱华街13号,大连,无开发商,中山,20190516,38.92541607518685,121.6535728031028,九中安乐街,41,36433,无物业管理服务,-,辽宁,4,二手房,1990
大连市开发区湾里东5-6号,大连,大连明和房地产开发有限公司,开发区,20190516,39.07275772231556,121.85888789351343,青国青城,55,11277,大连豪斯沃克物业有限公司,1.5,辽宁,4,二手房,2014
沙河口区红凌路137号,大连,大连大实企业集团房屋开发有限公司,甘井子,20190516,38.922699288974506,121.54713601744747,泊林阳光A区,16,13503,大连弘实物业管理有限公司,0.6,辽宁,4,二手房,2007
沙河口区富国街14号1-1-2,大连,无开发商,沙河口,20190516,38.901027106600836,121.59047734850638,星云街,18,11219,无物业管理服务,-,辽宁,4,二手房,1995
开发区景和园1-7,大连,无开发商,开发区,20190516,30.41892168817929,120.30896459202738,古耕景和园,34,9287,街道办事处（居委会）代管物业,0.5,辽宁,4,二手房,2008
大连市沙河口区知邻街50号,大连,无开发商,沙河口,20190516,38.913544290955585,121.59450670056631,玉门街,18,11930,无物业管理服务,-,辽宁,4,二手房,1993
甘井子区惠泽南园3-4号,大连,大连长鹭房屋开发有限公司,甘井子,20190516,38.939326611323615,121.52337842113351,晶品缘林,14,16730,大连三和住邦物业管理有限公司,1,辽宁,4,二手房,2008
天河路173-2号 华润考拉22号公建,大连,大连世隆房地产开发有限公司,甘井子,20190516,23.14720645345518,113.3277414923158,桑尼小镇,19,15185,大连大家物业管理有限公司,1.9,辽宁,4,二手房,2014
高新园区硅谷假日小区25号楼地下室,大连,暂无信息,高新园区,20190516,38.86467854992112,121.53720784613759,硅谷假日公寓,16,14701,大连斌弘物业管理有限公司,1.5,辽宁,4,二手房,2005
开发区黄海西路201号107公建,大连,中信开发商,开发区,20190516,39.04942604506828,121.80126318235419,金海里,64,7213,大连中信物业管理有限公司,0.1,辽宁,4,二手房,2000
高新园区红凌路732-4号,大连,大连亿达房地产股份有限公司,高新园区,20190516,38.90204708664442,121.53244406374695,亿达峦翠园,36,20434,亿达物业管理有限公司,1.3,辽宁,4,二手房,2009
中山区职工街96号1-3层公建,大连,大连泛华房屋开发有限公司,中山,20190516,38.92565613737007,121.66193575790903,泛华领城,29,13510,无物业管理服务,3.2,辽宁,4,二手房,2012
开发区大开高吉里33栋6号,大连,大连开建集团有限公司,开发区,20190516,39.07355836059941,121.8280439450145,高城花园,31,7664,嘉兴物业管理有限公司,0.2,辽宁,4,二手房,2002
金州区站前街道盛滨花园B区13号楼2号公建,大连,大连建兴房屋开发有限公司,金州,20190516,39.09609011892329,121.7335816409767,建兴花园,42,7313,街道办事处（居委会）代管物业,0.5,辽宁,4,二手房,1999
甘井子区促进路30号2-1-1,大连,大连天河房地产开发集团有限公司,甘井子,20190516,38.954133128707575,121.58355746311207,促进路,14,11931,无物业管理服务,0.1,辽宁,4,二手房,1982
中山区武昌街武昌公寓6号公建,大连,暂无信息,中山,20190516,38.912280913445784,121.64921130527547,学府林居,24,10454,暂无信息,1,辽宁,4,二手房,2000
中山区民建街10号1单元1号,大连,无开发商,中山,20190516,38.925444479476894,121.66915026954452,39中顺阳街,35,20230,无物业管理服务,-,辽宁,4,二手房,1995
甘井子区泉水D1区37-7号,大连,大连运腾房地产开发有限公司,甘井子,20190516,39.013992871679214,121.61921940045104,锦泉源D4区,26,14081,大连嘉和物业管理有限公司,0.5,辽宁,4,二手房,2007
大连市甘井子区丰收路3-5号,大连,大连邦德房屋开发有限公司,甘井子,20190516,38.965377255081755,121.58288415324094,芙蓉人家,63,16469,大连广丰物业管理有限公司,0.5,辽宁,4,二手房,2002
大连市高新园区软件园路1A-3号,大连,大连软景房地产开发有限公司,高新园区,20190516,38.89360013642285,121.54653763548625,亿达软景中心,16,22201,亿达物业管理有限公司,3.5,辽宁,4,二手房,2014
沙河口区锦石园24-7号第A2-13幢1单元1层1号,大连,大连鼎新美地置业有限公司,甘井子,20190516,38.913544290955585,121.59450670056631,鼎新鼎润四季,24,20225,大连中原物业代理有限公司,1.2,辽宁,4,二手房,2010
西岗区平等街21号1层2号,大连,无开发商,西岗,20190516,38.92251066253164,121.63236845125735,香榭里,47,10364,大连金地物业管理有限公司,3.6,辽宁,4,二手房,2010
甘井子区金家街17-7号,大连,大连嘉兴房地产开发有限公司,甘井子,20190516,38.97493697764367,121.60110987128529,青林美地,41,21071,大连嘉盛物业管理有限公司,0.5,辽宁,4,二手房,2003
沙河口区锦石园24-7号第A2-13幢1单元1层1号,大连,大连锦绣房地产开发有限公司,沙河口,20190516,38.913544290955585,121.59450670056631,锦城园C区,31,15265,大连锦绣物业管理有限公司,0.6,辽宁,4,二手房,2006
开发区杏树里10栋-14,大连,大连华宇房地产开发有限公司,开发区,20190516,39.08113818354046,121.78505742127606,华宇凤凰城,71,8368,大连华宇物业管理有限公司,1,辽宁,4,二手房,2007
沙河口区前程街46号4—1—2号,大连,大连渤海红旗集团有限公司,甘井子,20190516,38.913544290955585,121.59450670056631,里程巷,18,9152,大连台安物业管理中心,0.4,辽宁,4,二手房,1990
甘井子区金家街17-7号,大连,无开发商,甘井子,20190516,38.97493697764367,121.60110987128529,金二小学北,20,21224,无物业管理服务,-,辽宁,4,二手房,1970
甘井子区汇仁街22号,大连,大连永高房屋开发有限公司,甘井子,20190516,38.99712640764999,121.58834420439493,加州洋房,83,15544,大连怡和物业服务有限公司,0.9,辽宁,4,二手房,2008
沙河口区星海广场B3区14-9,大连,大连友谊合升房地产开发有限公司,沙河口,20190516,38.88708614275256,121.58732027085938,壹品星海三期,48,24029,大连友谊物业服务有限公司,1.2,辽宁,4,二手房,2007
中山区东港龙湖水晶郦湾7-102,大连,大连金广地产集团有限公司,中山,20190516,38.924700620463895,121.70344398518496,金广东海岸,81,23506,大连金广物业有限公司,2.2,辽宁,4,二手房,2009
大连市沙河口区知邻街50号,大连,大连软件园开发有限公司,沙河口,20190516,38.913544290955585,121.59450670056631,宅语原,54,20249,亿达物业管理有限公司,2,辽宁,4,二手房,2008
沙河口区华北路404号,大连,暂无信息,沙河口,20190516,38.8862815932937,121.59082948696123,柳华街,24,11003,无物业管理服务,0.1,辽宁,4,二手房,1985
中山区鲁迅路204号百盛新药特药商店一楼西侧部分,大连,无开发商,中山,20190516,38.9258993614899,121.6768880001226,鲁迅路（寺儿沟商圈）,11,11728,无物业管理服务,-,辽宁,4,二手房,1990
沙河口区富国街34-3,大连,无开发商,沙河口,20190516,38.90159716600704,121.58930603357904,星海街,34,12183,无物业管理服务,-,辽宁,4,二手房,1990
大连市金州区友谊街道南金华城25号1-2层1号,大连,大连友谊合升房地产开发有限公司,金州,20190516,39.128677228885614,121.71356109978767,恒达花园,66,7970,街道办事处（居委会）代管物业,0.5,辽宁,4,二手房,2004
沙河口区西南路358号1—2号,大连,大连泰安房地产开发有限公司,沙河口,20190516,38.90839654326566,121.56908246905662,泰安花园,23,14951,大连三宝物业发展有限公司,0.5,辽宁,4,二手房,1998
开发区黄海西路201号107公建,大连,开发区城建局,开发区,20190516,39.04942604506828,121.80126318235419,东阁里,55,6923,大连经济技术开发区海青物业有限公司,0.4,辽宁,4,二手房,1994
甘井子区新兴路36号3-1-3,大连,大连新型房地产开发有限公司,甘井子,20190516,38.95800216293212,121.53151895549547,泡崖二区,90,10385,大连新兴物业管理有限公司,0.5,辽宁,4,二手房,1997
甘井子区虹港路391号第五幢1单元1跃2层3号,大连,大连加尔伦房地产开发有限公司,甘井子,20190516,38.96606635942528,121.53201387432493,万科金域华府,30,22048,大连万科物业服务有限公司,3,辽宁,4,二手房,2016
沙河口区连山街10号2-1-2,大连,大连城市建设集团有限公司,沙河口,20190516,38.89637522563413,121.57143690983219,莱州街,28,10972,无物业管理服务,-,辽宁,4,二手房,1990
金州区南棉路310号,大连,无开发商,金州,20190516,39.09939229372624,121.72414976100345,胜利小区,95,7958,无物业管理服务,0.5,辽宁,4,二手房,1986
甘井子区亿家缘虹韵路205,大连,大连亿达美加房地产开发有限公司,甘井子,20190516,38.95647848453699,121.53130152244339,第五郡四号地,42,28007,亿达物业管理有限公司,2,辽宁,4,二手房,2010
沙河口区黑石礁街5号1层1号,大连,无开发商,沙河口,20190516,38.879813345473714,121.56313742300513,黑石礁广场,30,13498,无物业管理服务,-,辽宁,4,二手房,1992
甘井子区海口路77—5号,大连,暂无信息,甘井子,20190516,38.960286398428124,121.60305183172997,鹏辉新世纪四期,50,17530,大连鹏辉物业管理有限公司,0.6,辽宁,4,二手房,2003
开发区大开高吉里33栋6号,大连,无开发商,开发区,20190516,39.07355836059941,121.8280439450145,高泰里,13,6022,无物业管理服务,-,辽宁,4,二手房,1998
开发区湾里南12栋-16-17-18号,大连,大连金湾实业有限公司,开发区,20190516,39.070782084451,121.8506739675913,湾里西,62,7629,广宜物业有限公司,0.2,辽宁,4,二手房,2003
甘井子区红南东街7-7号,大连,大连大实企业集团房屋开发有限公司,甘井子,20190516,38.92880462247992,121.54144910207062,泊林和山,36,11576,大连弘实物业管理有限公司,0.6,辽宁,4,二手房,2007
中山区清溪南街11号,大连,无开发商,中山,20190516,38.88919604283904,121.66466481004835,桃仙小区,23,12832,街道办事处（居委会）代管物业,0.5,辽宁,4,二手房,1992
中山区三八广场5号,大连,无开发商,中山,20190516,38.92540000551715,121.6642911149562,良运四季汇,60,22258,大连良运物业管理有限公司,0.8,辽宁,4,二手房,2010
无门店信息,大连,大连金州金德房地产开发有限公司,金州,20190516,34.52713835999158,118.76812980670795,新辉小区,60,6962,大连市金州金德物业管理有限公司,0.5,辽宁,3,二手房,2005
甘井子区红旗中路143号1层4号,大连,大连红旗兴达房地产开发有限公司,甘井子,20190516,38.93169566676921,121.5426632438217,吉祥街,5,11169,大连金诚物业管理有限公司,0.2,辽宁,3,二手房,1996
高新园区海苑街36号1单元2号公建,大连,大连金华兴房地产开发有限公司,高新园区,20190516,20.06392317589085,110.32302599457326,华兴山庄,14,14954,大连华兴物业管理有限公司,0.5,辽宁,3,二手房,2004
西岗区大同街125号,大连,大连新型房地产开发有限公司,西岗,20190516,38.920458602340894,121.61445835429899,银寰花园,29,11078,街道办事处（居委会）代管物业,0.3,辽宁,3,二手房,1995
西岗区黄河路362号公建,大连,大连万佳房地产开发有限公司,西岗,20190516,38.91819905243802,121.61365779430986,优豪斯,13,25712,大连万佳物业管理有限公司,1.6,辽宁,3,二手房,2003
甘井子区红旗中路143号1层4号,大连,暂无信息,甘井子,20190516,38.93169566676921,121.5426632438217,湾家花园,9,11097,街道办事处（居委会）代管物业,0.2,辽宁,3,二手房,2000
金州区拥政街道733号-8号1-2层,大连,无开发商,金州,20190516,39.11690610445662,121.73030803603723,花园小区,20,8054,大连四通物业管理有限公司,0.1,辽宁,3,二手房,1993
大连市沙河口区西南路875号1层21号,大连,暂无信息,沙河口,20190516,38.94485969061231,121.58418648447764,凌云街,3,10944,无物业管理服务,-,辽宁,3,二手房,1999
"西岗区泰公街20号2层7号 西岗区久寿街22号1层14号""",大连,大连万达房地产开发有限公司,西岗,20190516,38.92600196862723,121.62141976476381,万达高层,16,11609,大连白云物业管理公司,0.3,辽宁,4,二手房,1995
中山区北斗街53号1层1号,大连,无开发商,中山,20190516,38.92727355733075,121.67002970974048,勤俭街（二七商圈）,4,11613,无物业管理服务,-,辽宁,3,二手房,1985
西岗区九三街64号,大连,润德集团有限公司,西岗,20190516,38.92047268927287,121.61862512554262,润德广场,59,15442,大连润德物业管理有限公司,3.8,辽宁,4,二手房,2011
开发区景和园1-7,大连,开发区城建局,开发区,20190516,30.41892168817929,120.30896459202738,小孤山东里,85,6282,大连广谊物业管理有限公司,0.4,辽宁,4,二手房,2000
甘井子区辛寨子街道中冶蓝城辛虹园39-7号公建,大连,大连中冶京诚置业有限公司,甘井子,20190516,38.98155611421408,121.49259383356096,中冶蓝城C区,39,16741,大连添翼物业服务有限公司,2,辽宁,4,二手房,2011
西岗区康平街2号（5号楼3-1-3号）,大连,大连北洋房屋开发公司,西岗,20190516,38.91044414697888,121.61980769264477,胜利花园,23,14934,大连宏成物业管理有限公司,0.5,辽宁,4,二手房,1997
大连经济技术开发区时代城4-3号1-2号,大连,远洋地产有限公司,开发区,20190516,39.0992481321252,121.83007860699459,远洋时代城四期,55,8738,大连远洋基业物业管理有限公司,1.5,辽宁,4,二手房,2012
甘井子区美域盛景A2区10-6,大连,大连泉水园房屋开发有限公司,甘井子,20190516,39.006221362805846,121.61022278003976,骏腾名苑,75,13993,大连衡德物业管理有限公司,0.5,辽宁,4,二手房,2006
西岗区黄河路362号公建,大连,大连万达商业地产有限公司,西岗,20190516,38.91819905243802,121.61365779430986,万达华府二期,45,23233,大连万景物业管理有限公司,1.6,辽宁,4,二手房,2006
金州区同济路44号,大连,大连金州金山房地产开发有限公司,金州,20190516,39.10476859984152,121.71234684495865,金山小区,100,7189,大连金山物业管理有限公司,-,辽宁,4,二手房,1999
甘井子区虹港路16号楼1层公建,大连,大连鑫奇房地产开发有限公司,甘井子,20190516,38.9645939333502,121.553851837474,鑫境界,86,11898,大连鑫境界物业管理有限公司,1.3,辽宁,4,二手房,2009
甘井子区玉丽街39号楼3号公建,大连,大连新型房地产开发有限公司,甘井子,20190516,38.98706755029984,121.55605471197089,玉浓街,43,10211,大连新兴物业管理有限公司,0.2,辽宁,4,二手房,2002
无门店信息,大连,大连新兴海韵房地产开发有限公司,开发区,20190516,34.52713835999158,118.76812980670795,山海家园,18,14878,大连经济技术开发区通讯物业有限公司,0.5,辽宁,3,二手房,2004
开发区正恒园1-16,大连,暂无信息,开发区,20190516,39.04823944344617,121.76165468797754,正泰园B区,34,12055,无物业管理服务,-,辽宁,3,二手房,2000
西岗区长春路334号,大连,无开发商,西岗,20190516,38.89807766522607,121.63221082858387,石峰街,16,11266,大连大众物业管理有限公司,0.3,辽宁,3,二手房,1995
中山区清溪南街11号,大连,大连澳南房屋开发有限公司,中山,20190516,38.88919604283904,121.66466481004835,明秀山庄B区,29,34232,绿城物业服务集团有限公司大连分公司,1.9,辽宁,3,二手房,2008
甘井子区甘井子路32号楼1单元1楼9号,大连,大连市建设控股有限公司,甘井子,20190516,38.982488275116516,121.63345389253514,胜景家园,13,12420,街道办事处（居委会）代管物业,0.9,辽宁,3,二手房,2009
甘井子金地艺境博艺西园2-1号,大连,暂无信息,甘井子,20190516,39.04402110608829,121.665484498555,欣家园一期,32,9195,街道办事处（居委会）代管物业,1,辽宁,3,二手房,2004
金州区同济路44号,大连,大连永乐房地产开发有限公司,金州,20190516,39.10476859984152,121.71234684495865,永乐金庭,40,9547,大连天河物业管理有限公司,0.8,辽宁,3,二手房,2006
中山区益民街16号1层1号,大连,无开发商,中山,20190516,38.93092761298906,121.66470740073377,兴盛里（三八广场）,11,13283,无物业管理服务,-,辽宁,3,二手房,1993
沙河口区兰田街33号,大连,大连万合房地产开发有限公司,沙河口,20190516,38.926138912221084,121.56486022834609,万合新家园,8,17255,大连佳宜物业管理有限公司,0.6,辽宁,3,二手房,2004
中山区爱华街13号,大连,大连一方地产有限公司,中山,20190516,38.92541607518685,121.6535728031028,大连国际酒店,22,22529,大连一方物业管理有限公司,3.0,辽宁,3,二手房,2006
甘井子区哲林北园17-6号,大连,大连大力房屋开发有限公司,甘井子,20190516,38.9600267109581,121.53876726228256,圆梦园,7,19949,大连嘉禾物业管理服务有限公司,1.6,辽宁,3,二手房,2015
甘井子区玉丽街39号楼3号公建,大连,大连润置房地产有限公司,甘井子,20190516,38.98706755029984,121.55605471197089,华润二十四城,15,18690,华润物业（大连）有限公司,3.1,辽宁,3,二手房,2018
甘井子区红旗花园23号楼19-24轴公建,大连,大连银泰房地产有限公司,甘井子,20190516,38.93108029984587,121.54902145022133,祥和园,19,14400,无物业管理服务,0.5,辽宁,3,二手房,2002
高新园区黄浦路901S号1单元1层3号,大连,大连金真源集团房地产开发有限公司,高新园区,20190516,38.85845801548294,121.51687109601923,山海一家三期,14,18274,大连龙海物业管理有限公司,1.2,辽宁,3,二手房,2010
沙河口区恒利园42号-8,大连,无开发商,沙河口,20190516,38.93357562498634,121.57914091532649,新建小区,7,11006,无物业管理服务,-,辽宁,3,二手房,1980
大连市甘井子区泉水N2区3-13号,大连,暂无信息,甘井子,20190516,39.021116079001885,121.64659997607325,泉水N1区,101,9820,无物业管理服务,0.7,辽宁,3,二手房,2008
沙河口区成仁街91号,大连,无开发商,沙河口,20190516,38.91539947107844,121.59585638842556,西安路公寓,17,13325,大连协和物业管理有限公司,0.5,辽宁,3,二手房,2000
大连市沙河口区西南路875号1层21号,大连,大连泰安房地产开发有限公司,沙河口,20190516,38.94485969061231,121.58418648447764,春柳河小区,16,11232,大连三宝物业有限公司,0.5,辽宁,3,二手房,2001
甘井子区华龙南园12-4-3-1-3,大连,大连融汇置业有限公司,甘井子,20190516,38.98528794231248,121.61028969481718,格林翠庭,10,14809,北京房修一物业管理有限公司,1.3,辽宁,3,二手房,2009
沙河口区锦云北园9号2单元1层2号,大连,大连锦绣房地产开发有限公司,沙河口,20190516,38.94836395772248,121.55744845421044,锦云北园,24,10291,大连锦绣物业管理有限公司,0.3,辽宁,3,二手房,1996
甘井子区山东路137号,大连,无开发商,甘井子,20190516,38.99129404608926,121.59172125999353,天河路,13,12103,街道办事处（居委会）代管物业,0.1,辽宁,3,二手房,1998
甘井子区柳树南街45-11号,大连,大连顺达房屋开发有限公司,甘井子,20190516,38.92567666296449,121.4841330254372,顺达温泉花园二期,23,11719,大连顺达物业服务有限公司,0.6,辽宁,3,二手房,2004
大连市甘井子区软件园路122号,大连,大连理工科技城建设开发有限公司,高新园区,20190516,38.89286578891647,121.53266600180116,理工园,15,13825,街道办事处（居委会）代管物业,1,辽宁,3,二手房,2000
甘井子区辛寨子街道中冶蓝城辛虹园39-7号公建,大连,大连中冶京诚置业有限公司,甘井子,20190516,38.98155611421408,121.49259383356096,中冶蓝城E区,37,14916,大连添翼物业服务有限公司,2,辽宁,3,二手房,2010
中山区东港龙湖水晶郦湾7-102,大连,大连创富房地产开发有限公司,中山,20190516,38.924700620463895,121.70344398518496,中国铁建国滨苑,29,24742,北京国贸物业,4.3,辽宁,3,二手房,2015
甘井子区金北路17号,大连,暂无信息,甘井子,20190516,38.97553393692831,121.59969720502335,76中学桥南,80,16136,大连新华物业管理有限公司,0.2,辽宁,3,二手房,1970
甘井子区泉水H1区54号3单元1层1号,大连,暂无信息,甘井子,20190516,39.0074937564393,121.62382856020916,龙畔金泉五期K1区,32,12866,大连新兴物业管理有限公司,0.5,辽宁,3,二手房,2008
无门店信息,大连,大连中连房地产开发有限公司,金州,20190516,34.52713835999158,118.76812980670795,憬园河畔,67,7814,大连新生活物业管理有限公司,0.5,辽宁,3,二手房,2000
开发区翠竹小区33栋4-1-1号,大连,暂无信息,开发区,20190516,30.635492106460237,119.69169575745704,翠竹中区,26,9770,嘉兴物业管理有限公司,0.3,辽宁,3,二手房,1996
沙河口区成仁街91号,大连,大连万达房地产开发有限公司,沙河口,20190516,38.91539947107844,121.59585638842556,龙祥花园,21,24064,大连万达物业管理有限公司,0.8,辽宁,3,二手房,2001
沙河口区沙能街101号1单元1层1号,大连,大连政府城区改造办公室,沙河口,20190516,38.9366316275348,121.59031205759763,新居佳园,7,13019,大连大力物业管理有限公司,1.5,辽宁,3,二手房,2012
高新园区红凌路732-4号,大连,大华集团大连置业有限公司,高新园区,20190516,38.90204708664442,121.53244406374695,大华锦绣华城一期,50,25244,大连大华物业管理有限公司,2.5,辽宁,3,二手房,2010
中山区益民街16号1层1号,大连,无开发商,中山,20190516,38.93092761298906,121.66470740073377,永胜街（三八广场）,12,14486,无物业管理服务,-,辽宁,3,二手房,1993
沙河口区南沙街36号台二2号1-1-37,大连,大连鹏生房地产开发有限公司,沙河口,20190516,38.90741410359388,121.57685699961822,鹏顺园,48,25135,大连新型物业管理有限公司,0.5,辽宁,3,二手房,2001
无门店信息,大连,大连软件园恒荣开发有限公司,高新园区,20190516,34.52713835999158,118.76812980670795,亿达普罗旺斯三期,29,20734,亿达物业管理有限公司,2.6,辽宁,3,二手房,2017
西岗区绕山路31号公建一层东侧,大连,无开发商,西岗,20190516,38.90257514466717,121.61412736644739,和云巷,20,10322,无物业管理服务,-,辽宁,3,二手房,1990
沙河口区黄河路883号,大连,无开发商,沙河口,20190516,38.919826721475204,121.57749657966676,沙区医院,29,12933,无物业管理服务,-,辽宁,3,二手房,1990
西岗区康平街2号（5号楼3-1-3号）,大连,无开发商,西岗,20190516,38.91044414697888,121.61980769264477,长太巷,7,11267,无物业管理服务,-,辽宁,3,二手房,1990
高新园区聚贤路36号5幢1单元1层1号,大连,大连海创房地产开发有限公司,高新园区,20190516,32.31472011562832,119.46141263909165,海创半山壹号,62,17138,大连海创物业管理有限公司,1.8,辽宁,3,二手房,2011
大连市高新园区七贤中路63号,大连,大连招宇房地产有限公司,高新园区,20190516,38.86053006357667,121.53273606963094,招商兰溪谷,30,22338,招商局物业管理有限公司大连分公司,2.6,辽宁,3,二手房,2015
无门店信息,大连,大连众仕房地产开发有限公司,开发区,20190516,34.52713835999158,118.76812980670795,山河御景,13,8157,大连山河物业管理有限公司,1.5,辽宁,3,二手房,2015
甘井子区玉丽街2号楼1单元4号公建,大连,暂无信息,甘井子,20190516,38.98705071699301,121.55513043130172,玉山路,26,10384,大连新兴物业管理有限公司,0.5,辽宁,3,二手房,2002
甘井子区柳树南街45-10号,大连,中体产业集团大连乐百年置业有限公司,甘井子,20190516,38.92567666296449,121.4841330254372,水木清华,30,13279,大连辰谊物业管理有限公司,1.2,辽宁,3,二手房,2009
沙河口区五一路270-274号,大连,大连誉园房地产开发有限公司,高新园区,20190516,38.913544290955585,121.59450670056631,斯坦福院落,19,21187,第一太平戴维斯物业顾问（北京）有限公司大连分公司,1.2,辽宁,3,二手房,2008
无门店信息,大连,暂无信息,旅顺口,20190516,34.52713835999158,118.76812980670795,荷塘悦色,29,8930,街道办事处（居委会）代管物业,-,辽宁,3,二手房,-
大连经济技术开发区时代城4-3号1-2号,大连,暂无信息,开发区,20190516,39.0992481321252,121.83007860699459,摩宿公寓,53,7621,大连远洋基业物业管理有限公司,1.5,辽宁,3,二手房,2012
中山区中青街87号一单元107,大连,大连亿达房地产股份有限公司,中山,20190516,38.90213494248529,121.65806522267005,青云林海,45,20971,亿达物业管理有限公司,1,辽宁,3,二手房,2001
开发区高新里6栋-8,大连,无开发商,开发区,20190516,39.0710895068195,121.82860134358343,怡海花园一期,24,7395,街道办事处（居委会）代管物业,0.2,辽宁,3,二手房,2001
大连市甘井子区丰收路3-5号,大连,大连亿海房地产开发有限公司,甘井子,20190516,38.965377255081755,121.58288415324094,亿海盛都,19,20543,街道办事处（居委会）代管物业,0.5,辽宁,3,二手房,2004
大连市甘井子区银田北园14号,大连,暂无信息,甘井子,20190516,38.9742441034389,121.47189841879823,亿达春田银杏园,64,18755,亿达物业管理有限公司,2.2,辽宁,3,二手房,2011
大连市甘井子区丰收路3-5号,大连,大连智和房地产开发有限公司,甘井子,20190516,38.965377255081755,121.58288415324094,华锦铭苑,44,18723,大连东昌物业管理有限公司,1.3,辽宁,3,二手房,2009
甘井子区泉水D1区10-2#1-1-7,大连,大连春达房屋开发有限公司,甘井子,20190516,39.01504676175047,121.61751269364314,景富铭苑,14,12687,庄河金城物业管理有限公司,0.5,辽宁,3,二手房,2004
中山区高尚路28-1号,大连,无开发商,中山,20190516,38.892673425111305,121.67148833870213,宪卫里,16,10097,无物业管理服务,0.5,辽宁,3,二手房,1994
西岗区三元街73号3单元1层2,大连,暂无信息,西岗,20190516,38.91459734722941,121.63112153703432,34中三元街,46,27679,无物业管理服务,-,辽宁,3,二手房,1990
甘井子区小平岛路66-4号,大连,大连软件园瑞安发展有限公司,高新园区,20190516,38.84623138470555,121.51516818634872,悦丽海湾,63,19810,上海丰城物业管理有限公司,2.8,辽宁,3,二手房,2014
开发区松苑街23号,大连,大连天安房地产开发有限公司,开发区,20190516,22.52087435807652,113.40156105086167,天安海景花园,16,13763,大连港力物业管理有限公司,1.2,辽宁,3,二手房,2006
甘井子区知音园20号3单元1层1号,大连,大连诚信万奕房地产开发有限公司,高新园区,20190516,38.95800216293212,121.53151895549547,万奕学院派,21,27186,大连空港物业管理有限公司,1.2,辽宁,3,二手房,2010
高新园区火炬路18号,大连,大连奥泰房地产开发有限公司,高新园区,20190516,38.937738080520404,117.39340752036043,因特摩尔,56,17932,大连奥泰物业服务有限公司,2.6,辽宁,3,二手房,2011
甘井子辛吉街150号-7号,大连,大连新星房地产开发有限公司,甘井子,20190516,38.96368508446978,121.52671221254214,新星绿城三期,65,12889,大连生生物业管理有限公司,0.5,辽宁,3,二手房,2006
甘井子区玉丽街39号楼3号公建,大连,大连乾元房地产开发有限公司,甘井子,20190516,38.98706755029984,121.55605471197089,和合美家,12,13371,大连广兴物业管理有限公司,0.8,辽宁,3,二手房,2010
西岗区鞍山路65-5号,大连,大连万达房地产开发有限公司,沙河口,20190516,38.926971569913064,121.60260230348328,79中广电中心,62,28514,无物业管理服务,-,辽宁,3,二手房,1988
沙河口区黄河路535号,大连,大连城市建设集团有限公司,沙河口,20190516,38.91773777159567,121.60217159922856,79中至诚小区,40,27700,大连天河物业管理有限公司,0.1,辽宁,3,二手房,1958
甘井子区泉水H3区15号3单元1层2号,大连,大连新型房地产开发有限公司,甘井子,20190516,39.00158439075201,121.62616882572375,龙畔金泉三期,54,13276,大连新型物业管理有限公司,0.5,辽宁,3,二手房,2004
中山区益民街16号1层1号,大连,中海地产,中山,20190516,38.93092761298906,121.66470740073377,中海海港城,76,19479,中海物业,4.2,辽宁,3,二手房,2015
甘井子区促进路30号2-1-1,大连,大连谷和房屋开发有限公司,甘井子,20190516,38.954133128707575,121.58355746311207,谷和温馨苑,32,17627,大连谷和物业管理有限公司,0.6,辽宁,3,二手房,2002
高新园区黄浦路901S号1单元1层3号,大连,大连金真源集团房地产开发有限公司,高新园区,20190516,38.85845801548294,121.51687109601923,山海一家二期,24,13716,大连龙海物业管理有限公司,0.8,辽宁,3,二手房,2005
无门店信息,大连,大连新跃房地产开发有限公司,金州,20190516,34.52713835999158,118.76812980670795,金海国际花园,236,7957,盘锦瀚新物业管理有限公司,1,辽宁,3,二手房,2010
沙河口区长江路738号,大连,大连大和中盛房地产有限公司,西岗,20190516,38.913544290955585,121.59450670056631,颐和香榭,42,29232,大连颐和物业管理有限公司,2.5,辽宁,3,二手房,2008
甘井子辛吉街150号-7号,大连,大连新星房地产开发有限公司,甘井子,20190516,38.96368508446978,121.52671221254214,新星绿城一期,29,11958,大连生生物业管理有限公司,0.5,辽宁,3,二手房,2003
西岗区平等街21号1层2号,大连,辽宁宁安房地产开发有限公司,西岗,20190516,38.92251066253164,121.63236845125735,赛维利大厦,27,19843,大连良玖物业管理有限责任公司,1.5,辽宁,3,二手房,2004
大连市甘井子区钻石湾和信园13-5,大连,远洋地产有限公司,甘井子,20190516,38.958699272665584,121.61903564217761,远洋钻石湾一期,90,23251,大连远洋基业物业管理有限公司,2.7,辽宁,3,二手房,2014
高新园区海苑街36号1单元2号公建,大连,大连鸿越房地产开发有限公司,高新园区,20190516,20.06392317589085,110.32302599457326,康桥小镇,24,20121,大连长青物业管理中心,1.3,辽宁,3,二手房,2010
经济技术开发区城润万家4-5号公建,大连,无开发商,开发区,20190516,39.05716325096989,121.75946281983826,西山小区,7,7992,街道办事处（居委会）代管物业,0.5,辽宁,3,二手房,1996
开发区东北三街94号1层,大连,大连同济房地产开发有限公司,开发区,20190516,39.05723508011585,121.80570768630555,新东方公寓二期,51,5638,大连同济物业管理有限公司,1.5,辽宁,3,二手房,2007
沙河口区西南路851号3单元1层3号,大连,暂无信息,沙河口,20190516,38.94344210837944,121.58246796944378,凌山三街,3,11267,无物业管理服务,-,辽宁,3,二手房,-
金州新区先进街道渤海街7-4号1-2层、7-3号1-2层,大连,大连海洋房地产开发有限公司,金州,20190516,39.09342713035472,121.74590886291374,金海嘉园,21,8191,大连辽渔物业管理有限公司,0.8,辽宁,3,二手房,2007
开发区黄海西路201号107公建,大连,无开发商,开发区,20190516,39.04942604506828,121.80126318235419,岗松里小区,107,7143,大连经济技术开发区海青物业有限公司,0.5,辽宁,3,二手房,1999
金州新区八一路金都嘉园1号楼1号公建,大连,大连锦阳房地产开发有限公司,金州,20190516,39.05525210261778,121.74865634199398,古城天下,8,7201,大连锦阳房地产开发有限公司,1,辽宁,3,二手房,2004
中山区杏林街66—5号,大连,无开发商,中山,20190516,38.92572771377599,121.66490555592502,39中民生里,9,28226,街道办事处（居委会）代管物业,0.5,辽宁,3,二手房,1990
中山区杏林街66—5号,大连,嘉和房地产集团有限公司,中山,20190516,38.92572771377599,121.66490555592502,嘉和花样年华二期,59,21964,大连嘉和物业管理有限公司,2,辽宁,3,二手房,2005
沙河口区杨树街4-4号公建,大连,大连金弘基房地产开发有限公司,高新园区,20190516,38.88444587249751,121.55130620045541,弘基二期,31,22565,大连金弘基物业管理有限公司,0.6,辽宁,3,二手房,2003
中山区杏林街66—5号,大连,大连开建集团有限公司,中山,20190516,38.92572771377599,121.66490555592502,花香维也纳,49,23922,大连开利物业管理有限公司,0.5,辽宁,3,二手房,2003
金州区拥政街道733号-8号1-2层,大连,暂无信息,金州,20190516,39.11690610445662,121.73030803603723,中长小区,39,7261,街道办事处（居委会）代管物业,-,辽宁,3,二手房,1990
甘井子区虹港路16号楼1层公建,大连,大连建园房地产开发有限公司,甘井子,20190516,38.9645939333502,121.553851837474,城市印象,55,15453,大连天兴物业管理有限公司,1.8,辽宁,3,二手房,2011
中山区鲁迅路184号1层B—A,大连,大连环海房地产开发有限公司,中山,20190516,38.92590875965419,121.67594393403164,环海公寓,15,10030,大连富民物业管理有限公司,0.5,辽宁,3,二手房,2002
中山区中青街43号,大连,大连亿达房地产股份有限公司,中山,20190516,38.90150598268117,121.65711014604845,青云映山,17,26588,亿达物业管理有限公司,1.3,辽宁,3,二手房,2005
沙河口区黄河路535号,大连,大连城市建设集团有限公司,沙河口,20190516,38.91773777159567,121.60217159922856,79中金光小区,43,25736,无物业管理服务,-,辽宁,3,二手房,1993
沙河口区锦霞南园1号1层公建,大连,大连锦绣房地产开发有限公司,沙河口,20190516,38.947367114450536,121.55342584213675,锦虹南园,19,10765,大连锦绣物业管理有限公司,0.3,辽宁,3,二手房,1998
开发区红梅小区19栋-2-1-1号,大连,大开中和祥房地产开发有限公司,开发区,20190516,29.906498897603264,121.5913630631805,金丰大厦,54,9889,新加坡物业管理有限公司,1.9,辽宁,3,二手房,2012
大连市甘井子区宜居园10-1号房屋,大连,大连万科置业有限公司,甘井子,20190516,38.99913094587405,121.52084969112292,万科现在城,21,14906,大连万科物业服务有限公司,2.2,辽宁,3,二手房,2015
甘井子区红南东街7-7号,大连,大连良运房地产开发有限公司,甘井子,20190516,38.92880462247992,121.54144910207062,山居笔记,20,16332,大连良运物业管理有限公司,1.5,辽宁,3,二手房,2009
沙河口区昌黎街77号楼第1层公建,大连,大连金新房地产开发有限公司,沙河口,20190516,38.91974518366595,121.5902918379551,福佳新天地,72,14390,大连福佳物业管理有限公司,1.8,辽宁,3,二手房,2003
沙河口区绿清街12号,大连,大连绿波房屋开发集团有限公司,沙河口,20190516,38.93851335419565,121.57334844377094,绿香花园,16,12759,大连大伟物业管理有限公司,0.4,辽宁,3,二手房,2001
无门店信息,大连,暂无信息,开发区,20190516,34.52713835999158,118.76812980670795,十里岗小区,58,5842,大连经济技术开发区盛辉物业服务有限公司,0.5,辽宁,3,二手房,1996
金州区先进街道渤海街1-4号1-2层,大连,无开发商,金州,20190516,39.09512910553563,121.74578812616167,金星小区,26,7679,街道办事处（居委会）代管物业,0.1,辽宁,3,二手房,1993
甘井子区西南路979-7号公建,大连,无开发商,甘井子,20190516,38.96275592929325,121.5958698791777,八十中,0,14351,街道办事处（居委会）代管物业,0.9,辽宁,2,二手房,1999
金州区南棉路310号,大连,暂无信息,金州,20190516,39.09939229372624,121.72414976100345,光明现代城,7,7168,无物业管理服务,1,辽宁,2,二手房,2004
沙河口区西南路851号3单元1层3号,大连,暂无信息,沙河口,20190516,38.94344210837944,121.58246796944378,学工街,3,9175,大连新兴物业管理有限公司,0.3,辽宁,2,二手房,1993
中山区中青街87号一单元107,大连,无开发商,中山,20190516,38.90213494248529,121.65806522267005,文明巷,3,11539,无物业管理服务,-,辽宁,2,二手房,1990
沙河口区连山街10号2-1-2,大连,无开发商,沙河口,20190516,38.89637522563413,121.57143690983219,桃山电业楼,3,12951,无物业管理服务,-,辽宁,2,二手房,1998
甘井子区红旗中路143号1层4号,大连,亿海房地产开发有限公司,甘井子,20190516,38.93169566676921,121.5426632438217,红旗西路,3,11297,大连万泰物业管理有限公司,0.2,辽宁,2,二手房,1997
中山区民建街10号1单元1号,大连,无开发商,中山,20190516,38.925444479476894,121.66915026954452,39中金域朝阳,4,17811,无物业管理服务,-,辽宁,2,二手房,2000
中山区民建街10号1单元1号,大连,暂无信息,中山,20190516,38.925444479476894,121.66915026954452,39中港湾街,2,19498,无物业管理服务,-,辽宁,2,二手房,1995
中山区中南路店212号门头房,大连,大连金广地产集团有限公司,中山,20190516,38.91149759691359,121.67700561077149,迎宾花园,0,13066,大连德一物业管理有限公司,1.2,辽宁,2,二手房,2003
甘井子区辛寨子街道中冶蓝城辛虹园39-7号公建,大连,大连中冶京诚置业有限公司,甘井子,20190516,38.98155611421408,121.49259383356096,中冶蓝城D区,38,15536,大连添翼物业服务有限公司,2,辽宁,3,二手房,2011
甘井子区金北路17号,大连,暂无信息,甘井子,20190516,38.97553393692831,121.59969720502335,金二小学南,49,20101,无物业管理服务,-,辽宁,3,二手房,1976
西岗区黄河路82号,大连,大连民兴房地产开发有限公司,西岗,20190516,38.92243503020161,121.6287927913896,前城国际二期,33,23318,大连前城花园物业管理有限公司,1.5,辽宁,3,二手房,2000
大连市甘井子区七贤路8-3号,大连,大连树源世嘉房地产开发有限公司,高新园区,20190516,38.86602612116956,121.53842265737707,国滨馆,16,24142,大连树源物业管理有限公司,3.5,辽宁,3,二手房,2015
开发区小孤山西里3栋-11号,大连,大连广隆房地产开发有限公司,开发区,20190516,39.02715282297674,121.80682183666346,文华园,43,10321,大连广隆物业管理有限公司,1.1,辽宁,3,二手房,2007
金州区鹏程家园53#-8,大连,大连软微房地产开发有限公司,开发区,20190516,39.03523987258615,121.80826248065051,深蓝半英里,19,9929,大连豪斯威物业管理有限公司,1.2,辽宁,3,二手房,2007
甘井子区玉湖街25号2单元1层3号,大连,大连新型房地产开发有限公司,甘井子,20190516,38.97626265183615,121.54617349027997,书香府第一期,12,11964,大连新兴物业管理有限公司,0.5,辽宁,3,二手房,2002
沙河口区西南路161号,大连,无开发商,沙河口,20190516,38.89269676588945,121.56639953951542,西沟小区,31,12196,无物业管理服务,-,辽宁,3,二手房,1990
甘井子区玉云路27-3-1-3,大连,暂无信息,甘井子,20190516,38.97896234099927,121.55865563488358,泡崖新六区,40,10957,大连新型物业管理有限公司,0.3,辽宁,3,二手房,2003
甘井子区祥龙街2号楼1单元1楼1号,大连,大连市大钢集团,甘井子,20190516,38.988045874482445,121.60439401971377,华南沃尔玛六一路,22,10905,街道办事处（居委会）代管物业,0.5,辽宁,3,二手房,1990
甘井子区玉云路27-3-1-3,大连,大连新型房地产开发有限公司,甘井子,20190516,38.97896234099927,121.55865563488358,泡崖三区,70,10837,大连新兴物业管理有限公司,0.5,辽宁,3,二手房,1995
沙河口区五四路207-1-9号,大连,无开发商,沙河口,20190516,38.913544290955585,121.59450670056631,集贤街,8,13655,无物业管理服务,-,辽宁,2,二手房,1990
中山区中青街87号一单元107,大连,无开发商,中山,20190516,38.90213494248529,121.65806522267005,中青街,6,17356,无物业管理服务,-,辽宁,2,二手房,1996
西岗区胜利路33号,大连,暂无信息,西岗,20190516,38.91309771954841,121.62500886627636,34中胜利路,23,26752,无物业管理服务,0.5,辽宁,2,二手房,1985
中山区益民街16号1层1号,大连,大连三鑫房地产开发有限公司,中山,20190516,38.93092761298906,121.66470740073377,金和苑,14,22212,大连报业物业管理有限公司三鑫分公司,3.5,辽宁,2,二手房,2004
甘井子区华东路22号公建,大连,大连凯祥房地产开发有限公司,甘井子,20190516,38.97736184953593,121.5935814234334,环馨山庄,18,12661,大连凯祥物业管理有限公司,0.5,辽宁,2,二手房,2000
无门店信息,大连,大连长鹭房屋开发有限公司,甘井子,20190516,34.52713835999158,118.76812980670795,晶品森岚,14,15568,大连旺宇物业有限公司,1.3,辽宁,2,二手房,2009
高新园敬贤街23-11号,大连,中海东丰地产（大连）有限公司,高新园区,20190516,38.869456648212356,121.53023725049893,中海紫御观邸三期,32,20611,大连中海物业管理有限公司,2.6,辽宁,2,二手房,2014
中山区岭前街53-5,大连,大连铭泰房地产开发有限公司,中山,20190516,38.89487069426055,121.65795959631497,锦府桃源,20,23246,大连豪之英物业管理有限公司,1.2,辽宁,2,二手房,2009
沙河口区黄河路535号,大连,大连金广地产集团有限公司,沙河口,20190516,38.91773777159567,121.60217159922856,79中美加华公寓,30,21012,大连亮泰安邦物业有限公司,2,辽宁,2,二手房,2008
中山区北斗街53号1层1号,大连,大连大森房地产开发有限公司,中山,20190516,38.92727355733075,121.67002970974048,东港林苑,23,17467,大连美心物业管理有限公司,2.8,辽宁,2,二手房,2013
甘井子区柳树南街45-11号,大连,大连顺达房屋开发有限公司,甘井子,20190516,38.92567666296449,121.4841330254372,顺达温泉花园一期,10,11402,大连顺达物业服务有限公司,0.6,辽宁,2,二手房,2003
金州区凤翔路220号,大连,大连鸿玮置业有限公司,金州,20190516,39.08410553937731,121.77700083356399,鸿玮澜山一期,30,15550,大连鸿玮物业服务有限公司,1.8,辽宁,2,二手房,2009
甘井子区金家街17-7号,大连,暂无信息,甘井子,20190516,38.97493697764367,121.60110987128529,金源花园,9,18959,无物业管理服务,-,辽宁,2,二手房,2000
西岗区新田巷27号1-2,大连,大连海苑房屋开发有限公司,西岗,20190516,38.893215932589385,121.64103065169111,半岛故乡,7,16222,大连半岛物业管理有限公司,0.8,辽宁,2,二手房,2002
沙河口区华北路404号,大连,大连元泰房屋开发有限公司,沙河口,20190516,38.8862815932937,121.59082948696123,福居家园,3,13183,渤海吉祥物业管理有限公司,0.5,辽宁,2,二手房,2003
沙河口区富国街14号1-1-2,大连,无开发商,沙河口,20190516,38.901027106600836,121.59047734850638,西安路（和平广场商圈）,4,13040,无物业管理服务,-,辽宁,2,二手房,1996
中山区鲁迅路184号1层B—A,大连,无开发商,中山,20190516,38.92590875965419,121.67594393403164,海滨住宅小区（寺儿沟商圈）,9,11732,无物业管理服务,-,辽宁,2,二手房,1995
甘井子区汇仁街19号12号楼1单元102室,大连,大连华南房地产开发有限公司,甘井子,20190516,38.99746297497168,121.58917714380617,名贵山庄华彩园,9,13658,大连弘益达物业管理有限公司,0.5,辽宁,2,二手房,2004
中山区民运巷 47号1层2号,大连,大连新型房地产开发总公司,中山,20190516,38.905955122300846,121.64798148011702,葵英小区,9,13023,街道办事处（居委会）代管物业,0.3,辽宁,2,二手房,1999
大连市甘井子区辛如街35号1单元1层1号,大连,暂无信息,甘井子,20190516,38.96862607066881,121.52294869064194,苹果公寓（住宅）,48,11594,大连生生物业有限公司,0.8,辽宁,2,二手房,2009
沙河口区黄河路883号,大连,无开发商,沙河口,20190516,38.919826721475204,121.57749657966676,黄河路（辽师商圈）,1,11923,大连辽南物业管理有限公司,0.5,辽宁,2,二手房,1970
中山区民建街10号1单元1号,大连,无开发商,中山,20190516,38.925444479476894,121.66915026954452,39中鲁迅路（三八广场）,1,20060,无物业管理服务,-,辽宁,2,二手房,1995
沙河口区西南路851号3单元1层3号,大连,无开发商,沙河口,20190516,38.94344210837944,121.58246796944378,凌山二街,4,11076,无物业管理服务,-,辽宁,2,二手房,1985
中山区解放路471-22号,大连,无开发商,中山,20190516,38.901309943567504,121.65419095766659,解放路（青云街商圈）,6,11973,街道办事处（居委会）代管物业,0.6,辽宁,2,二手房,1997
甘井子区迎客路郭东街一品蓝天公建14号,大连,沈阳军区后勤部,甘井子,20190516,38.958456949708726,121.556756277476,虹桥干休所,9,13267,大连虹桥物业管理中心,0.1,辽宁,2,二手房,2000
西岗区康平街2号（5号楼3-1-3号）,大连,无开发商,西岗,20190516,38.91044414697888,121.61980769264477,教师大厦,20,13376,大连教师大厦物业管理有限公司,0.2,辽宁,2,二手房,1995
沙河口区黑石礁街3号1层1-1号,大连,无开发商,沙河口,20190516,38.880058010307856,121.56313403908827,东财烛光园,8,17462,无物业管理服务,-,辽宁,2,二手房,1988
中山区解放路471-22号,大连,无开发商,中山,20190516,38.901309943567504,121.65419095766659,友爱街,10,13016,无物业管理服务,-,辽宁,2,二手房,1990
天河路173-2号 华润考拉22号公建,大连,大连华南房地产开发有限公司,甘井子,20190516,23.14720645345518,113.3277414923158,名贵山庄华丽园,17,13413,大连弘益达物业管理有限公司,0.5,辽宁,2,二手房,2002
金州区光明街道育才街42-6号1-2层,大连,无开发商,金州,20190516,39.109080894078986,121.7182584929096,味食小区,20,7908,大连大众物业管理有限公司,0.5,辽宁,2,二手房,1988
甘井子区虹港路16号楼1层公建,大连,大连祥盛房屋开发有限公司,甘井子,20190516,38.9645939333502,121.553851837474,祥和新家园,10,15626,大连东特祥禾物业管理有限公司,0.5,辽宁,2,二手房,2002
甘井子区华北路花锦园28号23-3-1-2建筑物,大连,无开发商,甘井子,20190516,38.951627958411166,121.5739439799003,迎客石广场（锦绣商圈）,11,13540,街道办事处（居委会）代管物业,0.5,辽宁,2,二手房,2000
开发区大开高吉里33栋6号,大连,大连联富地产有限公司,开发区,20190516,39.07355836059941,121.8280439450145,城宁家园,5,9324,大连联富物业有限公司,1.5,辽宁,2,二手房,2015
开发区红梅小区19栋-2-1-1号,大连,无开发商,开发区,20190516,29.906498897603264,121.5913630631805,金玛海景,7,11686,街道办事处（居委会）代管物业,1,辽宁,2,二手房,2007
沙河口区沙能街101号1单元1层1号,大连,大连大力置业有限公司,沙河口,20190516,38.9366316275348,121.59031205759763,机车佳苑,7,15642,大连大力物业管理有限公司,1.5,辽宁,2,二手房,2009
中山区共建巷61号,大连,无开发商,中山,20190516,38.91828093658718,121.66259221532148,39中明泽街,16,22698,无物业管理服务,-,辽宁,2,二手房,1993
甘井子区华东路33-5号,大连,暂无信息,甘井子,20190516,38.97497080220593,121.59479866243332,松江路（80中）,30,13197,大连新华物业管理有限公司,-,辽宁,2,二手房,1993
金州区站前街道盛滨花园B区13号楼2号公建,大连,大连阿尔滨集团房地产开发有限公司,金州,20190516,39.09609011892329,121.7335816409767,盛滨花园A区,52,6284,大连阿尔滨集团物业管理有限公司,0.4,辽宁,2,二手房,2001
红星海A区126-4,大连,远洋地产有限公司,开发区,20190516,39.027851194371685,121.80327394132297,红星海四期城市别馆二号,77,13217,大连远洋基业物业管理有限公司,2.2,辽宁,2,二手房,2012
大连市高新园区七贤中路63号,大连,大连宏都房地产开发有限公司,高新园区,20190516,38.86053006357667,121.53273606963094,宏都峰景,31,20355,大连东方百瑞物业管理有限公司,1.9,辽宁,2,二手房,2012
无门店信息,大连,大连润泰房地产开发有限公司,中山,20190516,34.52713835999158,118.76812980670795,明秀庄园二期,16,41983,大连澳邦致和物业服务有限公司,3.2,辽宁,2,二手房,2015
西岗区中山路158号唐山街市场外14号,大连,暂无信息,西岗,20190516,38.91688106727098,121.63201298398174,34中畅通街,4,28503,无物业管理服务,-,辽宁,2,二手房,1980
西岗区八一路102号,大连,无开发商,西岗,20190516,38.92047268927287,121.61862512554262,智勇西二巷,9,9824,无物业管理服务,-,辽宁,2,二手房,1993
中山区同心街72号1楼公建,大连,大连振屹房屋开发有限公司,中山,20190516,38.91979245940674,121.64769198230202,城市广场,22,15376,大连振屹物业有限公司,3.5,辽宁,2,二手房,2006
开发区东北三街94号1层,大连,大连万瑞达房地产投资有限公司,开发区,20190516,39.05723508011585,121.80570768630555,万瑞达国际公馆,20,7964,大连万瑞达物业管理公司,1.2,辽宁,2,二手房,2012
大连市开发区抚顺街30号,大连,无开发商,开发区,20190516,38.92272284555705,121.5977239817503,翠南管委会院,20,9843,街道办事处（居委会）代管物业,0.5,辽宁,2,二手房,1998
甘井子区西南路950—1号1层1号,大连,暂无信息,甘井子,20190516,38.96304110156522,121.59665499819343,八十中东海街,33,16061,街道办事处（居委会）代管物业,0.2,辽宁,2,二手房,1980
甘井子区金北街17号,大连,大连恒新房地产开发有限公司,甘井子,20190516,38.95800216293212,121.53151895549547,福佳绿都,33,26897,大连福佳物业管理有限公司,1.3,辽宁,2,二手房,2008
无门店信息,大连,大连顺迈房地产开发有限公司,沙河口,20190516,34.52713835999158,118.76812980670795,星海国宝,59,20049,长城物业集团股份有限大连分公司,3,辽宁,2,二手房,2003
中山区虎滩路176号4-1-2,大连,大连国泰房地产开发有限公司,中山,20190516,38.890884710033156,121.69257379232747,帝柏湾,17,21838,加拿大高力国际物业服务有限公司,2,辽宁,2,二手房,2007
甘井子区祥龙街2号楼1单元1楼1号,大连,大连源隆房地产开发有限公司,甘井子,20190516,38.988045874482445,121.60439401971377,鑫汇茗苑,10,16599,大连佳和物业管理有限公司,1.6,辽宁,2,二手房,2011
大连市高新园区桃峪园4-2号第31幢-2层8号,大连,大连软件园安博开发有限公司,高新园区,20190516,38.9189536667856,121.62163148459285,亿达普罗旺斯,76,22001,亿达物业管理有限公司,2.6,辽宁,2,二手房,2014
甘井子区金家街17-7号,大连,暂无信息,甘井子,20190516,38.97493697764367,121.60110987128529,金四街,57,19692,无物业管理服务,-,辽宁,2,二手房,1960
沙河口区五四路207-1-9号,大连,中航国际中航地产,沙河口,20190516,38.913544290955585,121.59450670056631,中航国际广场,28,24021,中航物业管理有限公司大连分公司,3.6,辽宁,2,二手房,2017
开发区黄海西路201号107公建,大连,开发区城建局,开发区,20190516,39.04942604506828,121.80126318235419,金湖里,63,6839,大连中信物业管理有限公司,0.1,辽宁,2,二手房,1998
西岗区绕山路31号公建一层东侧,大连,大连胜利路拓宽改造工程建设有限公司,西岗,20190516,38.90257514466717,121.61412736644739,星海绿山城D区,14,21666,无物业管理服务,1.5,辽宁,2,二手房,2016
甘井子区凌秀路37号-1链家地产,大连,大连恒瑞房地产开发有限公司,高新园区,20190516,38.883794285403965,121.52361997548515,大湖山语,31,20638,大连龙湖物业服务有限公司,2.8,辽宁,2,二手房,2015
中山区益民街16号1层1号,大连,无开发商,中山,20190516,38.93092761298906,121.66470740073377,益民街（三八广场）,8,14687,无物业管理服务,-,辽宁,2,二手房,1992
大连市甘井子区融田西园52-11,大连,亿达集团大连科技城发展有限公司,甘井子,20190516,38.95800216293212,121.53151895549547,亿达春田馥园,67,20152,亿达物业管理有限公司,1.5,辽宁,2,二手房,2011
开发区东北三街94号1层,大连,鑫鸿房地产开发公司,开发区,20190516,39.05723508011585,121.80570768630555,雍景国际,36,6404,街道办事处（居委会）代管物业,1.2,辽宁,2,二手房,2002
西岗区鞍山路65-5号,大连,无开发商,沙河口,20190516,38.926971569913064,121.60260230348328,美辰臻品,9,17998,大连众和物业管理有限公司,1,辽宁,2,二手房,2007
西岗区黄河路82号,大连,大连富泰房地产开发有限公司,西岗,20190516,38.92243503020161,121.6287927913896,悦泰福里,25,21744,大连百安物业管理有限公司,2.8,辽宁,2,二手房,2014
中山区北斗街53号1层1号,大连,大连万众房屋开发有限公司,中山,20190516,38.92727355733075,121.67002970974048,清华园(中山),25,19042,大连万众物业有限公司,1.7,辽宁,2,二手房,2003
甘井子区西南路979-7号公建,大连,暂无信息,甘井子,20190516,38.96275592929325,121.5958698791777,八十中周家街,75,17083,街道办事处（居委会）代管物业,0.2,辽宁,2,二手房,1990
甘井子区芳韵街31号,大连,亿达集团大连房地产开发有限公司,甘井子,20190516,38.95628814568166,121.59125586946814,亿达世纪城,57,24471,亿达物业管理有限公司,0.9,辽宁,2,二手房,2002
甘井子区汇仁街19号12号楼1单元102室,大连,大连华南房地产开发有限公司,甘井子,20190516,38.99746297497168,121.58917714380617,名贵山庄金盛园,11,14958,大连弘益达物业管理有限公司,0.5,辽宁,2,二手房,2004
金州区拥政街道733号-8号1-2层,大连,大连盛铭资产管理有限公司,金州,20190516,39.11690610445662,121.73030803603723,安盛花园（金州）,20,10535,大连经济技术开发区海青物业有限公司,1,辽宁,2,二手房,2000
沙河口区富国街34-3,大连,大连万达房地产开发有限公司,沙河口,20190516,38.90159716600704,121.58930603357904,星海自由港,17,20608,大连万景物业管理有限公司,1.2,辽宁,2,二手房,2003
甘井子区玉丽街2号楼1单元4号公建,大连,暂无信息,甘井子,20190516,38.98705071699301,121.55513043130172,玉意街,49,10247,大连新兴物业管理有限公司,0.3,辽宁,2,二手房,2002
沙河口区新生路万客园3-7,大连,大连中海兴业房地产开发有限公司,沙河口,20190516,38.94412875710208,121.57006756704837,中海天赋山一期,28,22383,大连中海物业管理有限公司,2.8,辽宁,2,二手房,2016
高新园敬贤街23-11号,大连,暂无信息,高新园区,20190516,38.869456648212356,121.53023725049893,中海紫御观邸四期,8,20209,大连中海物业管理有限公司,2.6,辽宁,2,二手房,2013
开发区小孤山西里3栋-11号,大连,大连开发区世元房地产开发有限公司,开发区,20190516,39.02715282297674,121.80682183666346,东庭印象,26,10105,大连经济技术开发区鹏达物业管理有限公司,1.2,辽宁,2,二手房,2007
开发区红星海-B区89-1号,大连,远洋地产有限公司,开发区,20190516,39.027851194371685,121.80327394132297,红星海三期视界,49,15021,大连远洋基业物业管理有限公司,2.2,辽宁,2,二手房,2012
大连市甘井子区椒房街24号楼2-104链家地产,大连,大连凯祥房地产开发有限公司,甘井子,20190516,38.985363789837166,121.61034055597686,椒金山庄,22,16710,大连凯祥物业管理有限公司,0.5,辽宁,2,二手房,2000
西岗区鞍山路29号龙畔锦城东门,大连,无开发商,西岗,20190516,38.92763470697088,121.61498923399098,双兴北巷（大菜市商圈）,10,10846,街道办事处（居委会）代管物业,0.5,辽宁,2,二手房,1995
西岗区新田巷27号1-2,大连,无开发商,西岗,20190516,38.893215932589385,121.64103065169111,新昌街,15,10122,无物业管理服务,-,辽宁,2,二手房,1996
中山区碧浪园4号-3号,大连,大连三寰房地产开发有限公司,中山,20190516,38.89147289460474,121.69329560326236,碧浪园三期,16,16396,大连峰霖物业管理有限公司,0.3,辽宁,2,二手房,2002
大连市甘井子区逸林南园1-1号,大连,暂无信息,甘井子,20190516,38.95800216293212,121.53151895549547,三鼎春天A区,21,24121,瑞联德（大连）物业管理有限公司,3.2,辽宁,2,二手房,2015
沙河口区星海广场B3区20—3号,大连,大连华奇置业有限公司,沙河口,20190516,38.88782715536473,121.5869168319735,星海旺座,21,14002,大连佳和物业管理有限公司,2.5,辽宁,2,二手房,2005
红星海A区126-4,大连,暂无信息,开发区,20190516,39.027851194371685,121.80327394132297,红星海一期艺墅,52,16794,大连远洋基业物业管理有限公司,0.5,辽宁,2,二手房,2009
沙河口区连山街10号2-1-2,大连,无开发商,沙河口,20190516,38.89637522563413,121.57143690983219,连山街,13,14205,街道办事处（居委会）代管物业,0.5,辽宁,2,二手房,1993
大连市金州新区友谊街道和平路59-10号1-2层公建,大连,大连金连房地产开发有限公司,金州,20190516,39.112168401852266,121.72006917947859,金连佳地,24,11177,街道办事处（居委会）代管物业,1.5,辽宁,2,二手房,2010
无门店信息,大连,大连乾豪集团有限公司,开发区,20190516,34.52713835999158,118.76812980670795,乾豪海岸花园,9,14275,大连乾豪物业管理有限公司,2,辽宁,2,二手房,2003
中山区武昌街武昌公寓6号公建,大连,大连中盛集团有限公司,中山,20190516,38.912280913445784,121.64921130527547,武昌花园,8,12824,无物业管理服务,0.3,辽宁,2,二手房,1990
甘井子区华北路花锦园28号23-3-1-2建筑物,大连,大连东特房地产开发有限公司,甘井子,20190516,38.951627958411166,121.5739439799003,东特星中环,25,16454,大连东特祥禾物业管理有限公司,0.8,辽宁,2,二手房,2006
无门店信息,大连,大连光洋龙驰置业有限公司,开发区,20190516,34.52713835999158,118.76812980670795,泽林苑,16,11800,大连光洋龙驰置业物业有限公司,1.6,辽宁,2,二手房,2015
甘井子区玉丽街39号楼3号公建,大连,大连新型房地产开发有限公司,甘井子,20190516,38.98706755029984,121.55605471197089,玉丽街,76,9582,大连新兴物业管理有限公司,0.5,辽宁,2,二手房,2002
中山区高尚路28-1号,大连,无开发商,中山,20190516,38.892673425111305,121.67148833870213,高尚路,26,10356,无物业管理服务,0.5,辽宁,2,二手房,1993
经济技术开发区红星海-A区81-2号1层,大连,远洋地产有限公司,开发区,20190516,39.027851194371685,121.80327394132297,红星海二期视界,60,15073,大连远洋基业物业管理有限公司,0.5,辽宁,2,二手房,2012
高新园区敬贤街25-9,大连,大连东盛房地产开发有限公司,高新园区,20190516,38.86879447142154,121.53007349209936,东盛启城,33,17602,大连东盛物业管理有限公司,2.3,辽宁,2,二手房,2012
中山区金城街26号一楼,大连,无开发商,中山,20190516,38.922282529515634,121.65214466263014,九中白兰街,22,36247,无物业管理服务,-,辽宁,2,二手房,1995
大连市金州新区友谊街道和平路59-10号1-2层公建,大连,无开发商,金州,20190516,39.112168401852266,121.72006917947859,古城乙区,186,7423,无物业管理服务,-,辽宁,2,二手房,1992
中山区安居巷7号,大连,大连长荣房屋开发有限公司,中山,20190516,38.92451111549568,121.65154739366945,休斯顿公寓,40,13314,大连长荣物业管理有限公司,2.6,辽宁,2,二手房,2003
开发区润海园中区62-9,大连,暂无信息,开发区,20190516,39.04047273176333,121.76392358042445,大连海湾城二期,42,13354,大连金广物业服务有限公司,2.6,辽宁,2,二手房,2012
中山区爱华街13号,大连,大连银河房地产开发有限公司,中山,20190516,38.92541607518685,121.6535728031028,银河公寓,10,9620,街道办事处（居委会）代管物业,-,辽宁,2,二手房,1996
经济技术开发区红星海-A区81-2号1层,大连,无开发商,开发区,20190516,39.027851194371685,121.80327394132297,西雅图,36,10251,大连维泰物业管理有限公司,0.8,辽宁,2,二手房,2004
无门店信息,大连,大连祥和房屋开发有限公司,甘井子,20190516,34.52713835999158,118.76812980670795,祥和花园,50,12093,大连市大北物业管理有限公司,0.4,辽宁,2,二手房,2007
无门店信息,大连,大连鹏辉房地产开发有限公司,甘井子,20190516,34.52713835999158,118.76812980670795,鹏辉新天居三期,58,14028,大连鹏辉物业管理有限公司,0.8,辽宁,2,二手房,2009
甘井子区锦城东园1号3单元1层2号,大连,大连鹏生房地产开发有限公司,甘井子,20190516,38.952805477462775,121.55656194973994,鹏辉新纪元,13,16422,大连鹏辉物业管理有限公司,0.5,辽宁,2,二手房,2006
金州区五一路先进街道 陶然居2-2,大连,大连金开房地产开发有限公司,金州,20190516,39.0830973395057,121.7630113583655,华邦俪城,104,10229,大连华邦物业有限公司,1.3,辽宁,2,二手房,2010
甘井子区迎客路郭东街一品蓝天公建14号,大连,大连福田房屋开发有限公司,甘井子,20190516,38.958456949708726,121.556756277476,隽佳欣苑,34,14764,大连安洁物业管理服务有限公司,0.5,辽宁,2,二手房,2007
西岗区鞍山路29号龙畔锦城东门,大连,大连凯润房屋开发有限公司,西岗,20190516,38.92763470697088,121.61498923399098,景润二期,19,12408,大连凯润物业管理有限公司,0.3,辽宁,2,二手房,2000
甘井子区亿家缘虹韵路205,大连,大连耕海置业有限公司,甘井子,20190516,38.95647848453699,121.53130152244339,国民院子,32,20968,大连耕海物业管理有限公司,2,辽宁,2,二手房,2012
无门店信息,大连,大连中瀛房地产开发有限公司,旅顺口,20190516,34.52713835999158,118.76812980670795,中瀛臻堡,50,9559,大连中瀛物业管理服务有限公司,1,辽宁,2,二手房,2010
金州区光明街道育才街42-6号1-2层,大连,无开发商,金州,20190516,39.109080894078986,121.7182584929096,职高西小区,19,8488,街道办事处（居委会）代管物业,0.5,辽宁,2,二手房,1989
无门店信息,大连,大连新型企业集团,甘井子,20190516,34.52713835999158,118.76812980670795,南岭花园,30,12396,大连新型物业管理有限公司,0.4,辽宁,2,二手房,2006
经济技术开发区红星海-A区81-2号1层,大连,远洋地产有限公司,开发区,20190516,39.027851194371685,121.80327394132297,红星海三期境界,88,13874,大连远洋基业物业管理有限公司,2.2,辽宁,2,二手房,2012
中山区中南路店212号门头房,大连,大连鸿业房地产开发有限公司,中山,20190516,38.91149759691359,121.67700561077149,中南风景,15,17851,大连自然物业管理有限公司,0.8,辽宁,2,二手房,2004
中山区华乐街71号公建,大连,大连中银房地产开发有限公司,中山,20190516,38.923187679200566,121.6843197903016,澳景园,31,17567,大连衡德物业管理有限公司,1,辽宁,2,二手房,2003
甘井子区汇仁街19号12号楼1单元102室,大连,大连凯祥房地产开发有限公司,甘井子,20190516,38.99746297497168,121.58917714380617,名贵山庄亲情园,25,14381,大连弘益达物业管理有限公司,0.5,辽宁,2,二手房,2002
开发区正恒园1-16,大连,大连富华房地产有限公司,开发区,20190516,39.04823944344617,121.76165468797754,正泰园A区,18,12091,嘉泰物业管理有限公司,1.9,辽宁,2,二手房,2012
沙河口区鞍山路65号美都园7号1单元1层4号公建,大连,大连美辰房地产开发有限公司,沙河口,20190516,38.92755211283745,121.60306664748275,丽景春天,29,18933,大连远洋基业物业管理有限公司,0.8,辽宁,2,二手房,2003
甘井子区泉水P3区35-2号,大连,大连鑫成置业有限公司,甘井子,20190516,39.01530162252779,121.63546089163083,欧尚广场,40,18018,大连宏华物业服务有限公司,1.5,辽宁,2,二手房,2014
中山区鲁迅路204号百盛新药特药商店一楼西侧部分,大连,无开发商,中山,20190516,38.9258993614899,121.6768880001226,春港街,3,11373,无物业管理服务,-,辽宁,2,二手房,1999
中山区武昌街武昌公寓6号公建,大连,无开发商,中山,20190516,38.912280913445784,121.64921130527547,合力巷,4,10739,无物业管理服务,-,辽宁,2,二手房,1980
无门店信息,大连,大连融昇房地产开发有限公司,甘井子,20190516,34.52713835999158,118.76812980670795,鹿港小镇,7,10847,大连三和住邦物业管理有限公司,1.3,辽宁,2,二手房,2015
西岗区八一路102号,大连,无开发商,西岗,20190516,38.92047268927287,121.61862512554262,河沿巷,13,12204,无物业管理服务,-,辽宁,2,二手房,1996
金州新区先进街道五一路350-1号1-2层,大连,无开发商,金州,20190516,39.078667146419825,121.77094423323935,八里河小区,20,6899,街道办事处（居委会）代管物业,0.5,辽宁,2,二手房,2009
高新园区敬贤街25-9,大连,大连海逸房地产开发有限公司,高新园区,20190516,38.86879447142154,121.53007349209936,海逸诺丁山,28,19901,大连耕海物业服务有限公司,2.5,辽宁,2,二手房,2015
沙河口区连山街44-2号半地下一层（地上一层部分）,大连,大连大和中盛房地产有限公司,沙河口,20190516,38.892991456958086,121.57299542767161,颐和星海,86,24424,大连颐和物业管理有限公司,2.5,辽宁,2,二手房,2013
"西岗区泰公街20号2层7号 西岗区久寿街22号1层14号""",大连,大连万达房地产开发有限公司,西岗,20190516,38.92600196862723,121.62141976476381,新春小区,8,15355,大连长青物业管理中心,0.2,辽宁,2,二手房,1997
金州区拥政街道733号-8号1-2层,大连,大连市金州区房屋开发公司,金州,20190516,39.11690610445662,121.73030803603723,桂林小区,78,7080,街道办事处（居委会）代管物业,0.3,辽宁,2,二手房,1993
无门店信息,大连,大连乾豪集团有限公司,开发区,20190516,34.52713835999158,118.76812980670795,乾豪新界,78,11157,大连乾豪物业管理有限公司,1.7,辽宁,2,二手房,2015
西岗区八一路196号2-1-12号,大连,大连欧美亚房地产开发有限公司,西岗,20190516,38.92047268927287,121.61862512554262,名城国际公馆,13,15728,无物业管理服务,-,辽宁,2,二手房,2007
中山区中青街87号一单元107,大连,大连金生房地产开发有限公司,中山,20190516,38.90213494248529,121.65806522267005,金生佳苑,8,19060,大连金宇物业管理有限公司,1,辽宁,2,二手房,2006
沙河口区前程街15号1层E-C轴36-44轴公建,大连,大连安邦房地产开发有限公司,甘井子,20190516,38.91588050824643,121.60099647548584,阳光百合,12,17257,渤海吉祥物业管理有限公司,0.8,辽宁,2,二手房,2004
开发区黄海西路201号107公建,大连,无开发商,开发区,20190516,39.04942604506828,121.80126318235419,倚平里,38,8104,街道办事处（居委会）代管物业,0.5,辽宁,2,二手房,2000
中山区武昌街武昌公寓6号公建,大连,无开发商,中山,20190516,38.912280913445784,121.64921130527547,铁山巷,23,11944,无物业管理服务,0.5,辽宁,2,二手房,1990
中山区华乐街71号公建,大连,无开发商,中山,20190516,38.923187679200566,121.6843197903016,春园里,26,12234,无物业管理服务,-,辽宁,2,二手房,1990
西岗区平等街21号1层2号,大连,裕景兴业（大连）有限公司,西岗,20190516,38.92251066253164,121.63236845125735,中心裕景,80,21176,第一太平戴维斯物业顾问（北京）有限公司大连分公司,3.8,辽宁,2,二手房,2012
甘井子区华东路33-5号,大连,大连凯祥房地产开发有限公司,甘井子,20190516,38.97497080220593,121.59479866243332,商城花园,18,11982,大连凯祥物业管理有限公司,0.5,辽宁,2,二手房,2000
西岗区鞍山路65-5号,大连,大连晟大房地产开发有限公司,沙河口,20190516,38.926971569913064,121.60260230348328,亿鑫大厦,6,13569,大连德一物业管理有限公司,1,辽宁,2,二手房,2003
沙河口区五四路207-1-9号,大连,无开发商,沙河口,20190516,38.913544290955585,121.59450670056631,五四路,13,12324,无物业管理服务,-,辽宁,2,二手房,1992
开发区湾里南12栋-16-17-18号,大连,开发区城建局,开发区,20190516,39.070782084451,121.8506739675913,宜宁里,46,5812,大连宏港物业管理有限公司,0.2,辽宁,2,二手房,1992
无门店信息,大连,大连腾达房地产开发有限公司,中山,20190516,34.52713835999158,118.76812980670795,紫竹轩,9,16027,大连市晟阳物业管理有限公司,1,辽宁,2,二手房,2003
沙河口区知心园10号公建,大连,亿达房地产开发有限公司,高新园区,20190516,38.893977135945136,121.55667141994431,亿达康派,7,18640,亿达物业管理有限公司,1.5,辽宁,2,二手房,2006
甘井子区华北路花锦园28号23-3-1-2建筑物,大连,大连东特房地产开发有限公司,甘井子,20190516,38.951627958411166,121.5739439799003,星加坡花园,28,17738,大连东特祥禾物业管理有限公司,0.6,辽宁,2,二手房,2004
甘井子区锦城西园4#3-1-1,大连,大连锦绣房地产开发有限公司,沙河口,20190516,38.95286223185571,121.55129044777,锦华北园,88,13857,大连锦绣物业管理有限公司,0.6,辽宁,2,二手房,2002
甘井子区甘井子路32号楼1单元1楼9号,大连,大连和华房地产开发有限公司,甘井子,20190516,38.982488275116516,121.63345389253514,万成御园,9,14302,大连银力物业管理有限公司,1.3,辽宁,2,二手房,2015
沙河口区连山街10号2-1-2,大连,大连宝嘉房地产有限公司,沙河口,20190516,38.89637522563413,121.57143690983219,星海名庭,8,22688,大连斌宏物业管理有限公司,0.6,辽宁,2,二手房,2005
沙河口区五一路110-4号,大连,大连大重房屋开发有限公司,沙河口,20190516,38.913544290955585,121.59450670056631,星台花园二期,35,25708,大连大重房屋开发公司物业管理中心,0.4,辽宁,2,二手房,1995
高新园区火炬路18号,大连,大连千业房地产开发有限公司,高新园区,20190516,38.937738080520404,117.39340752036043,第8区,42,17645,大连大管家物业管理有限公司,1.9,辽宁,2,二手房,2012
沙河口区连山街44-2号半地下一层（地上一层部分）,大连,大连亿达房地产股份有限公司,沙河口,20190516,38.892991456958086,121.57299542767161,星海小区,24,11496,无物业管理服务,-,辽宁,2,二手房,1996
中山区华乐街93—1号,大连,大连鸿雁房地产开发公司,中山,20190516,38.921950924512124,121.68673151242629,海之恋花园,22,16680,大连鸿雁物业有限公司,0.8,辽宁,2,二手房,2001
甘井子区金北街17号,大连,暂无信息,甘井子,20190516,38.95800216293212,121.53151895549547,山宝花园,23,20862,无物业管理服务,-,辽宁,2,二手房,1970
金州区站前街道盛滨花园B区13号楼2号公建,大连,大连阿尔滨集团房地产开发有限公司,金州,20190516,39.09609011892329,121.7335816409767,现代雅筑,40,6704,大连阿尔滨集团物业管理有限公司,0.5,辽宁,2,二手房,2009
甘井子区华龙南园34-5号34-库4号34-5号,大连,大连运达房地产集团有限公司,甘井子,20190516,38.98270467597865,121.6117222765123,泊岭紫郡,25,13148,大连怡和物业服务有限公司,0.9,辽宁,2,二手房,2009
无门店信息,大连,大连安邦房地产开发有限公司,甘井子,20190516,34.52713835999158,118.76812980670795,西郊闲庭,21,12525,大连龙城物业服务有限公司,1,辽宁,2,二手房,2010
中山区中南路店212号门头房,大连,无开发商,中山,20190516,38.91149759691359,121.67700561077149,中纬巷,8,12628,无物业管理服务,-,辽宁,2,二手房,1995
金州新区先进街道五一路350-1号1-2层,大连,暂无信息,金州,20190516,39.078667146419825,121.77094423323935,聚鑫小区一期,57,7374,大连新生活物业管理有限公司,0.5,辽宁,2,二手房,1993
沙河口区昌黎街77号楼第1层公建,大连,大连高新园区建设开发总公司,沙河口,20190516,38.91974518366595,121.5902918379551,79中昌隆大厦,13,18758,无物业管理服务,-,辽宁,2,二手房,1998
沙河口区绿清街12号,大连,大连绿波房屋开发集团有限公司,沙河口,20190516,38.93851335419565,121.57334844377094,绿波公寓,4,9116,大连绿波建设发展有限公司,0.5,辽宁,2,二手房,1999
大连市甘井子区泉水N2区3-13号,大连,大连金广地产集团有限公司,甘井子,20190516,39.021116079001885,121.64659997607325,泉水N3区,88,10883,无物业管理服务,0.7,辽宁,2,二手房,2000
沙河口区恒利园42号-8,大连,无开发商,沙河口,20190516,38.93357562498634,121.57914091532649,大庆街,4,12153,无物业管理服务,-,辽宁,2,二手房,1982
沙河口区锦霞南园13号3-1-1,大连,大连锦绣房地产开发有限公司,沙河口,20190516,38.94761264366187,121.55126272246873,锦华南园,19,10407,大连锦绣物业管理有限公司,0.3,辽宁,2,二手房,2002
沙河口区西南路358号1—2号,大连,大连东兴置业有限公司,沙河口,20190516,38.90839654326566,121.56908246905662,西山园中园,29,22510,大连东昌物业管理有限公司,1.2,辽宁,2,二手房,2007
无门店信息,大连,大连顺浩置业有限公司,开发区,20190516,34.52713835999158,118.76812980670795,上品公馆,34,9199,大连顺浩置业物业有限公司,3.8,辽宁,2,二手房,2013
中山区中南路店212号门头房,大连,峰尚房屋开发有限公司,中山,20190516,38.91149759691359,121.67700561077149,峰尚中南,13,16220,大连银洲物业管理有限公司,2.2,辽宁,2,二手房,2011
西岗区九三街64号,大连,大连金福星房地产开发有限公司,西岗,20190516,38.92047268927287,121.61862512554262,金福星大厦,7,8623,大连金星物业管理中心,1.9,辽宁,2,二手房,2001
沙河口区知心园10号公建,大连,暂无信息,高新园区,20190516,38.893977135945136,121.55667141994431,亿达康派公寓,24,17685,亿达物业管理有限公司,2.2,辽宁,2,二手房,2006
沙河口区星海广场B3区14-2号1层,大连,大连友谊合升房地产开发有限公司,沙河口,20190516,38.88693148294673,121.58735631267305,壹品星海公寓,34,18164,大连富丽华物业管理有限公司,1.5,辽宁,2,二手房,2003
甘井子区泉水B2区19-1号,大连,大连金广集团,甘井子,20190516,39.0101309886317,121.60812584213187,金色阳光家园,58,14023,大连金广物业服务有限公司,0.5,辽宁,2,二手房,2002
高新园敬贤街23-11号,大连,暂无信息,高新园区,20190516,38.869456648212356,121.53023725049893,中海紫御观邸二期,25,21614,大连中海物业管理有限公司,2.6,辽宁,2,二手房,2013
沙河口区星海广场B3区14-2号1层,大连,大连万达房地产开发有限公司,沙河口,20190516,38.88693148294673,121.58735631267305,大连明珠,74,26401,大连万象美物业管理有限公司,3.5,辽宁,2,二手房,2008
中山区华乐街71号公建,大连,暂无信息,中山,20190516,38.923187679200566,121.6843197903016,东港印象DE区,13,14285,大连众和物业管理有限公司,1.2,辽宁,2,二手房,2008
甘井子区美域盛景A2区10-6,大连,大连百思泰置业有限公司,甘井子,20190516,39.006221362805846,121.61022278003976,钰桥中央庭院,49,18143,大连百嘉物业管理有限公司,1.8,辽宁,2,二手房,2014
无门店信息,大连,无开发商,金州,20190516,34.52713835999158,118.76812980670795,香山翌景,22,7290,街道办事处（居委会）代管物业,0.5,辽宁,2,二手房,2010
中山区职工街96号1-3层公建,大连,大连嘉和房地产集团有限公司,中山,20190516,38.92565613737007,121.66193575790903,嘉和广场,107,18756,大连华安物业管理有限公司,3.8,辽宁,2,二手房,2014
开发区金源南里14栋-11号一层部分，14号-12号一层部分,大连,大连开建房地产开发有限公司,开发区,20190516,39.06148862675436,121.82503941311765,金源北里安居小区,60,7970,嘉兴物业管理有限公司,0.3,辽宁,2,二手房,1999
沙河口区五一路110-4号,大连,大连大重房屋开发有限公司,沙河口,20190516,38.913544290955585,121.59450670056631,星台花园一期,34,15993,大连大重房屋开发公司物业管理中心,-,辽宁,2,二手房,1998
西岗区新田巷11号三单元103,大连,无开发商,西岗,20190516,38.89276612016956,121.64190731791966,新船巷,28,9419,无物业管理服务,-,辽宁,2,二手房,1992
金州区拥政街道733号-8号1-2层,大连,无开发商,金州,20190516,39.11690610445662,121.73030803603723,414小区,95,7305,街道办事处（居委会）代管物业,0.5,辽宁,2,二手房,1989
金州新区八一路金都嘉园1号楼1号公建,大连,大连友谊合升房地产开发有限公司,金州,20190516,39.05525210261778,121.74865634199398,龙祥嘉园,70,7961,大连天河物业管理有限公司,0.5,辽宁,2,二手房,1999
甘井子区甘井子街3号公建,大连,无开发商,甘井子,20190516,38.982086281836246,121.63426694995971,新街,18,9720,无物业管理服务,-,辽宁,2,二手房,1988
沙河口区西南路40号楼,大连,大连金通房屋开发有限公司,沙河口,20190516,38.94143337232082,121.58616557598133,海韵花园,12,13735,大连金通物业管理有限公司,0.4,辽宁,2,二手房,2000
沙河口区西南路40号楼,大连,无开发商,沙河口,20190516,38.94143337232082,121.58616557598133,黑石礁景山,15,12083,无物业管理服务,-,辽宁,2,二手房,1990
甘井子区泉水B5区27-9,大连,大连华智房地产开发有限公司,甘井子,20190516,39.01477152073682,121.60970286326823,华远新都汇广场,31,12245,街道办事处（居委会）代管物业,1,辽宁,2,二手房,2010
大连市甘井子区辛如街35号1单元1层1号,大连,大连新星房地产开发有限公司,甘井子,20190516,38.96862607066881,121.52294869064194,新星绿城四期,35,14091,大连生生物业管理有限公司,0.8,辽宁,2,二手房,2008
沙河口区中山路417A-4号,大连,无开发商,沙河口,20190516,38.90740323140171,121.59484801084653,同泰街,21,12936,无物业管理服务,0.5,辽宁,2,二手房,1999
高新园区红凌路732-4号,大连,大华集团大连房地产开发有限公司,高新园区,20190516,38.90204708664442,121.53244406374695,大华爱琴湾,41,21154,大连大华物业管理有限公司,1.8,辽宁,2,二手房,2010
无门店信息,大连,无开发商,西岗,20190516,34.52713835999158,118.76812980670795,付家庄街,17,11468,无物业管理服务,-,辽宁,2,二手房,1990
沙河口区五四路207-1-9号,大连,无开发商,沙河口,20190516,38.913544290955585,121.59450670056631,新生巷,0,12268,街道办事处（居委会）代管物业,0.5,辽宁,1,二手房,-
开发区翠竹小区33栋4-1-1号,大连,大连福恒房地产开发有限公司,开发区,20190516,30.635492106460237,119.69169575745704,福佳国际,35,5978,大连福佳物业管理有限公司,1.5,辽宁,2,二手房,2007
中山区解放路471-22号,大连,无开发商,中山,20190516,38.901309943567504,121.65419095766659,望海巷,2,10581,街道办事处（居委会）代管物业,-,辽宁,1,二手房,1985
中山区金城街26号一楼,大连,暂无信息,中山,20190516,38.922282529515634,121.65214466263014,延安路,3,24018,无物业管理服务,-,辽宁,1,二手房,1985
中山区鲁迅路204号百盛新药特药商店一楼西侧部分,大连,暂无信息,中山,20190516,38.9258993614899,121.6768880001226,华山街,0,10100,无物业管理服务,-,辽宁,1,二手房,-
中山区武昌街武昌公寓6号公建,大连,无开发商,中山,20190516,38.912280913445784,121.64921130527547,绿山巷,0,15353,无物业管理服务,-,辽宁,1,二手房,1986
中山区岭前街53-5,大连,暂无信息,西岗,20190516,38.89487069426055,121.65795959631497,民主街（青云街商圈）,0,8189,无物业管理服务,-,辽宁,1,二手房,1991
中山区武昌街武昌公寓6号公建,大连,无开发商,中山,20190516,38.912280913445784,121.64921130527547,铁山巷（南山商圈）,2,13497,街道办事处（居委会）代管物业,1,辽宁,1,二手房,1990
大连市开发区抚顺街30号,大连,无开发商,开发区,20190516,38.92272284555705,121.5977239817503,东方花园,3,14347,大连合昌物业服务有限公司,0.5,辽宁,1,二手房,2006
中山区爱华街13号,大连,暂无信息,中山,20190516,38.92541607518685,121.6535728031028,向前街（中山友好商圈）,0,12926,暂无信息,-,辽宁,1,二手房,-
中山区岭前街53-5,大连,无开发商,中山,20190516,38.89487069426055,121.65795959631497,连胜巷,0,10051,无物业管理服务,-,辽宁,1,二手房,1990
西岗区八一路196号1-3,大连,无开发商,西岗,20190516,38.92047268927287,121.61862512554262,靠山北巷（青云街商圈）,0,10125,无物业管理服务,-,辽宁,1,二手房,1993
沙河口区五四路207-1-9号,大连,无开发商,沙河口,20190516,38.913544290955585,121.59450670056631,动力花园,0,20650,无物业管理服务,-,辽宁,1,二手房,2004
西岗区胜利路33号,大连,暂无信息,西岗,20190516,38.91309771954841,121.62500886627636,34中云山街,0,39472,暂无信息,-,辽宁,1,二手房,1990
西岗区康平街2号（5号楼3-1-3号）,大连,暂无信息,西岗,20190516,38.91044414697888,121.61980769264477,胜利路（莲花白云商圈）,0,10844,无物业管理服务,-,辽宁,1,二手房,1999
中山区安居巷7号,大连,暂无信息,西岗,20190516,38.92451111549568,121.65154739366945,群联巷（胜利桥北商圈）,0,10040,暂无信息,-,辽宁,1,二手房,1975
大连市沙河口区西南路875号1层21号,大连,暂无信息,沙河口,20190516,38.94485969061231,121.58418648447764,凌云一街,0,9557,暂无信息,-,辽宁,1,二手房,-
甘井子区迎客路郭东街一品蓝天公建14号,大连,暂无信息,甘井子,20190516,38.958456949708726,121.556756277476,军休家园,0,11191,无物业管理服务,-,辽宁,1,二手房,1995
中山区岭前街53-5,大连,大连市桃源雅居房地产开发有限公司,中山,20190516,38.89487069426055,121.65795959631497,桃源雅居,5,19999,大连远洋基业物业管理有限公司,1,辽宁,1,二手房,2010
中山区中南路226号,大连,大连永薪房屋开发有限公司,中山,20190516,38.90029610333926,121.68178899957817,海神花园,4,14531,大连永佳物业管理有限公司,1,辽宁,1,二手房,1999
沙河口区红旗东路18-22号2单元1楼3号,大连,无开发商,甘井子,20190516,38.913544290955585,121.59450670056631,兰兴巷,0,12616,大连辽南物业管理有限公司,0.2,辽宁,1,二手房,1992
沙河口区成仁街91号,大连,无开发商,沙河口,20190516,38.91539947107844,121.59585638842556,同泰花园,2,23701,大连斌弘物业管理有限公司,0.5,辽宁,1,二手房,2003
沙河口区西南路851号3单元1层3号,大连,暂无信息,沙河口,20190516,38.94344210837944,121.58246796944378,凌山四街,2,11781,暂无信息,-,辽宁,1,二手房,-
西岗区平等街21号1层2号,大连,暂无信息,西岗,20190516,38.92251066253164,121.63236845125735,建振巷（大菜市商圈）,1,11248,无物业管理服务,-,辽宁,1,二手房,-
西岗区八一路102号,大连,无开发商,西岗,20190516,38.92047268927287,121.61862512554262,安泰巷,6,13412,无物业管理服务,-,辽宁,1,二手房,1990
西岗区平等街21号1层2号,大连,无开发商,西岗,20190516,38.92251066253164,121.63236845125735,兴业街（大菜市商圈）,6,11547,无物业管理服务,0.5,辽宁,1,二手房,1996
西岗区康平街2号（5号楼3-1-3号）,大连,暂无信息,西岗,20190516,38.91044414697888,121.61980769264477,纪念街(唐山街商圈),2,11114,无物业管理服务,-,辽宁,1,二手房,1990
金州区先进街道渤海街1-4号1-2层,大连,暂无信息,金州,20190516,39.09512910553563,121.74578812616167,书香苑小区,2,8785,暂无信息,0.5,辽宁,1,二手房,2006
西岗区八一路102号,大连,无开发商,西岗,20190516,38.92047268927287,121.61862512554262,智勇西巷,3,9102,无物业管理服务,-,辽宁,1,二手房,1993
无门店信息,大连,无开发商,西岗,20190516,34.52713835999158,118.76812980670795,新环巷,3,10545,无物业管理服务,-,辽宁,1,二手房,1990
沙河口区富国街14号1-1-2,大连,无开发商,沙河口,20190516,38.901027106600836,121.59047734850638,星光街,3,12925,街道办事处（居委会）代管物业,0.5,辽宁,1,二手房,-
莲花山路89-3号,大连,大连兴达房地产有限公司,西岗,20190516,38.902848261803356,121.6041720815823,香都花园,1,15651,大连香都物业管理有限公司,0.8,辽宁,1,二手房,1993
中山区鲁迅路204号百盛新药特药商店一楼西侧部分,大连,无开发商,中山,20190516,38.9258993614899,121.6768880001226,明星街,1,11662,无物业管理服务,-,辽宁,1,二手房,2000
莲花山路89-3号,大连,无开发商,沙河口,20190516,38.902848261803356,121.6041720815823,美春巷,1,11521,无物业管理服务,-,辽宁,1,二手房,1995
西岗区绕山路31号公建一层东侧,大连,无开发商,西岗,20190516,38.90257514466717,121.61412736644739,山庄北一街,0,9065,无物业管理服务,-,辽宁,1,二手房,1990
中山区共建巷61号,大连,大连东帝房地产开发有限公司,中山,20190516,38.91828093658718,121.66259221532148,南山2009,1,30102,无物业管理服务,-,辽宁,1,二手房,2010
无门店信息,大连,大连开发区世元房地产开发有限公司,开发区,20190516,34.52713835999158,118.76812980670795,世元海都花园,1,13153,龙祥物业管理有限公司,0.8,辽宁,1,二手房,1990
沙河口区联合路133号,大连,亿达集团大连房地产开发有限公司,沙河口,20190516,38.91608561262676,121.60480987310456,21中亿达广场,1,21451,亿达物业管理有限公司,1.2,辽宁,1,二手房,1999
西岗区长春路334号,大连,无开发商,西岗,20190516,38.89807766522607,121.63221082858387,新金巷,1,9594,无物业管理服务,-,辽宁,1,二手房,1999
西岗区九三街64号,大连,暂无信息,西岗,20190516,38.92047268927287,121.61862512554262,珠江国际大厦,1,6535,街道办事处（居委会）代管物业,20,辽宁,1,二手房,2004
西岗区新田巷11号三单元103,大连,无开发商,西岗,20190516,38.89276612016956,121.64190731791966,新水巷,1,11977,无物业管理服务,-,辽宁,1,二手房,1990
高新园区敬贤街25-9,大连,大连名仕煜光房地产开发有限公司,高新园区,20190516,38.86879447142154,121.53007349209936,名仕智慧谷,20,21362,大连名仕物业管理有限公司,2.5,辽宁,1,二手房,2012
甘井子区促进路30号2-1-1,大连,无开发商,甘井子,20190516,38.954133128707575,121.58355746311207,香周路,5,12569,无物业管理服务,0.1,辽宁,1,二手房,1987
沙河口区富民路249号,大连,大连浩胜房地产开发有限公司,沙河口,20190516,38.93341510428133,121.5770130002514,万棵树,13,19911,大连华安物业管理有限公司,2.1,辽宁,1,二手房,2016
大连市沙河口区黄河路729号,大连,无开发商,沙河口,20190516,38.91710565765228,121.58954758972729,好利高层,7,12048,无物业管理服务,-,辽宁,1,二手房,1995
中山区清溪南街11号,大连,大连澳南房屋开发有限公司,中山,20190516,38.88919604283904,121.66466481004835,清溪南苑,3,18486,大连中园房地产物业公司,0.6,辽宁,1,二手房,2003
中山区金城街26号一楼,大连,无开发商,中山,20190516,38.922282529515634,121.65214466263014,39中柳林街,7,25512,街道办事处（居委会）代管物业,-,辽宁,1,二手房,1992
沙河口区华新苑10号楼4号公建,大连,大连新型房地产开发有限公司,沙河口,20190516,38.94033750532864,121.58990295130229,华新苑,8,13167,大连新型物业管理有限公司,0.5,辽宁,1,二手房,2003
金州区小平岛B组团4号楼3号商铺,大连,大连安达房地产开发有限公司,高新园区,20190516,39.05643299166072,121.78943558267059,小平岛E西组团,6,23639,大连凯尔富物业管理有限公司,1.3,辽宁,1,二手房,2007
中山区金城街26号一楼,大连,暂无信息,中山,20190516,38.922282529515634,121.65214466263014,九中华昌街,3,44546,暂无信息,-,辽宁,1,二手房,-
中山区安居巷7号,大连,无开发商,中山,20190516,38.92451111549568,121.65154739366945,上海路（中山友好）,5,11337,无物业管理服务,-,辽宁,1,二手房,1995
中山区职工街96号1-3层公建,大连,暂无信息,中山,20190516,38.92565613737007,121.66193575790903,云程巷（三八广场）,1,13571,街道办事处（居委会）代管物业,-,辽宁,1,二手房,1994
西岗区康平街2号（5号楼3-1-3号）,大连,无开发商,西岗,20190516,38.91044414697888,121.61980769264477,纪念东巷,5,11313,无物业管理服务,-,辽宁,1,二手房,1997
中山区鲁迅路204号百盛新药特药商店一楼西侧部分,大连,大连东亚房地产开发有限公司,中山,20190516,38.9258993614899,121.6768880001226,蓝色海岸,8,14348,大连峰霖物业管理有限公司,0.5,辽宁,1,二手房,2002
中山区高尚路28-1号,大连,无开发商,中山,20190516,38.892673425111305,121.67148833870213,高福街,9,10791,无物业管理服务,-,辽宁,1,二手房,1994
开发区安盛里5栋-4,大连,无开发商,开发区,20190516,23.112106678834838,113.27801046214822,醒港春园,2,7140,街道办事处（居委会）代管物业,0.5,辽宁,1,二手房,1998
西岗区黄河路82号,大连,无开发商,西岗,20190516,38.92243503020161,121.6287927913896,昌乐街（大菜市商圈）,5,11257,无物业管理服务,-,辽宁,1,二手房,1995
西岗区八一路196号2-1-12号,大连,暂无信息,西岗,20190516,38.92047268927287,121.61862512554262,八一路（新起屯商圈）,1,12261,无物业管理服务,-,辽宁,1,二手房,1995
甘井子区祥溢园4号1单元1层9号公建,大连,暂无信息,甘井子,20190516,38.92981664067587,121.54940314023253,千叶美居,1,11362,街道办事处（居委会）代管物业,0.5,辽宁,1,二手房,2004
沙河口区前程街46号4—1—2号,大连,大连渤海红旗集团有限公司,甘井子,20190516,38.913544290955585,121.59450670056631,前景街,2,11286,渤海吉祥物业管理有限公司,0.4,辽宁,1,二手房,1999
中山区职工街96号1-3层公建,大连,无开发商,中山,20190516,38.92565613737007,121.66193575790903,明泽街（三八广场）,2,13611,无物业管理服务,-,辽宁,1,二手房,1993
沙河口区星海广场B3区14-9,大连,半岛集团,沙河口,20190516,38.88708614275256,121.58732027085938,半岛听涛,16,22747,大连半岛物业管理有限公司,2.6,辽宁,1,二手房,2007
中山区民运巷 47号1层2号,大连,无开发商,中山,20190516,38.905955122300846,121.64798148011702,教育二巷,5,10340,无物业管理服务,-,辽宁,1,二手房,1977
无门店信息,大连,大连中连房地产开发有限公司,金州,20190516,34.52713835999158,118.76812980670795,上河雲珠,1,8988,大连中鸣物业服务有限公司,0.5,辽宁,1,二手房,2009
开发区金马路169-2-6号房屋,大连,暂无信息,开发区,20190516,39.057398235688176,121.78261137849105,华堂大厦,8,9989,街道办事处（居委会）代管物业,1.5,辽宁,1,二手房,2006
沙河口区昌黎街77号楼第1层公建,大连,大连机车商业城有限公司,沙河口,20190516,38.91974518366595,121.5902918379551,福佳新天地地下商铺,0,25096,暂无信息,5,辽宁,1,二手房,2000
开发区大开高吉里33栋6号,大连,大连开建房地产开发有限公司,开发区,20190516,39.07355836059941,121.8280439450145,山海一步小区,5,7495,无物业管理服务,0.3,辽宁,1,二手房,2000
沙河口区五四路207-1-9号,大连,无开发商,沙河口,20190516,38.913544290955585,121.59450670056631,集贤南一街,1,12909,无物业管理服务,-,辽宁,1,二手房,1992
中山区职工街96号1-3层公建,大连,大连天通房地产开发有限公司,中山,20190516,38.92565613737007,121.66193575790903,天通金融大厦,4,10934,无物业管理服务,-,辽宁,1,二手房,2006
甘井子区金家街17-7号,大连,暂无信息,甘井子,20190516,38.97493697764367,121.60110987128529,金家街,5,20691,无物业管理服务,-,辽宁,1,二手房,1970
中山区北斗街53号1层1号,大连,暂无信息,中山,20190516,38.92727355733075,121.67002970974048,温州城,0,8707,暂无信息,-,辽宁,1,二手房,-
中山区金城街26号一楼,大连,暂无信息,中山,20190516,38.922282529515634,121.65214466263014,枫林苑,4,28502,无物业管理服务,-,辽宁,1,二手房,1998
金州新区八一路金都嘉园1号楼1号公建,大连,大连兴悦房地产有限公司,金州,20190516,39.05525210261778,121.74865634199398,悦泰祥里,7,7375,大连百安物业管理有限公司,0.8,辽宁,1,二手房,2010
沙河口区星海广场B3区14-9,大连,无开发商,沙河口,20190516,38.88708614275256,121.58732027085938,星海三街,3,12699,街道办事处（居委会）代管物业,0.5,辽宁,1,二手房,-
中山区安居巷7号,大连,大连鸿霖房地产开发有限公司,中山,20190516,38.92451111549568,121.65154739366945,喜临门大厦,4,9563,大连凯立宏物业管理有限公司,3.2,辽宁,1,二手房,2007
沙河口区连山街10号2-1-2,大连,大连城市建设集团有限公司,沙河口,20190516,38.89637522563413,121.57143690983219,星苑小区,11,11010,大连城建开发集团物业管理有限公司,0.2,辽宁,1,二手房,1994
沙河口区连山街44-2号半地下一层（地上一层部分）,大连,无开发商,沙河口,20190516,38.892991456958086,121.57299542767161,星海嘉园,2,16428,街道办事处（居委会）代管物业,0.5,辽宁,1,二手房,2001
中山区安居巷7号,大连,无开发商,中山,20190516,38.92451111549568,121.65154739366945,邮电公寓,4,10507,无物业管理服务,-,辽宁,1,二手房,1999
西岗区八一路102号,大连,无开发商,西岗,20190516,38.92047268927287,121.61862512554262,智勇巷,5,10523,无物业管理服务,-,辽宁,1,二手房,1989
中山区南山路59号1层4号,大连,暂无信息,中山,20190516,38.91992239075882,121.6479206962747,仁义街（昆明街）,2,15889,暂无信息,-,辽宁,1,二手房,1988
中山区金城街26号一楼,大连,无开发商,中山,20190516,38.922282529515634,121.65214466263014,武汉街（中山友好商圈）,3,12564,无物业管理服务,-,辽宁,1,二手房,1991
中山区华乐街71号公建,大连,无开发商,中山,20190516,38.923187679200566,121.6843197903016,港院街,1,9767,无物业管理服务,-,辽宁,1,二手房,1992
甘井子区促进路30号2-1-1,大连,无开发商,甘井子,20190516,38.954133128707575,121.58355746311207,柳河小区,9,11406,大连衡德物业管理有限公司,0.2,辽宁,1,二手房,1995
甘井子区祥龙街2号楼1单元1楼1号,大连,大连市大钢集团,甘井子,20190516,38.988045874482445,121.60439401971377,华南沃尔玛六三角,3,11671,街道办事处（居委会）代管物业,0.5,辽宁,1,二手房,1990
甘井子区红旗西路104-7,大连,大连盛达基业房地产开发有限公司,甘井子,20190516,38.940335495502666,121.52722586363274,依山云水二期,7,16190,大连盛新物业管理有限公司,0.6,辽宁,1,二手房,2007
沙河口区联合路133号,大连,暂无信息,西岗,20190516,38.91608561262676,121.60480987310456,拥政北街,2,15579,无物业管理服务,-,辽宁,1,二手房,1992
西岗区绕山路31号公建一层东侧,大连,无开发商,西岗,20190516,38.90257514466717,121.61412736644739,槐花大厦,10,9859,无物业管理服务,-,辽宁,1,二手房,1997
无门店信息,大连,无开发商,金州,20190516,34.52713835999158,118.76812980670795,伟桥嘉园,6,7540,无物业管理服务,0.5,辽宁,1,二手房,-
沙河口区长江路946号-9,大连,大连北洋房屋开发公司,沙河口,20190516,38.913544290955585,121.59450670056631,北洋小区,7,14926,大连天洋物业管理有限公司,0.5,辽宁,1,二手房,1999
沙河口区民权街324号,大连,无开发商,沙河口,20190516,38.92064616208148,121.59777611850379,79中恒泰大厦,5,21516,大连衡德物业管理有限公司,0.4,辽宁,1,二手房,1996
沙河口区鞍山路65号美都园7号1单元1层4号公建,大连,暂无信息,沙河口,20190516,38.92755211283745,121.60306664748275,鞍山路,2,9542,无物业管理服务,-,辽宁,1,二手房,1997
中山区鲁迅路184号1层B—A,大连,无开发商,中山,20190516,38.92590875965419,121.67594393403164,听海新居,1,22034,大连兆宇物业管理有限公司,0.6,辽宁,1,二手房,2003
金州区南棉路310号,大连,大连阿尔滨集团房地产开发有限公司,金州,20190516,39.09939229372624,121.72414976100345,荣盛小区,8,8511,街道办事处（居委会）代管物业,1,辽宁,1,二手房,2009
甘井子区锦城西园4#3-1-1,大连,沈阳军区后勤部,甘井子,20190516,38.95286223185571,121.55129044777,金寓花园一期,3,15704,大连瑞祥物业管理有限公司,0.5,辽宁,1,二手房,2003
西岗区平等街21号1层2号,大连,无开发商,西岗,20190516,38.92251066253164,121.63236845125735,通江街（大菜市商圈）,7,11205,无物业管理服务,0.5,辽宁,1,二手房,1995
中山区中南路226号,大连,大连恒祥房屋开发有限公司,中山,20190516,38.90029610333926,121.68178899957817,亿泰公寓,0,8496,大连远洋基业物业管理有限公司,1,辽宁,1,二手房,2005
西岗区长春路334号,大连,无开发商,西岗,20190516,38.89807766522607,121.63221082858387,迎春二巷,5,10993,无物业管理服务,-,辽宁,1,二手房,1995
西岗区八一路102号,大连,无开发商,西岗,20190516,38.92047268927287,121.61862512554262,优秀巷,4,11477,无物业管理服务,-,辽宁,1,二手房,1992
中山区安居巷7号,大连,无开发商,中山,20190516,38.92451111549568,121.65154739366945,德光巷,1,9962,无物业管理服务,-,辽宁,1,二手房,1990
西岗区鞍山路65-5号,大连,暂无信息,沙河口,20190516,38.926971569913064,121.60260230348328,振工街,3,13109,大连良运物业管理有限公司,1,辽宁,1,二手房,1999
沙河口区锦石路8号,大连,大连锦绣房地产开发有限公司,沙河口,20190516,38.94771288948481,121.56110903658733,锦绣小高层,10,12438,大连锦绣物业管理有限公司,0.6,辽宁,1,二手房,2000
中山区安居巷7号,大连,大连建通房地产开发有限公司,中山,20190516,38.92451111549568,121.65154739366945,民生松竹苑,2,15516,大连奎祥物业管理有限公司,1.1,辽宁,1,二手房,2003
中山区解放路604号,大连,大连雅风房屋开发有限公司,中山,20190516,38.89026319122045,121.66407876092346,桃源旺座,9,18552,大连豪斯沃克物业有限公司,1,辽宁,1,二手房,2007
中山区清溪南街11号,大连,暂无信息,中山,20190516,38.88919604283904,121.66466481004835,秀峰东园,3,14532,社区物业,-,辽宁,1,二手房,1994
中山区岭前街53-5,大连,无开发商,西岗,20190516,38.89487069426055,121.65795959631497,光风街,0,10436,无物业管理服务,-,辽宁,1,二手房,1993
甘井子区促进路200号,大连,大连鼎新房地产开发有限公司,甘井子,20190516,38.95810188892782,121.58530036264898,鼎新鼎云都,7,18833,大连鼎新物业管理有限公司,0.6,辽宁,1,二手房,2008
大连市金州新区友谊街道和平路59-10号1-2层公建,大连,无开发商,金州,20190516,39.112168401852266,121.72006917947859,新金州大厦,0,6971,街道办事处（居委会）代管物业,0.5,辽宁,1,二手房,2006
中山区金城街26号一楼,大连,无开发商,中山,20190516,38.922282529515634,121.65214466263014,39中白兰街（南山商圈）,6,24919,无物业管理服务,-,辽宁,1,二手房,1995
金州区南棉路310号,大连,暂无信息,金州,20190516,39.09939229372624,121.72414976100345,连胜小区,5,5948,无物业管理服务,0.5,辽宁,1,二手房,1995
西岗区新田巷11号三单元103,大连,大连莱茵海岸度假村有限公司,西岗,20190516,38.89276612016956,121.64190731791966,隆泉华庭,7,16616,大连万恒物业管理有限公司,1,辽宁,1,二手房,2003
西岗区平等街21号1层2号,大连,暂无信息,西岗,20190516,38.92251066253164,121.63236845125735,岐山街（大菜市商圈）,2,12217,无物业管理服务,-,辽宁,1,二手房,-
甘井子区玉湖街25号2单元1层3号,大连,大连恒峰房地产开发有限公司,甘井子,20190516,38.97626265183615,121.54617349027997,恒峰天泉小镇,17,18820,大连恒新物业管理有限公司,2,辽宁,1,二手房,2017
西岗区九三街64号,大连,大连坚柏房地产开发有限公司,西岗,20190516,38.92047268927287,121.61862512554262,越秀大厦,9,10627,大连越秀大厦物业管理有限公司,4,辽宁,1,二手房,2001
中山区碧浪园4号-3号,大连,大连铁路房地产开发有限责任公司,中山,20190516,38.89147289460474,121.69329560326236,山水家园二期,2,19185,大连铁道物业管理有限责任公司,0.5,辽宁,1,二手房,2003
中山区爱华街13号,大连,无开发商,中山,20190516,38.92541607518685,121.6535728031028,七一街,3,11697,无物业管理服务,-,辽宁,1,二手房,1993
中山区中青街87号一单元107,大连,无开发商,中山,20190516,38.90213494248529,121.65806522267005,葵英街（青云街商圈）,2,10278,无物业管理服务,-,辽宁,1,二手房,1992
金州区站前街道盛滨花园B区13号楼2号公建,大连,无开发商,金州,20190516,39.09609011892329,121.7335816409767,金源花园小区,21,6733,街道办事处（居委会）代管物业,0.5,辽宁,1,二手房,1998
开发区黄海西路201号107公建,大连,大连圣豪房地产开发有限公司,开发区,20190516,39.04942604506828,121.80126318235419,云顶国际公馆,24,5801,大连经济技术开发区圣豪物业管理有限公司,1.9,辽宁,1,二手房,2006
中山区武昌街武昌公寓6号公建,大连,暂无信息,中山,20190516,38.912280913445784,121.64921130527547,新兴小区,6,8914,暂无信息,0.5,辽宁,1,二手房,2000
金州新区八一路金都嘉园1号楼1号公建,大连,大连天程置业有限公司,金州,20190516,39.05525210261778,121.74865634199398,御河壹號,13,9923,大连天程置业有限公司,1.2,辽宁,1,二手房,2015
中山区鲁迅路184号1层B—A,大连,无开发商,中山,20190516,38.92590875965419,121.67594393403164,民寿里,8,14060,无物业管理服务,-,辽宁,1,二手房,1995
中山区解放路471-22号,大连,大连长策房屋开发有限公司,中山,20190516,38.901309943567504,121.65419095766659,捷山街（青云街商圈）,6,11806,无物业管理服务,0.5,辽宁,1,二手房,1992
西岗区新田巷27号1-2,大连,大连安大房屋开发有限公司,西岗,20190516,38.893215932589385,121.64103065169111,仲夏花园,4,14024,大连长风物业管理有限公司,0.4,辽宁,1,二手房,1997
中山区北斗街53号1层1号,大连,暂无信息,中山,20190516,38.92727355733075,121.67002970974048,太阳街（二七广场）,5,13074,暂无信息,-,辽宁,1,二手房,1996
中山区武昌街武昌公寓6号公建,大连,无开发商,中山,20190516,38.912280913445784,121.64921130527547,同福新居,5,13416,无物业管理服务,-,辽宁,1,二手房,2003
大连经济技术开发区同和里7栋-9号,大连,无开发商,开发区,20190516,39.04901984220615,121.7885236929847,山水花园小区,6,12659,大连经济技术开发区白石物业管理有限公司,0.5,辽宁,1,二手房,2000
无门店信息,大连,大连外贸集团开发公司,中山,20190516,34.52713835999158,118.76812980670795,山岭巷,10,12404,无物业管理服务,-,辽宁,1,二手房,1994
金州区同济路44号,大连,大连金世纪房地产经纪有限公司,金州,20190516,39.10476859984152,121.71234684495865,教师公寓,11,9314,大连恒天物业管理公司,-,辽宁,1,二手房,2010
西岗区八一路196号1-3,大连,无开发商,西岗,20190516,38.92047268927287,121.61862512554262,三环街（八一路商圈）,2,11489,无物业管理服务,-,辽宁,1,二手房,1990
大连市沙河口区黄河路729号,大连,无开发商,沙河口,20190516,38.91710565765228,121.58954758972729,黄河路（西安路商圈）,2,9551,无物业管理服务,-,辽宁,1,二手房,1995
沙河口区红旗东路18-22号2单元1楼3号,大连,暂无信息,沙河口,20190516,38.913544290955585,121.59450670056631,宏良小区,13,11449,街道办事处（居委会）代管物业,0.4,辽宁,1,二手房,2000
沙河口区黑石礁街5号1层1号,大连,大连鹏生房地产开发有限公司,沙河口,20190516,38.879813345473714,121.56313742300513,鹏辉广场,12,18512,大连新兴物业管理有限公司,0.5,辽宁,1,二手房,2000
大连经济技术开发区同和里7栋-9号,大连,无开发商,开发区,20190516,39.04901984220615,121.7885236929847,绿色家园小区,7,11148,大连经济技术开发区白石物业管理有限公司,0.5,辽宁,1,二手房,2002
中山区安居巷7号,大连,无开发商,中山,20190516,38.92451111549568,121.65154739366945,竹青街,2,10296,无物业管理服务,-,辽宁,1,二手房,1999
中山区杏林街66—5号,大连,大连万达房地产开发有限公司,中山,20190516,38.92572771377599,121.66490555592502,明泽苑,13,29153,大连万达物业管理有限公司,1.8,辽宁,1,二手房,1999
中山区鲁迅路184号1层B—A,大连,无开发商,中山,20190516,38.92590875965419,121.67594393403164,荣民街（二七商圈）,7,12251,无物业管理服务,-,辽宁,1,二手房,1999
无门店信息,大连,无开发商,金州,20190516,34.52713835999158,118.76812980670795,金渤海憬,21,7093,无物业管理服务,-,辽宁,1,二手房,2009
中山区职工街96号1-3层公建,大连,大连北良有限公司,中山,20190516,38.92565613737007,121.66193575790903,北良公寓,7,14124,大连北良物业管理有限公司,0.2,辽宁,1,二手房,1998
中山区南山路59号1层4号,大连,深圳市东山开发有限公司,中山,20190516,38.91992239075882,121.6479206962747,昆明花园,5,20731,深圳市东山物业管理有限公司,0.5,辽宁,1,二手房,2000
甘井子区知音园20号3单元1层1号,大连,亿达集团大连房地产开发有限公司,高新园区,20190516,38.95800216293212,121.53151895549547,亿达知音园,6,22995,亿达物业管理有限公司,0.5,辽宁,1,二手房,2001
无门店信息,大连,大连景和房屋开发有限公司,甘井子,20190516,34.52713835999158,118.76812980670795,怡华园,15,17133,大连景和物业管理有限公司,0.5,辽宁,1,二手房,2001
沙河口区西南路40号楼,大连,亿达房地产开发有限公司,沙河口,20190516,38.94143337232082,121.58616557598133,星浦庄园,14,12483,大连香都物业管理有限公司,0.5,辽宁,1,二手房,1997
中山区鲁迅路204号百盛新药特药商店一楼西侧部分,大连,无开发商,中山,20190516,38.9258993614899,121.6768880001226,荣泰街,13,12384,无物业管理服务,-,辽宁,1,二手房,1999
中山区爱华街13号,大连,无开发商,中山,20190516,38.92541607518685,121.6535728031028,红星街,2,14358,无物业管理服务,-,辽宁,1,二手房,1985
大连市金州区友谊街道南金华城25号1-2层1号,大连,大连金华房地产开发有限公司,金州,20190516,39.128677228885614,121.71356109978767,金华小区三期,12,8945,大连金华兴物业有限公司,1.2,辽宁,1,二手房,2009
西岗区八一路102号,大连,无开发商,西岗,20190516,38.92047268927287,121.61862512554262,杏红巷,8,10919,无物业管理服务,-,辽宁,1,二手房,1994
无门店信息,大连,远洋地产有限公司,开发区,20190516,34.52713835999158,118.76812980670795,远洋时代城二期,13,9499,大连远洋基业物业管理有限公司,1.5,辽宁,1,二手房,2012
沙河口区联合路133号,大连,暂无信息,沙河口,20190516,38.91608561262676,121.60480987310456,21中天兴花园二期,4,19919,大连万泰物业管理有限公司,0.5,辽宁,1,二手房,1998
沙河口区黄河路535号,大连,大连春达房屋开发有限公司,沙河口,20190516,38.91773777159567,121.60217159922856,79中数控大厦,9,24373,大连欧德物业管理有限公司,1.2,辽宁,1,二手房,2000
中山区鲁迅路184号1层B—A,大连,大连泰达新城建设发展有限公司,中山,20190516,38.92590875965419,121.67594393403164,泰达花园,8,21831,大连国合物业管理有限公司,1,辽宁,1,二手房,2000
甘井子区汇仁街22号,大连,中铁建（大连）置业有限公司,甘井子,20190516,38.99712640764999,121.58834420439493,动力院景二期汇善南园,23,16149,大连铁龙安居物业管理有限公司,0.7,辽宁,1,二手房,2007
西岗区康平街2号（5号楼3-1-3号）,大连,暂无信息,西岗,20190516,38.91044414697888,121.61980769264477,34中水仙街,4,30138,无物业管理服务,-,辽宁,1,二手房,1995
西岗区胜利路33号,大连,暂无信息,西岗,20190516,38.91309771954841,121.62500886627636,34中新开路,3,32612,无物业管理服务,-,辽宁,1,二手房,1995
西岗区绕山路31号公建一层东侧,大连,暂无信息,西岗,20190516,38.90257514466717,121.61412736644739,商都花园,6,12842,大连天河物业管理有限公司,0.3,辽宁,1,二手房,1993
沙河口区联合路133号,大连,大连建兴房屋开发有限公司,沙河口,20190516,38.91608561262676,121.60480987310456,21中学中山南苑,3,21625,大连自然物业管理有限公司,1.3,辽宁,1,二手房,2001
西岗区八一路196号1-3,大连,无开发商,西岗,20190516,38.92047268927287,121.61862512554262,荣信巷,6,12607,无物业管理服务,-,辽宁,1,二手房,1989
中山区清溪南街11号,大连,大连澳南房屋开发有限公司,中山,20190516,38.88919604283904,121.66466481004835,明秀嘉园,12,25327,大连澳南物业管理有限公司,1.2,辽宁,1,二手房,2007
中山区南山路59号1层4号,大连,无开发商,中山,20190516,38.91992239075882,121.6479206962747,祝胜街（昆明街）,5,15889,无物业管理服务,-,辽宁,1,二手房,1988
沙河口区民权街324号,大连,无开发商,沙河口,20190516,38.92064616208148,121.59777611850379,富鸿国际大厦,6,14032,北京凯莱物业管理有限公司大连分公司,1.5,辽宁,1,二手房,2000
中山区中南路226号,大连,大连华钧房地产开发有限公司,中山,20190516,38.90029610333926,121.68178899957817,半山花园,4,12148,大连仁和物业管理有限公司,0.7,辽宁,1,二手房,2000
大连市高新园区七贤中路63号,大连,大连龙海房地产开发有限公司,高新园区,20190516,38.86053006357667,121.53273606963094,华录园,14,14582,无物业管理服务,-,辽宁,1,二手房,1995
中山区北斗街53号1层1号,大连,无开发商,中山,20190516,38.92727355733075,121.67002970974048,四海一家,9,16342,大连中杰物业管理有限公司,1.3,辽宁,1,二手房,2002
沙河口区五四路207-1-9号,大连,无开发商,沙河口,20190516,38.913544290955585,121.59450670056631,集贤北街,3,13425,无物业管理服务,0.5,辽宁,1,二手房,1995
金州区同济路44号,大连,大连金州金山房地产开发有限公司,金州,20190516,39.10476859984152,121.71234684495865,金山苑小区,20,8747,大连金山物业管理有限公司,-,辽宁,1,二手房,2000
中山区安居巷7号,大连,无开发商,中山,20190516,38.92451111549568,121.65154739366945,修竹街,7,11679,无物业管理服务,-,辽宁,1,二手房,1993
中山区爱华街13号,大连,无开发商,中山,20190516,38.92541607518685,121.6535728031028,万民街（三八广场）,4,12575,无物业管理服务,-,辽宁,1,二手房,1993
开发区杏树里10栋-14,大连,大连经济技术开发区城市建设开发有限公司,开发区,20190516,39.08113818354046,121.78505742127606,杏林山庄三期,10,9234,大连经济技术开发区杏林物业管理有限公司,1,辽宁,1,二手房,2010
中山区民运巷 47号1层2号,大连,无开发商,中山,20190516,38.905955122300846,121.64798148011702,葵英街（武昌街商圈）,6,13182,无物业管理服务,-,辽宁,1,二手房,1990
西岗区长春路334号,大连,无开发商,西岗,20190516,38.89807766522607,121.63221082858387,纪念街(石道街商圈),11,11506,无物业管理服务,-,辽宁,1,二手房,1990
金州区小平岛B组团4号楼3号商铺,大连,大连圣岛房地产开发有限公司,高新园区,20190516,39.05643299166072,121.78943558267059,小平岛,5,17503,大连凯尔富物业管理有限公司,1.3,辽宁,1,二手房,2007
沙河口区中山路417A-4号,大连,无开发商,沙河口,20190516,38.90740323140171,121.59484801084653,太原街,5,12374,无物业管理服务,-,辽宁,1,二手房,1992
甘井子区华龙南园34-5号34-库4号34-5号,大连,中信集团大连中信房地产开发公司,甘井子,20190516,38.98270467597865,121.6117222765123,惠丰小区,24,9772,大连中信物业管理有限公司,0.2,辽宁,1,二手房,1989
无门店信息,大连,暂无信息,西岗,20190516,34.52713835999158,118.76812980670795,华良海景花园,8,22275,香港侨乐物业管理（中国）有限公司,1.5,辽宁,1,二手房,2004
西岗区八一路102号,大连,无开发商,西岗,20190516,38.92047268927287,121.61862512554262,鸣鹤西巷,7,11457,无物业管理服务,-,辽宁,1,二手房,2000
金州区拥政街道733号-8号1-2层,大连,无开发商,金州,20190516,39.11690610445662,121.73030803603723,建兴苑,35,7223,街道办事处（居委会）代管物业,0.5,辽宁,1,二手房,1999
沙河口区恒利园42号-8,大连,大连三寰房屋开发有限公司,沙河口,20190516,38.93357562498634,121.57914091532649,三寰芳草园,21,15922,大连空港物业管理有限公司,0.4,辽宁,1,二手房,2003
沙河口区长江路738号,大连,大连民兴房地产开发有限公司,沙河口,20190516,38.913544290955585,121.59450670056631,79中民兴花园一期,8,27951,大连衡德物业管理有限公司,1.2,辽宁,1,二手房,2002
无门店信息,大连,无开发商,西岗,20190516,34.52713835999158,118.76812980670795,绿港湾商务公寓（大菜市商圈）,14,8821,街道办事处（居委会）代管物业,0.5,辽宁,1,二手房,2009
中山区安居巷7号,大连,无开发商,西岗,20190516,38.92451111549568,121.65154739366945,胜利街（胜利桥北商圈）,5,10679,无物业管理服务,-,辽宁,1,二手房,1984
中山区安居巷7号,大连,无开发商,中山,20190516,38.92451111549568,121.65154739366945,长江路（民主广场商圈）,9,10790,无物业管理服务,-,辽宁,1,二手房,1980
中山区北斗街53号1层1号,大连,无开发商,中山,20190516,38.92727355733075,121.67002970974048,丹东街（二七商圈）,7,14014,无物业管理服务,-,辽宁,1,二手房,1990
中山区鲁迅路204号百盛新药特药商店一楼西侧部分,大连,大连港连房地产开发有限公司,中山,20190516,38.9258993614899,121.6768880001226,海港公寓（寺儿沟商圈）,16,12190,大连仁安物业管理有限公司,0.2,辽宁,1,二手房,1996
中山区安居巷7号,大连,大连铁路房地产开发有限责任公司,西岗,20190516,38.92451111549568,121.65154739366945,沈铁铭悦（大菜市商圈）,11,17567,大连铁路物业管理有限公司,1.5,辽宁,1,二手房,2014
开发区兴城路29-81层,大连,大连瑞宇置业有限公司,开发区,20190516,39.050214252167194,121.75835946441768,心海阳光,14,13198,大连经济技术开发区盛辉物业服务有限公司,1.8,辽宁,1,二手房,2015
甘井子区汇仁街19号12号楼1单元102室,大连,大连华南地产开发有限公司,甘井子,20190516,38.99746297497168,121.58917714380617,华南国际公寓,5,10638,大连顺达物业服务有限公司,1.7,辽宁,1,二手房,2005
中山区民运巷 47号1层2号,大连,无开发商,西岗,20190516,38.905955122300846,121.64798148011702,天富山庄,10,10082,大连天富物业管理有限公司,0.2,辽宁,1,二手房,1995
中山区华乐街71号公建,大连,首开集团,中山,20190516,38.923187679200566,121.6843197903016,首开铂郡,14,25590,北京燕侨物业管理有限公司大连分公司,3.8,辽宁,1,二手房,2016
大连市金州区友谊街道南金华城25号1-2层1号,大连,无开发商,金州,20190516,39.128677228885614,121.71356109978767,宁海小区,43,6996,街道办事处（居委会）代管物业,0.5,辽宁,1,二手房,1997
金州区站前街道盛滨花园B区13号楼2号公建,大连,无开发商,金州,20190516,39.09609011892329,121.7335816409767,联胜花园,16,7901,大连连胜物业管理有限公司,0.5,辽宁,1,二手房,1999
沙河口区新生路万客园3-7,大连,大连公屋发展有限公司,沙河口,20190516,38.94412875710208,121.57006756704837,春柳人家,1,15988,大连德衡物业管理有限公司,0.5,辽宁,1,二手房,2003
西岗区鞍山路65-5号,大连,大连中盛集团有限公司,沙河口,20190516,38.926971569913064,121.60260230348328,中盛家园,13,20870,大和中盛物业管理有限公司,1.5,辽宁,1,二手房,2002
金州新区八一路金都嘉园1号楼1号公建,大连,无开发商,金州,20190516,39.05525210261778,121.74865634199398,古城丙区,65,7338,街道办事处（居委会）代管物业,0.5,辽宁,1,二手房,1997
沙河口区西南路358号1—2号,大连,无开发商,沙河口,20190516,38.90839654326566,121.56908246905662,龙岗园,7,12552,大连嘉和物业管理有限公司,0.2,辽宁,1,二手房,2001
无门店信息,大连,大连康阳房屋开发有限公司,甘井子,20190516,34.52713835999158,118.76812980670795,南岭新城二期,63,14042,大连鸿诚物业管理有限公司,0.4,辽宁,1,二手房,2005
大连市金州新区中长街道碧海尚城5-4号1-2层,大连,暂无信息,金州,20190516,39.100290954587514,121.7304796052032,富达小区,5,7318,无物业管理服务,-,辽宁,1,二手房,1998
西岗区新田巷11号三单元103,大连,大连市中联房地产开发有限公司,西岗,20190516,38.89276612016956,121.64190731791966,卧龙山庄,8,14175,大连健龙物业管理有限公司,0.5,辽宁,1,二手房,2001
无门店信息,大连,暂无信息,旅顺口,20190516,34.52713835999158,118.76812980670795,金川家园,22,11544,暂无信息,-,辽宁,1,二手房,-
开发区东北三街94号1层,大连,大连新天润企业集团有限公司,开发区,20190516,39.05723508011585,121.80570768630555,天都花园,17,8426,大连银海物业管理有限公司,0.5,辽宁,1,二手房,2002
中山区武昌街武昌公寓6号公建,大连,无开发商,中山,20190516,38.912280913445784,121.64921130527547,麒麟东巷,6,11130,无物业管理服务,-,辽宁,1,二手房,1990
中山区民建街10号1单元1号,大连,大连安达房地产开发有限公司,中山,20190516,38.925444479476894,121.66915026954452,39中安达大厦公寓楼,6,18505,大连凯尔富物业管理有限公司,2.8,辽宁,1,二手房,2009
中山区安居巷7号,大连,广州海都房地产开发有限公司,中山,20190516,38.92451111549568,121.65154739366945,海景花园,11,9297,大连戴德梁行物业管理有限公司,0.8,辽宁,1,二手房,1995
无门店信息,大连,暂无信息,高新园区,20190516,34.52713835999158,118.76812980670795,小平岛圣汐湾,1,22460,大连凯尔物业管理有限责任公司,1.3,辽宁,1,二手房,2000
大连市甘井子区逸林南园1-1号,大连,大连三联置业有限公司,甘井子,20190516,38.95800216293212,121.53151895549547,三鼎春天,66,25073,瑞联德（大连）物业管理有限公司,2.8,辽宁,1,二手房,2018
甘井子区泉水B5区27-9,大连,大连万锦房地产开发有限公司,甘井子,20190516,39.01477152073682,121.60970286326823,万锦民悦一期,11,12807,大连瑞祥物业管理有限公司,0.5,辽宁,1,二手房,2007
中山区武昌街武昌公寓6号公建,大连,无开发商,中山,20190516,38.912280913445784,121.64921130527547,解放路（武昌街商圈）,7,12379,无物业管理服务,-,辽宁,1,二手房,1980
甘井子区金家街17-7号,大连,大连三业房地产开发有限公司,甘井子,20190516,38.97493697764367,121.60110987128529,紫金枫尚,12,24678,亿达物业管理有限公司,0.8,辽宁,1,二手房,2007
西岗区胜利路33号,大连,暂无信息,西岗,20190516,38.91309771954841,121.62500886627636,34中兴民街,12,27476,无物业管理服务,-,辽宁,1,二手房,1970
中山区共建巷61号,大连,大连恒盛房屋开发有限公司,中山,20190516,38.91828093658718,121.66259221532148,月恒花园,8,27422,大连佳捷物业管理有限公司,0.8,辽宁,1,二手房,2001
