address,city,developer,district,index_date,lat,lng,name,osv,price,property,property_fee,province,tv,type,year
大连市金州区站前街道生辉第一城14-3号1-2层,大连,大连新希望家园房地产有限公司,金州,20180929,39.0569681786798,121.74773530665969,新希望家园,126,8149,大连新希望物业服务有限公司,1.2,辽宁,26,二手房,2009
甘井子区榆林街37号-12公建,大连,大连新型房地产开发有限公司,甘井子,20180929,38.980133141940186,121.52779506952932,泡崖美林园,198,11513,大连新型物业管理有限公司,0.3,辽宁,35,二手房,2003
金州区金润小区B区861单元102,大连,大连辽大房地产开发有限公司,金州,20180929,39.10615165380565,121.74639264534615,金润小区A区,127,8404,大连新兴物业管理有限公司,0.5,辽宁,22,二手房,2005
大连经济技术开发区东城天下98-14,大连,大连乾豪集团有限公司,开发区,20180929,39.069195091289004,121.8502099927954,东城天下,263,9155,大连远洋基业物业管理有限公司,0.9,辽宁,40,二手房,2005
沙河口区沙能街101号1单元1层1号,大连,大连新型房地产开发有限公司,沙河口,20180929,38.9366316275348,121.59031205759763,侯二小区,138,10119,街道办事处（居委会）代管物业,0.1,辽宁,27,二手房,1985
开发区湾里南12栋-16-17-18号,大连,大连金湾实业有限公司,开发区,20180929,39.070782084451,121.8506739675913,湾里南小区,276,8254,大连金湾物业管理有限公司,0.5,辽宁,36,二手房,2003
沙河口区华新苑10号楼4号公建,大连,大连新型房地产开发有限公司,沙河口,20180929,38.921778341674376,121.58261780680284,侯一小区,151,10713,大连新兴物业管理有限公司,0.3,辽宁,38,二手房,1989
开发区正恒园1-16,大连,大连华宇房地产开发有限公司,开发区,20180929,39.04823944344617,121.76165468797754,左岸经典,166,8470,大连豪之英物业管理有限公司,1.8,辽宁,35,二手房,2009
无门店信息,大连,大连益宁房地产开发有限公司,开发区,20180929,34.52713835999158,118.76812980670795,岭湾峰尚一期,107,8477,大连鸿达物业管理有限公司,1.3,辽宁,16,二手房,2009
金州区鹏程家园53#-8,大连,大连光伸房地产开发有限公司,开发区,20180929,39.0348243693741,121.81226722991913,绿洲半岛北岸,98,8736,大连经济技术开发区光伸物业服务有限公司,1.2,辽宁,16,二手房,2007
大连经济技术开发区时代城4-3号1-2号,大连,远洋地产有限公司,开发区,20180929,39.0992481321252,121.83007860699459,远洋时代城一期,121,8442,大连远洋基业物业管理有限公司,1.5,辽宁,16,二手房,2012
开发区湾里南12栋-16-17-18号,大连,大连金湾实业有限公司,开发区,20180929,39.070782084451,121.8506739675913,湾里东,172,8034,大连金湾物业管理有限公司,0.5,辽宁,18,二手房,2004
金州区金润花园B区47号1单元1层1号2号,大连,大连辽大房地产开发有限公司,金州,20180929,39.104347761505736,121.7451779647203,金润小区B区,109,7963,大连新兴物业管理有限公司,0.5,辽宁,19,二手房,2005
西岗区香炉礁24号1-1,大连,无开发商,西岗,20180929,38.91336952993919,121.6258229781024,香炉礁,97,10831,街道办事处（居委会）代管物业,0.1,辽宁,21,二手房,1979
甘井子区玉湖街25号2单元1层3号,大连,大连新型房地产开发有限公司,甘井子,20180929,38.97626265183615,121.54617349027997,泡崖四区,117,9599,大连新型物业管理有限公司,0.5,辽宁,19,二手房,2002
甘井子区玉丽街2号楼1单元4号公建,大连,大连新型房地产开发有限公司,甘井子,20180929,38.98705071699301,121.55513043130172,泡崖七区,92,10253,大连新兴物业管理有限公司,0.3,辽宁,15,二手房,1999
无门店信息,大连,大连世茂嘉年华置业有限公司,金州,20180929,34.52713835999158,118.76812980670795,世茂御龙海湾,53,8163,经纬物业(中国)有限公司,2,辽宁,14,二手房,2014
大连市开发区左岸经典正恒园1-17,大连,大连神洲众益集团有限公司,开发区,20180929,39.049057070649155,121.76187404250511,万国宫馆二期,78,11736,加拿大高力国际物业服务有限公司,2.4,辽宁,14,二手房,2009
高新园区火炬路18号,大连,大连海脉房地产开发有限公司,高新园区,20180929,38.937738080520404,117.39340752036043,MINI印象,100,15863,大连豪斯威物业管理有限公司,2.2,辽宁,14,二手房,2012
开发区黄海西路54号,大连,无开发商,开发区,20180929,39.047714586087785,121.76688238228269,凯伦凯悦,79,7780,大连凯悦物业管理有限公司,3.1,辽宁,14,二手房,2008
大连开发区金马路169-2-8号,大连,大连亿锋房地产实业有限公司,开发区,20180929,39.055616222703364,121.78435683280883,亿锋现代城,106,9658,亿锋豪景物业管理有限公司,1.1,辽宁,14,二手房,2006
甘井子区汇仁街22号,大连,远洋地产有限公司,甘井子,20180929,38.99712640764999,121.58834420439493,远洋广场,123,18089,大连远洋基业物业管理有限公司,1.4,辽宁,14,二手房,2010
中山区中青街43号,大连,大连圣北开发有限公司,中山,20180929,38.90150598268117,121.65711014604845,亿达云集,105,18903,亿达物业管理有限公司,1.9,辽宁,14,二手房,2015
沙河口区富民路120号4-1-1,大连,大连渤海红旗集团有限公司,沙河口,20180929,38.930937859528605,121.5647274237578,马栏小学北,69,9932,街道办事处（居委会）代管物业,0.2,辽宁,15,二手房,1989
开发区安盛里5栋-4,大连,大连开建集团有限公司,开发区,20180929,23.112106678834838,113.27801046214822,开建阳光馨苑,68,8673,大连开利物业管理有限公司,1.2,辽宁,15,二手房,2009
金州新区站前街道生辉第一城5号楼1-2层4号,大连,大连公路工程集团生辉房地产开发有限公司,金州,20180929,39.05839688242313,121.74629383174005,生辉第一城,105,9208,大连生辉物业管理有限公司,1.2,辽宁,15,二手房,2007
沙河口区西南路40号楼,大连,无开发商,沙河口,20180929,38.94141605900714,121.58612100465703,星海公园,47,12640,无物业管理服务,0.5,辽宁,15,二手房,1990
大连市甘井子区柳林园8-7号,大连,大连万科置业有限公司,甘井子,20180929,38.91290525308349,121.47673750074993,万科溪之谷,114,13822,大连万科物业服务有限公司,1.2,辽宁,15,二手房,2007
甘井子区宜居园10-1号房屋,大连,大连万科房地产开发有限公司,甘井子,20180929,39.000039431463165,121.52111738616489,万科魅力之城,158,14429,大连万科物业服务有限公司,1.5,辽宁,15,二手房,2012
西岗区三元街73号3单元1层2,大连,暂无信息,西岗,20180929,38.91459734722941,121.63112153703432,34中胜利路,5,28163,无物业管理服务,0.5,辽宁,15,二手房,1985
沙河口区昌黎街22号,大连,大连城市建设集团有限公司,沙河口,20180929,38.91975785098891,121.59109628369768,北昌平小区,97,13615,无物业管理服务,-,辽宁,13,二手房,1983
甘井子区虹城路503号1-1号,大连,大连新星房地产开发有限公司,甘井子,20180929,38.981193588625004,121.49964051837122,艾维尼小城,62,13526,大连生生物业有限公司,1.8,辽宁,11,二手房,2010
甘井子区华龙南园12-4-3-1-3,大连,大连鹏德房屋开发有限公司,甘井子,20180929,38.98528794231248,121.61028969481718,乐活源,60,10918,大连三和住邦物业管理有限公司,0.5,辽宁,11,二手房,2009
金州新区先进街道渤海街7-4号1-2层、7-3号1-2层,大连,原金州纺织厂房地产公司,金州,20180929,39.09342713035472,121.74590886291374,金纺小区,102,6192,街道办事处（居委会）代管物业,0.5,辽宁,10,二手房,1985
甘井子区玉云路27-3-1-3,大连,大连新型房地产开发有限公司,甘井子,20180929,38.97896234099927,121.55865563488358,泡崖三区,58,9994,大连新兴物业管理有限公司,0.5,辽宁,10,二手房,1995
无门店信息,大连,大连金湾实业有限公司,开发区,20180929,34.52713835999158,118.76812980670795,金湾山城,84,8221,大连金湾物业管理有限公司,0.1,辽宁,10,二手房,2009
大连经济技术开发区时代城4-3号1-2号,大连,远洋地产有限公司,开发区,20180929,39.0992481321252,121.83007860699459,远洋时代城三期,52,8460,大连远洋基业物业管理有限公司,1.5,辽宁,10,二手房,2012
甘井子区新兴路36号3-1-3,大连,大连新型房地产开发有限公司,甘井子,20180929,38.95546176066109,121.5285003794903,泡崖一区,70,10371,大连新兴物业管理有限公司,0.5,辽宁,10,二手房,1992
沙河口区兰田街33号,大连,无开发商,沙河口,20180929,38.926138912221084,121.56486022834609,辽师,33,11064,无物业管理服务,-,辽宁,10,二手房,1970
沙河口区南沙街36号台二2号1-1-37,大连,无开发商,沙河口,20180929,38.90741410359388,121.57685699961822,南沙,64,10472,无物业管理服务,1,辽宁,10,二手房,1995
开发区润海园中区62-9,大连,华润（大连）房地产有限公司,开发区,20180929,39.04047273176333,121.76392358042445,华润海中国四期,111,12551,华润物业（大连）有限公司,3.1,辽宁,10,二手房,2014
甘井子区华北路花锦园28号23-3-1-2建筑物,大连,大连东特房地产开发有限公司,甘井子,20180929,38.951627958411166,121.5739439799003,东特新天地,23,15262,大连瑞祥物业管理有限公司,0.5,辽宁,10,二手房,2003
沙河口区西南路643号,大连,大连泰安房地产开发有限公司,沙河口,20180929,38.943483429804665,121.5833555851182,幸福小区,40,11313,大连三宝物业发展有限公司,0.3,辽宁,10,二手房,1998
沙河口区西南路643号,大连,无开发商,沙河口,20180929,38.943483429804665,121.5833555851182,交通大学,52,11667,无物业管理服务,-,辽宁,10,二手房,1955
大连市甘井子区辛如街35号1单元1层1号,大连,大连新星房地产开发有限公司,甘井子,20180929,38.96862607066881,121.52294869064194,新星绿城五期,45,12797,大连生生物业有限公司,0.8,辽宁,10,二手房,2009
甘井子区红旗花园23号楼19-24轴公建,大连,大连红旗兴达房地产开发有限公司,甘井子,20180929,38.93108029984587,121.54902145022133,兴达花园,74,11755,大连万泰物业管理有限公司,0.3,辽宁,10,二手房,2000
甘井子区千山路66号楼2单元1楼2号,大连,大连宜和房地产开发有限公司,甘井子,20180929,38.985716774397915,121.58287796391829,盛世闲庭,47,13999,大连衡德物业管理有限公司,0.5,辽宁,10,二手房,2003
甘井子区静林街34号4单元1层2,大连,大连祥盛房屋开发有限公司,甘井子,20180929,38.98321485010885,121.58185179833856,千山心城,110,13731,大连百特物业管理有限公司,0.5,辽宁,10,二手房,2003
沙河口区富民路120号4-1-1,大连,大连渤海红旗集团有限公司,沙河口,20180929,38.930937859528605,121.5647274237578,马栏小学南,49,10357,大连辽南物业管理有限公司,0.5,辽宁,11,二手房,1995
甘井子区千山路26号,大连,大连嘉兴房地产开发有限公司,甘井子,20180929,38.985697948031984,121.58768860037272,千山路,55,11858,无物业管理服务,0.5,辽宁,11,二手房,1989
甘井子区金北路17号,大连,无开发商,甘井子,20180929,38.97553393692831,121.59969720502335,76中学桥北,49,17022,无物业管理服务,-,辽宁,8,二手房,1970
沙河口区西南路161号,大连,无开发商,沙河口,20180929,38.89269676588945,121.56639953951542,孙家沟,73,12520,无物业管理服务,-,辽宁,11,二手房,1990
中山区中南路店212号门头房,大连,无开发商,中山,20180929,38.91149759691359,121.67700561077149,中南路,63,12431,街道办事处（居委会）代管物业,0.5,辽宁,11,二手房,1990
无门店信息,大连,大连亚联房地产开发有限公司,甘井子,20180929,34.52713835999158,118.76812980670795,翡翠春城,28,13021,大连亚联物业管理有限公司,1.6,辽宁,8,二手房,2012
中山区益民街16号1层1号,大连,大连恒力德实业开发有限公司,中山,20180929,38.93092761298906,121.66470740073377,港湾壹号,43,14678,大连日航酒店物业管理有限公司,3.8,辽宁,8,二手房,2009
金州新区润海园中区18#2号,大连,华润置地（大连）有限公司,开发区,20180929,39.04047273176333,121.76392358042445,华润海中国二期,120,14079,华润物业（大连）有限公司,2.8,辽宁,8,二手房,2011
开发区润海园中区30-1,大连,华润置地（大连）开发有限公司,开发区,20180929,39.04047273176333,121.76392358042445,华润海中国一期,107,15388,华润物业（大连）有限公司,1.8,辽宁,8,二手房,2009
沙河口区富国街14号1-1-2,大连,大连浩江房地产开发有限公司,沙河口,20180929,38.901027106600836,121.59047734850638,和平现代城,65,15043,大连万科物业服务有限公司,1,辽宁,8,二手房,2005
甘井子区泉水D1区37-7号,大连,大连运腾房地产开发有限公司,甘井子,20180929,39.013992871679214,121.61921940045104,锦泉源D2区,178,11622,大连佳泰物业管理有限公司,0.5,辽宁,8,二手房,2005
甘井子区红旗西路104-7,大连,大连盛华房地产开发有限公司,甘井子,20180929,38.940012695252975,121.52780738260293,水映西山,37,13982,大连长青物业管理中心,0.9,辽宁,8,二手房,2007
西岗区香炉礁24号1-1,大连,大连新型房地产开发有限公司,西岗,20180929,38.91336952993919,121.6258229781024,金海花园西园,25,10797,无物业管理服务,0.5,辽宁,8,二手房,2001
甘井子区汇仁街22号,大连,大连永高房屋开发有限公司,甘井子,20180929,38.99712640764999,121.58834420439493,加州洋房,60,14852,大连怡和物业服务有限公司,0.9,辽宁,8,二手房,2008
甘井子区泉水A2区10-3号,大连,源祥房地产开发有限公司,甘井子,20180929,39.00419463553784,121.61128690376383,美域盛景,119,12503,大连新华物业管理有限公司,0.8,辽宁,8,二手房,2008
甘井子区祥溢园4号1单元1层9号公建,大连,大连长鹭房屋开发有限公司,甘井子,20180929,38.92981664067587,121.54940314023253,亲亲家园,66,13611,渤海吉祥物业管理有限公司,0.5,辽宁,8,二手房,2004
大连市金州新区中长街道碧海尚城5-4号1-2层,大连,无开发商,金州,20180929,39.1001690968934,121.73061017121415,碧海尚城,92,7718,街道办事处（居委会）代管物业,0.8,辽宁,9,二手房,2007
甘井子区千山路26号,大连,大连市大钢集团,甘井子,20180929,38.985697948031984,121.58768860037272,山东路,61,11567,街道办事处（居委会）代管物业,0.2,辽宁,9,二手房,1986
甘井子区锦城西园4#3-1-1,大连,大连锦绣房地产开发有限公司,沙河口,20180929,38.95286223185571,121.55129044777,锦华北园,58,13111,大连锦绣物业管理有限公司,0.6,辽宁,8,二手房,2002
开发区小孤山西里27栋-7号,大连,大连光伸房地产开发有限公司,开发区,20180929,39.0278711398559,121.8095276927579,绿洲半岛三期,24,9185,大连经济技术开发区光伸物业服务有限公司,0.6,辽宁,9,二手房,2005
沙河口区五一路177-1-1-1,大连,无开发商,沙河口,20180929,38.90485271510574,121.57313607267041,台山,81,10681,街道办事处（居委会）代管物业,0.2,辽宁,9,二手房,1987
金州新区站前街道生辉第一城5号楼1-2层4号,大连,大连新希望家园房地产有限公司,金州,20180929,39.05839688242313,121.74629383174005,新希望乐城,48,8822,大连新希望物业服务有限公司,1.6,辽宁,9,二手房,2013
大连市甘井子区七贤路8-3号,大连,大连万达商业地产有限公司,高新园区,20180929,38.86659077085588,121.5392980566355,万达海景公寓,83,10976,大连万达物业管理有限公司,2.9,辽宁,9,二手房,2013
甘井子区虹城路503号1-1号,大连,大连易和房地产集团有限公司,甘井子,20180929,38.981193588625004,121.49964051837122,岭秀滨城悦和东园,41,15944,大连易兴物业服务有限公司,1.3,辽宁,9,二手房,2009
沙河口区锦江园30号1层公建,大连,大连锦绣房地产开发有限公司,沙河口,20180929,38.921778341674376,121.58261780680284,锦江园,88,10947,大连锦绣物业管理有限公司,0.2,辽宁,9,二手房,1983
中山区秀月街37号1层2号,大连,无开发商,中山,20180929,38.88757907576307,121.66311065527876,桃仙小区,17,10903,街道办事处（居委会）代管物业,0.5,辽宁,7,二手房,1992
沙河口区西南路643号,大连,无开发商,沙河口,20180929,38.943483429804665,121.5833555851182,西关街,38,10705,无物业管理服务,-,辽宁,7,二手房,1995
开发区黄海西路54号,大连,中国铁路十三局,开发区,20180929,39.047714586087785,121.76688238228269,翠竹小区,102,6996,大连经济技术开发区中强物业管理有限公司,0.3,辽宁,7,二手房,1996
甘井子区泡崖六小区6号楼1单元1层2号,大连,大连新型房地产开发有限公司,甘井子,20180929,38.98033159306754,121.55920598894072,泡崖六区,34,10836,大连新型物业管理有限公司,0.3,辽宁,7,二手房,2002
无门店信息,大连,大连万科房地产开发有限公司,旅顺口,20180929,34.52713835999158,118.76812980670795,万科樱花园,25,11956,大连万科物业服务有限公司,2.6,辽宁,7,二手房,2014
沙河口区兰田街33号,大连,渤海恒达房屋开发有限公司,沙河口,20180929,38.926138912221084,121.56486022834609,西苑小区,24,11688,大连西苑物业管理有限公司,0.3,辽宁,7,二手房,1997
沙河口区红凌路137号,大连,大连大实企业集团房屋开发有限公司,甘井子,20180929,38.922699288974506,121.54713601744747,泊林阳光A区,8,12777,大连弘实物业管理有限公司,0.6,辽宁,7,二手房,2007
沙河口区前程街46号4—1—2号,大连,大连渤海红旗集团有限公司,甘井子,20180929,38.921778341674376,121.58261780680284,前程街,26,11558,渤海吉祥物业管理有限公司,0.4,辽宁,7,二手房,2000
沙河口区锦霞南园13号3-1-1,大连,大连锦绣房地产开发有限公司,沙河口,20180929,38.921778341674376,121.58261780680284,锦华南园,16,10628,大连锦绣物业管理有限公司,0.3,辽宁,7,二手房,2002
天河路173-2号 华润考拉22号公建,大连,华润置地（大连）开发有限公司,甘井子,20180929,23.147151253133927,113.3277313198351,华润考拉住区,57,15521,华润物业（大连）有限公司,2.5,辽宁,7,二手房,2015
中山区职工街96号1-3层公建,大连,大连嘉和房地产集团有限公司,中山,20180929,38.92565613737007,121.66193575790903,嘉和广场,57,15741,大连华安物业管理有限公司,3.8,辽宁,7,二手房,2014
开发区安盛里5栋-4,大连,大连汽贸房屋开发有限公司,开发区,20180929,23.112106678834838,113.27801046214822,东北明珠,42,11965,大连汽贸物业管理有限公司,1.5,辽宁,7,二手房,2007
开发区润海园中区65-7号1-2号,大连,华润（大连）房地产有限公司,开发区,20180929,39.04047273176333,121.76392358042445,华润海中国五期,71,14086,华润物业（大连）有限公司,3.1,辽宁,7,二手房,2015
开发区润海园中区18#2号,大连,大连布鲁科房地产开发有限公司,开发区,20180929,39.04047273176333,121.76392358042445,热岛黄金海岸,142,10526,大连戴德梁行物业管理有限公司,1.6,辽宁,7,二手房,2010
甘井子区锦城西园4#3-1-1,大连,大连锦绣房地产开发有限公司,沙河口,20180929,38.95286223185571,121.55129044777,锦霞北园,76,10783,大连锦绣物业管理有限公司,0.3,辽宁,7,二手房,1998
甘井子区红旗中路143号1层4号,大连,大连红旗兴达房地产开发有限公司,甘井子,20180929,38.93169566676921,121.5426632438217,兴达依山居,33,13636,大连金诚物业管理有限公司,0.3,辽宁,7,二手房,2004
高新园区火炬路18号,大连,大连奥泰房地产开发有限公司,高新园区,20180929,38.937738080520404,117.39340752036043,因特摩尔,52,17311,大连奥泰物业服务有限公司,2.6,辽宁,7,二手房,2011
沙河口区新生路万科园7—1号,大连,大连绿波房屋开发集团有限公司,沙河口,20180929,38.94440370819716,121.57117928210005,绿波小区,110,10513,大连绿波建设发展有限公司,0.2,辽宁,7,二手房,1998
甘井子区西南路979-7号公建,大连,无开发商,甘井子,20180929,38.96275592929325,121.5958698791777,八十中,0,15857,街道办事处（居委会）代管物业,0.9,辽宁,7,二手房,1999
甘井子区泉水B2区19-1号,大连,大连运达房地产集团有限公司,甘井子,20180929,39.0101309886317,121.60812584213187,锦泉源B1区,52,12417,大连佳泰物业管理有限公司,0.5,辽宁,6,二手房,2001
甘井子区促进路200号,大连,大连航宇房屋开发有限公司,甘井子,20180929,38.95810188892782,121.58530036264898,促进小区,18,10862,大连顺达物业服务有限公司,0.2,辽宁,6,二手房,1997
西岗区平等街21号1层2号,大连,暂无信息,西岗,20180929,38.92251066253164,121.63236845125735,实验小学英华街,88,20386,无物业管理服务,-,辽宁,6,二手房,1989
开发区兴城路29-81层,大连,大连亿锋房地产实业有限公司,开发区,20180929,39.05020829677517,121.7578103751747,亿锋广场二期,34,14491,大连广恒物业管理有限公司,2.5,辽宁,6,二手房,2015
西岗区九三街64号,大连,润德集团有限公司,西岗,20180929,38.92094787642578,121.62081970746283,润德广场,54,15285,大连润德物业管理有限公司,3.8,辽宁,6,二手房,2011
西岗区黄河路90号公建部分,大连,大连鼎森房地产开发有限公司,西岗,20180929,38.92234529815978,121.62829331825485,金宸国际,27,16284,英联华（香港）物业管理顾问有限公司,2.2,辽宁,6,二手房,2004
开发区红星海-B区89-1号,大连,远洋地产有限公司,开发区,20180929,39.027851194371685,121.80327394132297,红星海五期青屿蓝,138,12095,大连远洋基业物业管理有限公司,2.2,辽宁,6,二手房,2012
甘井子区红旗西路104-23,大连,大连鹏德房屋开发有限公司,甘井子,20180929,38.94011738361669,121.52831049836651,逸林派,17,14007,大连三和住邦物业管理有限公司,1.6,辽宁,6,二手房,2011
大连市沙河口区文萃街1号1-2-2；大连市沙河口区由家五小区五号楼1单元2层1,大连,大连理工科技城建设开发有限公司,高新园区,20180929,38.88596852074166,121.54389553303217,文萃轩小区,25,18434,街道办事处（居委会）代管物业,0.2,辽宁,6,二手房,1990
大连市甘井子区燕南园50号,大连,大连软件园发展有限公司,高新园区,20180929,38.90172480153224,121.5363466289672,东方圣克拉二期,33,25932,亿达物业管理有限公司,2.6,辽宁,6,二手房,2011
经济技术开发区城润万家62-8公建,大连,大连海汇房地产开发有限公司,开发区,20180929,39.06883436780937,117.72669530355309,城润万家,101,9155,大连正源物业服务有限公司,0.5,辽宁,6,二手房,2007
甘井子区哲林北园17-6号,大连,大连恒德房屋开发有限公司,甘井子,20180929,38.9600267109581,121.53876726228256,恒德橄榄季,42,20488,大连恒德物业服务有限公司,1.4,辽宁,6,二手房,2009
甘井子区泉水D6区51号,大连,大连金广集团,甘井子,20180929,39.00897610161069,121.61789300655198,枫丹丽城,54,15947,大连金广物业有限公司,1.5,辽宁,6,二手房,2012
大连市甘井子中华路街道汇畅街48号,大连,远洋地产有限公司,甘井子,20180929,39.00552323996268,121.59684207363269,远洋荣域,99,18833,远洋亿家物业服务股份有限公司大连分公司,2.8,辽宁,6,二手房,2016
西岗区平等街21号1层2号,大连,无开发商,西岗,20180929,38.92251066253164,121.63236845125735,实验小学同庆街,59,20808,无物业管理服务,-,辽宁,6,二手房,1990
甘井子区圣林南园3-3号,大连,大连广泰房屋开发有限公司,甘井子,20180929,38.95187275584195,121.54422808213874,美树日记,52,20544,大连华安物业管理有限公司,1.6,辽宁,6,二手房,2009
沙河口区锦霞南园13号4单元1层3号,大连,大连锦绣房地产开发有限公司,沙河口,20180929,38.921778341674376,121.58261780680284,锦华中园,42,13979,大连锦绣物业管理有限公司,0.5,辽宁,6,二手房,2001
甘井子区红旗中路143号1层4号,大连,大连保利红旗房地产开发有限公司,甘井子,20180929,38.93169566676921,121.5426632438217,保利西山林语,62,18252,保利物业服务有限公司,2.6,辽宁,6,二手房,2014
沙河口区前程街46号4—1—2号,大连,大连银地置业发展有限公司,沙河口,20180929,38.921778341674376,121.58261780680284,观山满庭芳,61,15332,大连新展物业管理有限公司,1,辽宁,6,二手房,2008
金州区同济路44号,大连,大连阿尔滨中辰置业有限公司,金州,20180929,39.10476859984152,121.71234684495865,瀛海金洲,52,7626,大连阿尔滨汇城物业服务有限公司,0.5,辽宁,7,二手房,2011
金州区南棉路310号,大连,无开发商,金州,20180929,39.09939229372624,121.72414976100345,南棉小区,90,7020,街道办事处（居委会）代管物业,0.5,辽宁,7,二手房,1990
开发区红梅小区19栋-2-1-1号,大连,无开发商,开发区,20180929,29.906498897603264,121.5913630631805,古耕国际酒店公寓,40,9151,街道办事处（居委会）代管物业,0.5,辽宁,7,二手房,2010
沙河口区连山街10号2-1-2,大连,大连城市建设集团有限公司,沙河口,20180929,38.89637522563413,121.57143690983219,莱州街,29,10967,无物业管理服务,-,辽宁,7,二手房,1990
金州区同济路44号,大连,大连金开信都房地产开发有限公司,金州,20180929,39.10476859984152,121.71234684495865,海天新界,35,7383,大连西海岸物业管理有限公司,1,辽宁,7,二手房,2011
甘井子区玉云路27-3-1-3,大连,暂无信息,甘井子,20180929,38.97896234099927,121.55865563488358,泡崖新六区,28,10619,大连新型物业管理有限公司,0.3,辽宁,6,二手房,2003
开发区润海园中区30-1,大连,华润（大连）房地产有限公司,开发区,20180929,39.04047273176333,121.76392358042445,华润海中国三期,131,14236,华润物业（大连）有限公司,3.1,辽宁,5,二手房,-
甘井子区山东路315号14栋1单元1跃2层13号,大连,华润置地（大连）有限公司,甘井子,20180929,39.00206212579579,121.59357231641214,华润置地广场二期,35,19360,华润物业（大连）有限公司,0.5,辽宁,5,二手房,2013
沙河口区恒利园42号-8,大连,大连三寰房屋开发有限公司,沙河口,20180929,38.93357562498634,121.57914091532649,三寰芳草园,17,14885,大连空港物业管理有限公司,0.4,辽宁,5,二手房,2003
莲花山路89-3号,大连,大连胜利路拓宽改造工程建设有限公司,沙河口,20180929,38.90273559371702,121.6046814926709,星海融汇,71,20030,大连星海湾商务区物业管理有限公司,1.5,辽宁,5,二手房,2014
中山区华乐街107-115号1单元1层2号,大连,大连金广地产集团有限公司,中山,20180929,38.92093821499401,121.68879267531725,金广东海岸,56,22307,大连金广物业有限公司,2.2,辽宁,5,二手房,2009
沙河口区黄浦路18号—5号公建,大连,大连良运房地产开发有限公司,高新园区,20180929,38.8771225143479,121.54427480390662,翰林观海,24,21524,大连良运物业管理有限公司,0.8,辽宁,5,二手房,2003
甘井子区绿洲园60号,大连,大连友谊合升房地产开发有限公司,甘井子,20180929,38.95390300214936,121.59409785747448,壹品天城,41,26598,大连富丽华物业管理有限公司,0.5,辽宁,5,二手房,2011
甘井子区芳韵街31号,大连,亿达集团大连房地产开发有限公司,甘井子,20180929,38.95628814568166,121.59125586946814,亿达世纪城,32,22325,亿达物业管理有限公司,0.9,辽宁,5,二手房,2002
甘井子区绿洲园60号,大连,大连新华房屋开发有限公司,甘井子,20180929,38.95390300214936,121.59409785747448,新华绿洲,69,17781,大连新华物业管理有限公司,0.5,辽宁,5,二手房,2003
甘井子区芳林街17号1单元1层1号,大连,大连亿达房地产股份有限公司,甘井子,20180929,38.96091976856697,121.58863625429588,唯美品格,57,30947,亿达物业管理有限公司,1.5,辽宁,5,二手房,2009
金州区先进街道陶然居公建2-2号1层,大连,大连金信集团房地产有限公司,金州,20180929,39.08283372756215,121.76170982507143,桃园小区,84,7353,街道办事处（居委会）代管物业,0.5,辽宁,6,二手房,1992
中山区高尚路28-1号,大连,无开发商,中山,20180929,38.892673425111305,121.67148833870213,高洁巷,35,10927,街道办事处（居委会）代管物业,0.5,辽宁,6,二手房,1993
无门店信息,大连,大连金地房地产开发有限公司,金州,20180929,34.52713835999158,118.76812980670795,金地新里程,45,6287,大连金铭物业管理有限公司,0.5,辽宁,6,二手房,2008
甘井子区玉丽街2号楼1单元4号公建,大连,暂无信息,甘井子,20180929,38.98705071699301,121.55513043130172,玉意街,44,9355,大连新兴物业管理有限公司,0.3,辽宁,6,二手房,2002
大连市金州区友谊街道南金华城25号1-2层1号,大连,大连友谊合升房地产开发有限公司,金州,20180929,39.128677228885614,121.71356109978767,恒达花园,28,6971,街道办事处（居委会）代管物业,0.5,辽宁,6,二手房,2004
西岗区香炉礁24号1-1,大连,无开发商,西岗,20180929,38.91336952993919,121.6258229781024,工人村,42,9636,街道办事处（居委会）代管物业,0.5,辽宁,6,二手房,1980
西岗区长春路334号,大连,无开发商,西岗,20180929,38.89807766522607,121.63221082858387,石葵路（石道街商圈）,8,10412,街道办事处（居委会）代管物业,0.5,辽宁,6,二手房,1995
金州区同济路44号,大连,大连金宸集团,金州,20180929,39.10476859984152,121.71234684495865,连大文润金宸三期,36,9080,大连四通物业管理有限公司,1,辽宁,6,二手房,2010
甘井子区甘井子路32号楼1单元1楼9号,大连,无开发商,甘井子,20180929,38.982488275116516,121.63345389253514,文体街,105,9683,街道办事处（居委会）代管物业,0.1,辽宁,6,二手房,1985
金州区凤祥路236-2,大连,大连德泰控股有限公司,金州,20180929,39.08547607514868,121.7749730382401,德泰岭秀逸城B区,69,10486,大连德泰物业管理有限公司,1.9,辽宁,6,二手房,2013
开发区金源南里14栋-11号一层部分，14号-12号一层部分,大连,大连开建房地产开发有限公司,开发区,20180929,39.06148997014026,121.82510513314875,金源北里安居小区,43,6797,嘉兴物业管理有限公司,0.3,辽宁,6,二手房,1999
中山区中南路226号,大连,大连海王府房地产开发有限公司,中山,20180929,38.90029610333926,121.68178899957817,海王府现代城,10,17653,街道办事处（居委会）代管物业,1,辽宁,5,二手房,2004
开发区杏树里10栋-14,大连,大连名城房地产开发有限公司,开发区,20180929,39.08113818354046,121.78505742127606,名城和顺人家,44,8446,大连君悦天下物业管理中心,0.5,辽宁,6,二手房,2010
开发区杏树里10栋-14,大连,大连华宇房地产开发有限公司,开发区,20180929,39.08113818354046,121.78505742127606,华宇凤凰城,49,7410,大连华宇物业管理有限公司,1,辽宁,5,二手房,2009
开发区鹏程家园66#-6、66#-7公建,大连,大连新天润企业集团有限公司,开发区,20180929,38.90045524508753,121.63339362744885,水御兰庭,27,10868,大连港力物业管理有限公司,1.1,辽宁,5,二手房,2007
中山区中南路店212号门头房,大连,峰尚房屋开发有限公司,中山,20180929,38.91149759691359,121.67700561077149,峰尚中南,11,15108,大连银洲物业管理有限公司,2.2,辽宁,5,二手房,2011
沙河口区锦石路8号,大连,大连锦绣房地产开发有限公司,沙河口,20180929,38.94771288948481,121.56110903658733,锦泉南园,43,11725,大连锦绣物业管理有限公司,0.3,辽宁,5,二手房,1996
中山区安居巷7号,大连,大连长荣房屋开发有限公司,中山,20180929,38.900436431991984,121.67796628922625,休斯顿公寓,13,14561,大连长荣物业管理有限公司,2.6,辽宁,5,二手房,2003
开发区小孤山西里27栋-7号,大连,远洋地产有限公司,开发区,20180929,39.0278711398559,121.8095276927579,红星海四期城市别馆二号,45,13112,大连远洋基业物业管理有限公司,3.5,辽宁,5,二手房,2012
开发区兴城路29-81层,大连,大连兆佳房地产开发有限公司,开发区,20180929,39.05020829677517,121.7578103751747,自由向,28,11963,大连华安物业管理有限公司,2.4,辽宁,5,二手房,2008
大连市甘井子区丰收路3-5号,大连,无开发商,甘井子,20180929,38.965377255081755,121.58288415324094,王家桥,34,15812,大连铁路物业管理有限公司,0.2,辽宁,5,二手房,1989
中山区民建街10号1单元1号,大连,无开发商,中山,20180929,38.925444479476894,121.66915026954452,39中明阳街,30,18898,无物业管理服务,-,辽宁,5,二手房,1993
沙河口区红凌路137号,大连,大连大实企业集团房屋开发有限公司,甘井子,20180929,38.922699288974506,121.54713601744747,泊林映山,14,11906,大连弘实物业管理有限公司,1.2,辽宁,5,二手房,2011
沙河口区锦霞南园13号3-1-1,大连,大连锦绣房地产开发有限公司,沙河口,20180929,38.921778341674376,121.58261780680284,锦霞南园,42,15561,大连锦绣物业管理有限公司,0.3,辽宁,5,二手房,1998
沙河口区黄埔路427号,大连,无开发商,高新园区,20180929,38.921778341674376,121.58261780680284,凌源街,34,12750,大连凌电物业管理有限公司,0.1,辽宁,5,二手房,1981
甘井子区泉水D1区10-2#1-1-7,大连,大连运达房地产集团有限公司,甘井子,20180929,39.014763910942854,121.61661407462454,锦泉源B4区,32,12258,大连佳泰物业管理有限公司,0.5,辽宁,5,二手房,2002
沙河口区五一路110-4号,大连,大连大重房屋开发有限公司,沙河口,20180929,38.90710946686282,121.58172564480427,星台花园一期,22,14423,大连大重房屋开发公司物业管理中心,1,辽宁,5,二手房,1998
金州新区先进街道渤海街7-4号1-2层、7-3号1-2层,大连,大连九鼎置地有限公司,金州,20180929,39.09342713035472,121.74590886291374,万科城,46,10833,大连万科物业服务有限公司,2.2,辽宁,5,二手房,2010
中山区碧浪园4号-3号,大连,无开发商,中山,20180929,38.89147289460474,121.69329560326236,碧海园,15,15853,大连远洋基业物业管理有限公司,0.5,辽宁,5,二手房,2000
开发区安盛里5栋-4,大连,大连盛铭资产管理有限公司,开发区,20180929,23.112106678834838,113.27801046214822,安盛花园,59,9325,大连经济技术开发区海青物业有限公司,1.1,辽宁,5,二手房,2003
大连市开发区左岸经典正恒园1-17,大连,大连神洲众益集团有限公司,开发区,20180929,39.049057070649155,121.76187404250511,万国宫馆一期,81,13603,加拿大高力国际物业服务有限公司,2.4,辽宁,5,二手房,2009
沙河口区富民路120号4-1-1,大连,大连银地置业发展有限公司,沙河口,20180929,38.930937859528605,121.5647274237578,观山蝶恋花,24,14323,大连银地置业物业有限公司,1,辽宁,5,二手房,2010
高新园区火炬路18号,大连,大连联合柏立置业有限公司,高新园区,20180929,38.937738080520404,117.39340752036043,柏悦国际公寓,34,18327,大连柏悦国际公寓管理有限公司,3.5,辽宁,5,二手房,2012
沙河口区兰田街33号,大连,无开发商,沙河口,20180929,38.926138912221084,121.56486022834609,兰玉街,13,10136,街道办事处（居委会）代管物业,0.4,辽宁,5,二手房,1990
甘井子区山东路315号14栋1单元1跃2层13号,大连,华润置地（大连）开发有限公司,甘井子,20180929,39.00206212579579,121.59357231641214,华润置地广场一期,58,20186,华润物业（大连）有限公司,2.8,辽宁,4,二手房,2013
沙河口区恒利园42号-8,大连,大连新华房屋开发有限公司,沙河口,20180929,38.93357562498634,121.57914091532649,新华同仁轩,32,18567,大连新华物业管理有限公司,0.6,辽宁,4,二手房,2000
甘井子祥龙街2号1-1-1,大连,大连恒新房地产开发有限公司,甘井子,20180929,39.00554266797988,121.6172971605072,华东人家,40,13541,大连福佳物业管理有限公司,1,辽宁,4,二手房,2007
"西岗区泰公街20号2层7号 西岗区久寿街22号1层14号""",大连,大连润德君城房地产开发有限公司,西岗,20180929,38.92600196862723,121.62141976476381,北京公园,23,23671,大连润德物业管理有限公司,2.2,辽宁,4,二手房,2010
西岗区黄河路362号公建,大连,大连万达商业地产有限公司,西岗,20180929,38.91819905243802,121.61365779430986,万达华府二期,30,19826,大连万景物业管理有限公司,1.6,辽宁,4,二手房,2006
甘井子区海口路77-4号公建,大连,大连鹏生房地产开发有限公司,甘井子,20180929,38.960286398428124,121.60305183172997,鹏辉新世纪,0,17131,大连鹏辉物业管理有限公司,0.6,辽宁,4,二手房,2003
沙河口区长江路738号,大连,勋业（大连）置业有限公司,西岗,20180929,38.92379936592553,121.61207696256155,远洋风景,52,19072,大连远洋风景物业服务中心,1.1,辽宁,4,二手房,2007
大连市金州新区友谊街道和平路59-10号1-2层公建,大连,无开发商,金州,20180929,39.112168401852266,121.72006917947859,古城乙区,65,6988,无物业管理服务,-,辽宁,5,二手房,1992
金州区金润小区B区861单元102,大连,暂无信息,金州,20180929,39.10615165380565,121.74639264534615,自然天城C区,15,6785,大连新生活物业管理有限公司,0.4,辽宁,5,二手房,2010
无门店信息,大连,大连中连房地产开发有限公司,金州,20180929,34.52713835999158,118.76812980670795,憬园河畔,21,7623,大连新生活物业管理有限公司,0.5,辽宁,5,二手房,2000
开发区杏花里13#楼-7号,大连,无开发商,开发区,20180929,31.31075067906954,120.63127837058457,杏花里,47,6208,大连经济技术开发区杏林物业管理有限公司,0.5,辽宁,5,二手房,1993
甘井子区玉丽街2号楼1单元4号公建,大连,暂无信息,甘井子,20180929,38.98705071699301,121.55513043130172,玉山路,16,10216,大连新兴物业管理有限公司,0.5,辽宁,5,二手房,2002
金州新区先进街道五一路350-1号1-2层,大连,无开发商,金州,20180929,39.095023587156554,121.74333264248519,康居小区,39,6319,街道办事处（居委会）代管物业,-,辽宁,5,二手房,1998
大连市金州新区友谊街道和平路59-10号1-2层公建,大连,无开发商,金州,20180929,39.112168401852266,121.72006917947859,和平小区,13,7215,街道办事处（居委会）代管物业,0.5,辽宁,5,二手房,1996
甘井子区华龙南园34-5号34-库4号34-5号,大连,中信集团大连中信房地产开发公司,甘井子,20180929,38.98270467597865,121.6117222765123,惠丰小区,25,8737,大连中信物业管理有限公司,0.2,辽宁,5,二手房,1989
无门店信息,大连,暂无信息,甘井子,20180929,34.52713835999158,118.76812980670795,金二街,51,19658,无物业管理服务,-,辽宁,5,二手房,1970
开发区红梅小区19栋-2-1-1号,大连,大连开发区世元房地产开发有限公司,开发区,20180929,29.906498897603264,121.5913630631805,世元国际公寓,39,10423,大连世元物业管理有限公司,2,辽宁,5,二手房,2009
高新园区聚贤路36号5幢1单元1层1号,大连,大连海创房地产开发有限公司,高新园区,20180929,32.31472011562832,119.46141263909165,谷歌里,40,15529,大连海创物业管理有限公司,1.2,辽宁,4,二手房,2009
甘井子区华龙南园12-4-3-1-3,大连,大连瑞祥房地产开发有限公司,甘井子,20180929,38.98528794231248,121.61028969481718,今都小区,52,10732,大连泰安物业管理有限公司,0.2,辽宁,4,二手房,1996
中山区中南路226号,大连,大连亿泰房屋开发有限公司,中山,20180929,38.90029610333926,121.68178899957817,亿泰庄园,16,16227,大连远洋基业物业管理有限公司,0.7,辽宁,4,二手房,1999
西岗区鞍山路29号龙畔锦城东门,大连,无开发商,西岗,20180929,38.92763470697088,121.61498923399098,北京街北,37,11817,无物业管理服务,-,辽宁,4,二手房,1988
中山区三八广场5号,大连,大连宏正房地产开发有限公司,中山,20180929,38.92540000551715,121.6642911149562,宏都嘉园,1,20565,大连宏进物业管理有限公司,0.5,辽宁,4,二手房,2002
大连市沙河口区黄河路729号,大连,无开发商,沙河口,20180929,38.91710565765228,121.58954758972729,南昌平小区,38,11203,街道办事处（居委会）代管物业,0.5,辽宁,4,二手房,1986
甘井子区柳树南街45-10号,大连,大连都源置业有限公司,甘井子,20180929,38.92567666296449,121.4841330254372,依云溪谷,36,12824,大连远洋物业管理有限公司,1.2,辽宁,4,二手房,2008
甘井子祥龙街2号1-1-1,大连,大连美辰房地产开发有限公司,甘井子,20180929,39.00554266797988,121.6172971605072,美辰香醒,32,14631,大连众和物业管理有限公司,1.4,辽宁,4,二手房,2012
西岗区香炉礁24号1-1,大连,中瑞置业（大连）有限公司,西岗,20180929,38.91336952993919,121.6258229781024,香周首府,33,16738,中融物业管理有限公司,3,辽宁,4,二手房,2014
甘井子区华龙南园34-5号34-库4号34-5号,大连,大连钧卫达房地产开发有限公司,甘井子,20180929,38.98270467597865,121.6117222765123,亲亲美境,20,11234,大连三和住邦物业管理有限公司,0.9,辽宁,4,二手房,2008
沙河口区五一路270-274号,大连,无开发商,高新园区,20180929,38.89104111985908,121.55325426578435,由家村,27,12103,无物业管理服务,-,辽宁,4,二手房,1990
沙河口区红旗东路18-22号2单元1楼3号,大连,大连渤海红旗集团有限公司,甘井子,20180929,38.921778341674376,121.58261780680284,红旗东路,32,9900,大连辽南物业管理有限公司,0.4,辽宁,4,二手房,1992
无门店信息,大连,北方沿海房地产开发（大连）有限公司,沙河口,20180929,34.52713835999158,118.76812980670795,星海大观,118,12434,北京世邦魏理仕物业管理服务有限公司大连分公司,4.4,辽宁,4,二手房,2008
甘井子区华龙南园34-5号34-库4号34-5号,大连,大连运达房地产集团有限公司,甘井子,20180929,38.98270467597865,121.6117222765123,泊岭紫郡,24,12080,大连怡和物业服务有限公司,0.9,辽宁,4,二手房,2009
甘井子区辛寨子街道中冶蓝城辛虹园39-7号公建,大连,大连中冶京诚置业有限公司,甘井子,20180929,38.98155611421408,121.49259383356096,中冶蓝城E区,27,13971,大连添翼物业服务有限公司,2,辽宁,4,二手房,2010
甘井子区泉水E1区27号-3公建,大连,大连百思泰置业有限公司,甘井子,20180929,39.002846129004375,121.61312453141336,钰桥中央庭院,30,15940,大连百嘉物业管理有限公司,1.8,辽宁,4,二手房,2014
开发区鹏程家园66#-6、66#-7公建,大连,大连神洲众益集团有限公司,开发区,20180929,38.90045524508753,121.63339362744885,众益阳光海岸,54,8967,大连万佳物业管理有限公司,1.2,辽宁,4,二手房,2005
甘井子区泉水D1区37-7号,大连,大连运腾房地产开发有限公司,甘井子,20180929,39.013992871679214,121.61921940045104,锦泉源D3区,67,12616,大连南虹物业管理有限公司,0.5,辽宁,4,二手房,2007
无门店信息,大连,大连金广地产集团有限公司,甘井子,20180929,34.52713835999158,118.76812980670795,泉水N3区,71,9978,无物业管理服务,0.5,辽宁,4,二手房,2000
无门店信息,大连,大连新跃房地产开发有限公司,金州,20180929,34.52713835999158,118.76812980670795,金海国际花园,69,7848,盘锦瀚新物业管理有限公司,1,辽宁,4,二手房,2015
沙河口区前程街46号4—1—2号,大连,大连渤海红旗集团有限公司,甘井子,20180929,38.921778341674376,121.58261780680284,里程巷,18,8324,大连台安物业管理中心,0.4,辽宁,4,二手房,1990
甘井子区泉水K2区1号-7,大连,暂无信息,甘井子,20180929,39.01148211821007,121.63131997900962,龙畔金泉五期K2区,39,11256,大连新兴物业管理有限公司,0.5,辽宁,4,二手房,2004
西岗区长春路334号,大连,无开发商,西岗,20180929,38.89807766522607,121.63221082858387,长春路（石道街商圈）,13,11971,无物业管理服务,-,辽宁,4,二手房,1989
沙河口区西南路643号,大连,无开发商,沙河口,20180929,38.943483429804665,121.5833555851182,恒达花园（沙河口）,11,11510,无物业管理服务,-,辽宁,4,二手房,1990
中山区武昌街武昌公寓6号公建,大连,无开发商,中山,20180929,38.912280913445784,121.64921130527547,气象街,22,18917,街道办事处（居委会）代管物业,0.5,辽宁,4,二手房,1989
甘井子区山东路127-2号,大连,大连市大钢集团,甘井子,20180929,38.99065559549029,121.59126483545545,苍山路,33,12487,街道办事处（居委会）代管物业,0.5,辽宁,4,二手房,1989
无门店信息,大连,大连运达房地产集团有限公司,甘井子,20180929,34.52713835999158,118.76812980670795,运达诺维溪谷一期,16,14185,大连运达物业有限公司,1.8,辽宁,4,二手房,2010
甘井子区泉水B5区27-9,大连,大连华智房地产开发有限公司,甘井子,20180929,39.014833760509994,121.60955220395961,华远新都汇广场,27,11297,街道办事处（居委会）代管物业,1,辽宁,4,二手房,2010
沙河口区黑石礁街3号1层1-1号,大连,大连辰熙房地产开发有限公司,沙河口,20180929,38.880058010307856,121.56313403908827,辰熙星海国际,12,15519,大连世邦友好物业管理有限公司,2.2,辽宁,4,二手房,2006
无门店信息,大连,大连宏鼎房地产开发有限公司,旅顺口,20180929,34.52713835999158,118.76812980670795,国宝星月湾,29,10494,哈尔滨新天地物业管理有限公司大连分公司,2.5,辽宁,4,二手房,2015
无门店信息,大连,大连乾豪集团有限公司,开发区,20180929,34.52713835999158,118.76812980670795,乾豪新界,39,9951,大连乾豪物业管理有限公司,1.7,辽宁,4,二手房,2015
沙河口区西南路643号,大连,无开发商,沙河口,20180929,38.943483429804665,121.5833555851182,北甸街,35,12296,无物业管理服务,-,辽宁,4,二手房,1985
甘井子区泉水B2区19-1号,大连,北方沿海房地产开发（大连）有限公司,甘井子,20180929,39.0101309886317,121.60812584213187,沿海鉴筑反正LOFT,23,12009,美佳物业管理（深圳）有限公司大连分公司,1.8,辽宁,4,二手房,2013
甘井子区宜居园10-1号房屋,大连,大连万科置业有限公司,甘井子,20180929,39.000039431463165,121.52111738616489,万科现在城,14,14256,暂无信息,2.2,辽宁,4,二手房,2015
甘井子区泉水P3区35-2号,大连,大连鑫成置业有限公司,甘井子,20180929,39.01527710332192,121.63580499384456,欧尚广场,34,12721,大连宏华物业服务有限公司,1.5,辽宁,4,二手房,2014
无门店信息,大连,大连一方生态城房地产开发有限公司,开发区,20180929,34.52713835999158,118.76812980670795,一方天鹅湖,39,6520,大连一方物业管理有限公司,2,辽宁,4,二手房,2010
沙河口区西南路40号楼,大连,无开发商,沙河口,20180929,38.94141605900714,121.58612100465703,杭州街,16,10091,无物业管理服务,-,辽宁,4,二手房,1990
沙河口区知心园10号公建,大连,大连软件园开发有限公司,高新园区,20180929,38.893977135945136,121.55667141994431,亿达国际新城,22,23127,亿达物业管理有限公司,1,辽宁,3,二手房,2004
中山区民运巷 47号1层2号,大连,无开发商,中山,20180929,38.905955122300846,121.64798148011702,民运巷,15,8983,无物业管理服务,-,辽宁,4,二手房,1996
甘井子区红旗中路143号1层4号,大连,大连长鹭房屋开发有限公司,甘井子,20180929,38.93169566676921,121.5426632438217,西街晶品,20,17792,大连万泰物业管理有限公司,0.8,辽宁,3,二手房,2006
甘井子区红旗花园23号楼19-24轴公建,大连,大连银泰房地产有限公司,甘井子,20180929,38.93108029984587,121.54902145022133,祥和园,17,13273,无物业管理服务,-,辽宁,3,二手房,2002
高新园区聚贤路36号5幢1单元1层1号,大连,大连海创房地产开发有限公司,高新园区,20180929,32.31472011562832,119.46141263909165,海创半山壹号,47,17256,大连海创物业管理有限公司,1.8,辽宁,3,二手房,2011
沙河口区绿清街12号,大连,大连绿波房屋开发集团有限公司,沙河口,20180929,38.93851335419565,121.57334844377094,绿波花园,26,13470,大连绿波建设发展有限公司,0.6,辽宁,3,二手房,2001
甘井子区中华路泉水A1区86号4单元1层1号,大连,大连运泽房地产开发有限公司,甘井子,20180929,39.0040066317761,121.60658685435251,润泽园,74,14782,大连城建开发集团物业管理有限公司,1.4,辽宁,3,二手房,2012
甘井子区海口路77-4号公建,大连,大连圣韬房地产开发有限公司,甘井子,20180929,38.960286398428124,121.60305183172997,万福居,33,16917,大连圣韬物业管理有限公司,0.5,辽宁,3,二手房,2006
中山区中青街43号,大连,大连亿达房地产股份有限公司,中山,20180929,38.90150598268117,121.65711014604845,青云映山,14,21877,亿达物业管理有限公司,1.3,辽宁,3,二手房,2005
高新园区聚贤路36号5幢1单元1层1号,大连,大连金真源集团房地产开发有限公司,高新园区,20180929,32.31472011562832,119.46141263909165,山海一家一期,36,12759,大连龙海物业管理有限公司,0.6,辽宁,3,二手房,2005
中山区中青街87号一单元107,大连,大连亿达房地产股份有限公司,中山,20180929,38.90213494248529,121.65806522267005,青云林海,36,21328,亿达物业管理有限公司,1,辽宁,3,二手房,2001
沙河口区绿清街12号,大连,大连中海新城置业有限公司,沙河口,20180929,38.93851335419565,121.57334844377094,中海英伦观邸,44,20554,大连中海物业管理有限公司,1.8,辽宁,3,二手房,2009
沙河口区联合路133号,大连,无开发商,沙河口,20180929,38.91608561262676,121.60480987310456,79中永平,101,26578,无物业管理服务,-,辽宁,3,二手房,1994
沙河口区联合路133号,大连,大连万达房地产开发有限公司,沙河口,20180929,38.91608561262676,121.60480987310456,79中万泰花园,30,27612,大连万泰物业管理有限公司,0.8,辽宁,3,二手房,1998
沙河口区五一路110-4号,大连,大连亿达房地产股份有限公司,沙河口,20180929,38.90710946686282,121.58172564480427,兰亭山水,33,19613,亿达物业管理有限公司,0.6,辽宁,3,二手房,2003
沙河口区兰田街33号,大连,大连运达房地产集团有限公司,沙河口,20180929,38.926138912221084,121.56486022834609,兰溪文苑,24,19233,大连运达物业管理有限公司,0.8,辽宁,3,二手房,2004
沙河口区新生路万客园3-7,大连,大连万科锦绣花城开发有限公司,沙河口,20180929,38.94412875710208,121.57006756704837,万科城市花园,37,17565,大连万科物业服务有限公司,1.5,辽宁,3,二手房,2005
沙河口区富静街26号1单元1层5号,大连,大连正源房地产开发有限公司,沙河口,20180929,38.908727606250466,121.58667844684369,幸福e家五期,136,33859,大连正源物业服务有限公司,1.8,辽宁,3,二手房,2008
高新园区书香街1A#1-1-2,大连,大连金弘基房地产开发有限公司,高新园区,20180929,38.880372108393104,121.55218773010999,弘基三期,41,19574,大连金弘基物业管理有限公司,0.5,辽宁,3,二手房,2005
沙河口区富国街34-3,大连,大连万达房地产开发有限公司,沙河口,20180929,38.90160386349964,121.58915317342193,星海人家,37,24934,大连万景物业管理有限公司,1.2,辽宁,3,二手房,2001
无门店信息,大连,暂无信息,甘井子,20180929,34.52713835999158,118.76812980670795,泉水N1区,77,9246,无物业管理服务,0.5,辽宁,4,二手房,2008
甘井子区泉水P3区35-2号,大连,大连天意房地产开发有限公司,甘井子,20180929,39.01527710332192,121.63580499384456,金地檀溪,55,15856,大连金地物业管理有限公司,2.8,辽宁,3,二手房,2014
沙河口区新生路万客园3-7,大连,大连中海兴业房地产开发有限公司,沙河口,20180929,38.94412875710208,121.57006756704837,中海天赋山一期,17,21324,大连中海物业管理有限公司,2.8,辽宁,3,二手房,2016
促进路30号2单元1楼1号,大连,中信集团大连中信房地产开发公司,甘井子,20180929,38.954133128707575,121.58355746311207,和兴家园,6,13712,大连中信物业管理有限公司,0.5,辽宁,3,二手房,2003
沙河口区红旗东路18-22号2单元1楼3号,大连,大连益嘉房屋开发有限公司,沙河口,20180929,38.921778341674376,121.58261780680284,益嘉广场,33,15846,大连益嘉物业管理有限公司,1.8,辽宁,3,二手房,2012
甘井子区红旗西路104-7,大连,大连盛达基业房地产开发有限公司,甘井子,20180929,38.940012695252975,121.52780738260293,依山云水,16,15068,大连盛新物业管理有限公司,0.4,辽宁,3,二手房,2004
甘井子辛吉街150号-7号,大连,大连新星房地产开发有限公司,甘井子,20180929,38.96309956105142,121.52341678860995,新星绿城三期,48,11529,大连生生物业管理有限公司,0.5,辽宁,3,二手房,2006
甘井子区红南东街7-7号,大连,大连大实企业集团房屋开发有限公司,甘井子,20180929,38.92880462247992,121.54144910207062,泊林和山,23,11040,大连弘实物业管理有限公司,0.6,辽宁,3,二手房,2007
沙河口区星海广场B3区14-2号1层,大连,大连友谊合升房地产开发有限公司,沙河口,20180929,38.88693148294673,121.58735631267305,壹品星海公寓,38,16038,大连富丽华物业管理有限公司,1.5,辽宁,3,二手房,2003
中山区职工街96号1-3层公建,大连,大连泛华房屋开发有限公司,中山,20180929,38.92565613737007,121.66193575790903,泛华领城,26,14065,无物业管理服务,-,辽宁,3,二手房,2012
甘井子区泉水D6区51号,大连,大连时代房地产开发有限公司,甘井子,20180929,39.00897610161069,121.61789300655198,富士庄园,50,13277,大连佳泰物业管理有限公司,1.2,辽宁,3,二手房,2006
大连市甘井子区辛如街35号1单元1层1号,大连,大连新星房地产开发有限公司,甘井子,20180929,38.96862607066881,121.52294869064194,新星绿城四期,25,13709,大连生生物业管理有限公司,0.8,辽宁,3,二手房,2008
中山区爱华街13号,大连,无开发商,中山,20180929,38.92541607518685,121.6535728031028,九中安民街,30,36197,无物业管理服务,-,辽宁,3,二手房,1995
沙河口区前程街46号4—1—2号,大连,大连欧兰房地产开发有限公司,甘井子,20180929,38.921778341674376,121.58261780680284,耕海山尚,16,15241,大连耕海物业管理有限公司,1.5,辽宁,3,二手房,2010
沙河口区华新苑10号楼4号公建,大连,大连新型房地产开发有限公司,沙河口,20180929,38.921778341674376,121.58261780680284,华新苑,5,12377,大连新型物业管理有限公司,0.5,辽宁,3,二手房,2003
中山区职工街96号1-3层公建,大连,大连嘉和房地产开发有限公司,中山,20180929,38.92565613737007,121.66193575790903,嘉和花样年华一期,44,19903,大连嘉和物业管理有限公司,3,辽宁,3,二手房,2003
沙河口区锦江园33号公建5-8轴,大连,大连市经济适用房建设发展中心,沙河口,20180929,38.921778341674376,121.58261780680284,锦绣园,21,13478,大连锦绣物业管理有限公司,0.5,辽宁,3,二手房,2000
无门店信息,大连,大连软件园瑞安发展有限公司,高新园区,20180929,34.52713835999158,118.76812980670795,大连天地悦翠台,42,15018,暂无信息,1,辽宁,3,二手房,2013
开发区红梅小区19栋-2-1-1号,大连,香港北海集团,开发区,20180929,29.906498897603264,121.5913630631805,君悦豪庭,55,10409,街道办事处（居委会）代管物业,1.2,辽宁,3,二手房,2004
中山区杏林街66—5号,大连,嘉和房地产集团有限公司,中山,20180929,38.9244189768098,121.6630029448549,嘉和花样年华三期,29,23121,大连嘉和物业管理有限公司,3.5,辽宁,3,二手房,2007
大连市甘井子区软件园路122号,大连,大连理工科技城建设开发有限公司,高新园区,20180929,38.89286578891647,121.53266600180116,理工园,12,14847,街道办事处（居委会）代管物业,1,辽宁,3,二手房,2000
经济技术开发区红星海-A区81-2号1层,大连,远洋地产有限公司,开发区,20180929,39.027851194371685,121.80327394132297,红星海三期境界,62,12026,大连远洋基业物业管理有限公司,2.2,辽宁,3,二手房,2012
中山区民建街10号1单元1号,大连,无开发商,中山,20180929,38.925444479476894,121.66915026954452,39中顺阳街,17,20065,无物业管理服务,-,辽宁,3,二手房,1995
大连市开发区裕民新苑42-7,大连,无开发商,开发区,20180929,39.070771020021674,121.85093056856022,澳东世纪,17,10418,街道办事处（居委会）代管物业,0.5,辽宁,3,二手房,2013
开发区翠竹小区33栋4-1-1号,大连,大连宏济开发经济有限公司,开发区,20180929,30.635492106460237,119.69169575745704,宏城金棕榈,26,8758,大连宏景物业管理有限公司,1.3,辽宁,3,二手房,2006
甘井子辛吉街150号-7号,大连,大连新星房地产开发有限公司,甘井子,20180929,38.96309956105142,121.52341678860995,新星绿城一期,26,10932,大连生生物业管理有限公司,0.5,辽宁,3,二手房,2003
甘井子区玉丽街35号4单元-1-2,大连,大连新型房地产开发有限公司,甘井子,20180929,38.98487421584909,121.55236707590676,玉浓街,47,10335,大连新兴物业管理有限公司,0.2,辽宁,3,二手房,2002
中山区同心街72号1楼公建,大连,无开发商,中山,20180929,38.91979245940674,121.64769198230202,南山里,12,15313,无物业管理服务,-,辽宁,3,二手房,1990
沙河口区兰田街33号,大连,大连万合房地产开发有限公司,沙河口,20180929,38.926138912221084,121.56486022834609,万合新家园,10,16228,大连佳宜物业管理有限公司,0.6,辽宁,3,二手房,2004
沙河口区连山街44-2号半地下一层（地上一层部分）,大连,大连亿达房地产股份有限公司,沙河口,20180929,38.892991456958086,121.57299542767161,星海小区,18,10777,无物业管理服务,-,辽宁,3,二手房,1996
沙河口区红凌路137号,大连,大连大实企业集团房屋开发有限公司,甘井子,20180929,38.922699288974506,121.54713601744747,叠翠山庄,22,9798,大连弘实物业管理有限公司,0.4,辽宁,3,二手房,2000
大连市经济技术开发区东城园98-14,大连,大连金湾实业有限公司,开发区,20180929,39.0695450284039,121.85051433870218,裕民新苑,37,8409,大连金湾物业管理有限公司,0.3,辽宁,3,二手房,2006
金州区胜利西小区44号楼,大连,大连金宸集团,金州,20180929,39.10507689383061,121.71536524220103,连大文润金宸一二期,42,8499,大连四通物业管理有限公司,0.9,辽宁,3,二手房,2010
金州区小平岛B组团4号楼3号商铺,大连,大连圣岛房地产开发有限公司,高新园区,20180929,39.2986190718601,121.95658248043723,小平岛海悦山,43,20540,大连凯尔富物业管理有限公司,1.3,辽宁,3,二手房,2011
大连市甘井子区钻石湾和信园13-5,大连,远洋地产有限公司,甘井子,20180929,38.95806887148857,121.62117199773128,远洋钻石湾二期,40,23383,大连远洋基业物业管理有限公司,3.2,辽宁,3,二手房,2015
沙河口区富国街14号1-1-2,大连,大连永辉房地产开发有限公司,沙河口,20180929,38.901027106600836,121.59047734850638,百年汇,56,15930,大连百年城物业管理有限公司,2.8,辽宁,3,二手房,2007
甘井子区虹城路503号1-1号,大连,大连易和房地产集团有限公司,甘井子,20180929,38.981193588625004,121.49964051837122,岭秀滨城悦和中园,31,13829,大连易兴物业服务有限公司,1.3,辽宁,3,二手房,2009
高新园区硅谷假日小区25号楼地下室,大连,暂无信息,高新园区,20180929,38.865995717263544,121.53771220335938,硅谷假日公寓,17,13940,大连斌弘物业管理有限公司,1.5,辽宁,3,二手房,2005
甘井子区虹城路503号1-1号,大连,大连易和房地产集团有限公司,甘井子,20180929,38.981193588625004,121.49964051837122,岭秀滨城悦和西园,15,13399,大连易兴物业服务有限公司,1.3,辽宁,3,二手房,2009
沙河口区展望街29,大连,大连嘉源置业发展有限公司,沙河口,20180929,38.93473052900021,121.57390298303343,御园,24,15980,大连御博物业,2,辽宁,3,二手房,2015
高新园敬贤街23-11号,大连,大连恒瑞房地产开发有限公司,高新园区,20180929,38.86956637166276,121.5301657390922,大湖山语,16,19079,大连龙湖物业服务有限公司,2.8,辽宁,3,二手房,2015
甘井子区汇达园26号,大连,大连红星美凯龙投资发展有限公司,甘井子,20180929,38.99704654604941,121.59758808878767,红星国际广场,75,15654,红星物业管理有限公司,1.5,辽宁,3,二手房,2014
开发区安盛里5栋-4,大连,大连万晟房地产开发有限公司,开发区,20180929,23.112106678834838,113.27801046214822,宜家大院,16,8182,大连万晟置业有限公司,0.8,辽宁,3,二手房,2002
开发区景和园1-7,大连,无开发商,开发区,20180929,30.41892168817929,120.30896459202738,古耕景和园,22,8288,街道办事处（居委会）代管物业,0.5,辽宁,3,二手房,2008
金州区鹏程家园53#-8,大连,大连软微房地产开发有限公司,开发区,20180929,39.0348243693741,121.81226722991913,深蓝半英里,8,9642,大连豪斯威物业管理有限公司,1.2,辽宁,3,二手房,2007
无门店信息,大连,无开发商,金州,20180929,34.52713835999158,118.76812980670795,滨海丰园,73,7958,街道办事处（居委会）代管物业,0.5,辽宁,3,二手房,2011
沙河口区西南路643号,大连,大连澳南房屋开发公司,沙河口,20180929,38.943483429804665,121.5833555851182,金福小区,11,11206,无物业管理服务,-,辽宁,3,二手房,2000
沙河口区兰田街33号,大连,无开发商,沙河口,20180929,38.926138912221084,121.56486022834609,马栏广场东,19,10046,大连辽南物业管理有限公司,0.2,辽宁,3,二手房,1995
沙河口区华北路448号楼1-4公建,大连,无开发商,甘井子,20180929,38.903224944733765,121.56809734950556,周山街,17,14752,街道办事处（居委会）代管物业,0.5,辽宁,3,二手房,1989
甘井子区虹港路16号楼1层公建,大连,亿达房地产开发有限公司,甘井子,20180929,38.96457808198196,121.55421052098279,虹港路（机场商圈）,26,12165,亿达物业管理有限公司,0.2,辽宁,3,二手房,1996
无门店信息,大连,大连环宇置业有限公司,开发区,20180929,34.52713835999158,118.76812980670795,环宇品阁,50,5971,大连环宇物业管理有限公司,1.5,辽宁,3,二手房,2010
甘井子区玉丽街2号楼1单元4号公建,大连,大连新型房地产开发有限公司,甘井子,20180929,38.98705071699301,121.55513043130172,泡崖康馨园,31,10557,大连新兴物业管理有限公司,0.2,辽宁,3,二手房,2004
中山区解放路604号,大连,大连雅风房屋开发有限公司,中山,20180929,38.89026319122045,121.66407876092346,秀月风景,10,16658,大连风景物业管理有限公司,1,辽宁,3,二手房,1996
甘井子区华北路花锦园28号23-3-1-2建筑物,大连,大连市中联房地产开发有限公司,甘井子,20180929,38.951627958411166,121.5739439799003,香周路（甘）,12,15662,街道办事处（居委会）代管物业,0.1,辽宁,3,二手房,1987
甘井子区祥龙街2号楼1单元1楼1号,大连,大连宏孚房屋开发有限公司,甘井子,20180929,38.988045874482445,121.60439401971377,宏孚小区,28,9650,无物业管理服务,-,辽宁,3,二手房,1995
沙河口区西南路40号楼,大连,无开发商,沙河口,20180929,38.94141605900714,121.58612100465703,尖山街,11,13154,无物业管理服务,-,辽宁,3,二手房,1990
无门店信息,大连,大连经开万达广场投资有限公司,开发区,20180929,34.52713835999158,118.76812980670795,大连开发区万达广场,68,8347,大连万达物业管理有限公司,2.5,辽宁,3,二手房,2015
中山区北斗街53号1层1号,大连,大连名仕房地产开发有限公司,中山,20180929,38.92727355733075,121.67002970974048,名仕财富中心,54,11505,holiday inn酒店物业管理有限公司,4.3,辽宁,3,二手房,2006
甘井子区玉丽街2号楼1单元4号公建,大连,大连新型房地产开发有限公司,甘井子,20180929,38.98705071699301,121.55513043130172,泡崖康居园,42,11378,大连新兴物业管理有限公司,0.5,辽宁,3,二手房,2000
中山区职工街96号1-3层公建,大连,无开发商,中山,20180929,38.92565613737007,121.66193575790903,警后大院（三八广场）,13,13047,无物业管理服务,-,辽宁,3,二手房,1993
无门店信息,大连,大连海脉房地产开发有限公司,金州,20180929,34.52713835999158,118.76812980670795,海脉未来城,15,8291,大连豪斯威物业管理有限公司,1,辽宁,3,二手房,2013
甘井子区山东路170—7号,大连,大连市大钢集团,甘井子,20180929,38.98379863132532,121.58715890734231,华中街,26,11326,街道办事处（居委会）代管物业,0.5,辽宁,3,二手房,1986
甘井子区祥龙街2号楼1单元1楼1号,大连,无开发商,甘井子,20180929,38.988045874482445,121.60439401971377,金荣路,8,10228,无物业管理服务,-,辽宁,3,二手房,1990
无门店信息,大连,无开发商,金州,20180929,34.52713835999158,118.76812980670795,永安四季,14,6600,无物业管理服务,0.5,辽宁,3,二手房,2012
无门店信息,大连,大连金州金德房地产开发有限公司,金州,20180929,34.52713835999158,118.76812980670795,新辉小区,21,7238,大连市金州金德物业管理有限公司,0.5,辽宁,3,二手房,2005
无门店信息,大连,大连中瀛房地产开发有限公司,旅顺口,20180929,34.52713835999158,118.76812980670795,中瀛臻堡,15,9221,大连中瀛物业管理服务有限公司,1,辽宁,3,二手房,2010
大连市沙河口区西南路875号1层21号,大连,无开发商,沙河口,20180929,38.94485969061231,121.58418648447764,华北路（春柳商圈）,7,10295,街道办事处（居委会）代管物业,0.1,辽宁,3,二手房,1981
金州新区先进街道五一路350-1号1-2层,大连,暂无信息,金州,20180929,39.095023587156554,121.74333264248519,聚鑫小区三期,47,6810,大连新生活物业管理有限公司,0.5,辽宁,3,二手房,2008
金州区金湾路132-2号,大连,大连金新房地产开发有限公司,金州,20180929,39.10269111644727,121.72221060686516,金州福佳新天地广场,41,8195,大连福佳物业管理有限公司,1.8,辽宁,3,二手房,2011
中山区解放路262-2号,大连,无开发商,中山,20180929,38.91335111291018,121.64818847396077,麒麟西巷,12,12345,无物业管理服务,-,辽宁,3,二手房,1990
开发区东北三街94号1层,大连,大连同济房地产开发有限公司,开发区,20180929,39.05723508011585,121.80570768630555,新东方公寓三期,35,5631,大连同济物业管理有限公司,1.5,辽宁,3,二手房,2009
无门店信息,大连,大连鹏玥房地产开发有限公司,开发区,20180929,34.52713835999158,118.76812980670795,中环城市广场,13,9259,大连鹏玥物业公司,1.5,辽宁,3,二手房,2015
无门店信息,大连,无开发商,甘井子,20180929,34.52713835999158,118.76812980670795,五二三厂,39,7187,无物业管理服务,0.5,辽宁,3,二手房,1987
大连市金州新区中长街道碧海尚城5-4号1-2层,大连,无开发商,金州,20180929,39.1001690968934,121.73061017121415,体育场小区,35,6020,街道办事处（居委会）代管物业,-,辽宁,3,二手房,1995
无门店信息,大连,暂无信息,甘井子,20180929,34.52713835999158,118.76812980670795,金四街,40,18453,无物业管理服务,-,辽宁,3,二手房,1960
大连市开发区东北三街103号公建,大连,开发区城建局,开发区,20180929,39.05621858250137,121.80658750738304,倚园里小区,46,7832,大连佳兴物业管理有限公司,0.3,辽宁,3,二手房,1999
西岗区绕山路28号1层1号,大连,无开发商,西岗,20180929,38.90352859160372,121.61547503761078,绕山路,10,10081,无物业管理服务,-,辽宁,3,二手房,1995
开发区大开高吉里33栋6号,大连,无开发商,开发区,20180929,39.07355836059941,121.8280439450145,高泰里,20,5853,无物业管理服务,-,辽宁,3,二手房,1998
西岗区新田巷11号三单元103,大连,无开发商,西岗,20180929,38.89276612016956,121.64190731791966,新船巷,28,8646,无物业管理服务,-,辽宁,3,二手房,1992
西岗区长春路334号,大连,无开发商,西岗,20180929,38.89807766522607,121.63221082858387,石峰街,11,10472,大连大众物业管理有限公司,0.3,辽宁,3,二手房,1995
大连市甘井子区丰收路3-5号,大连,大连智和房地产开发有限公司,甘井子,20180929,38.965377255081755,121.58288415324094,华锦铭苑,33,18045,大连东昌物业管理有限公司,1.3,辽宁,2,二手房,2009
中山区中南路226号,大连,大连国合嘉汇房地产开发有限公司,中山,20180929,38.90029610333926,121.68178899957817,枫合万嘉,24,19363,大连国合物业管理有限公司,1,辽宁,2,二手房,2005
甘井子区金北街17号,大连,大连恒新房地产开发有限公司,甘井子,20180929,38.95546176066109,121.5285003794903,福佳绿都,21,25234,大连福佳物业管理有限公司,1.3,辽宁,2,二手房,2008
甘井子区知音园20号3单元1层1号,大连,亿达房地产开发有限公司,高新园区,20180929,38.95546176066109,121.5285003794903,软件园小区,41,13987,业主自筹物业,0.2,辽宁,2,二手房,1995
甘井子区金家街17-7号,大连,无开发商,甘井子,20180929,38.97493697764367,121.60110987128529,金二小学北,21,19651,无物业管理服务,-,辽宁,2,二手房,1970
沙河口区西南路96号1层2号,大连,大连宏都房地产开发有限公司,沙河口,20180929,38.890863095482466,121.56788114713203,宏都筑景Ⅰ期,35,19575,大连东方百瑞物业管理有限公司,1.4,辽宁,2,二手房,2008
高新园区海苑街36号1单元2号公建,大连,大连大有房屋开发有限公司,高新园区,20180929,20.06392317589085,110.32302599457326,大有恬园,40,17404,大连家园物业有限公司,0.5,辽宁,2,二手房,2004
沙河口区黄河路535号,大连,大连城市建设集团有限公司,沙河口,20180929,38.91773777159567,121.60217159922856,79中至诚小区,39,23764,大连天河物业管理有限公司,0.1,辽宁,2,二手房,1958
甘井子区汇达园26号,大连,北亚实业集团股份有限公司大连开发区分公司,甘井子,20180929,38.99704654604941,121.59758808878767,北府花园,52,16273,大连优豪斯物业管理有限公司,0.5,辽宁,2,二手房,2006
沙河口区锦虹北园38-3-1-1,大连,大连锦绣房地产开发有限公司,沙河口,20180929,38.95230821928003,121.55503724232328,锦城东园,24,16133,大连锦绣物业管理有限公司,0.6,辽宁,2,二手房,2006
沙河口区连山街44-2号半地下一层（地上一层部分）,大连,大连大和中盛房地产有限公司,沙河口,20180929,38.892991456958086,121.57299542767161,颐和星海,52,21534,大连颐和物业管理有限公司,2.5,辽宁,2,二手房,2013
高新园区海苑街30号1单元1号公建,大连,大连大有文园房屋开发有限公司,高新园区,20180929,20.06392317589085,110.32302599457326,大有文园,49,14483,大连大有恬园物业管理有限公司,2,辽宁,2,二手房,2012
沙河口区华新苑10号楼4号公建,大连,大连祥盛房屋开发有限公司,沙河口,20180929,38.921778341674376,121.58261780680284,香洲心城,22,17292,大连百特物业管理有限公司,1,辽宁,2,二手房,2011
沙河口区绿波路34号楼5单元1楼3号,大连,大连东北房屋开发有限公司,沙河口,20180929,38.940473883711306,121.57312402324945,帝欧花园,42,16557,大连绿波建设发展有限公司,0.6,辽宁,2,二手房,2005
大连市沙河口区知邻街50号,大连,大连软件园开发有限公司,沙河口,20180929,38.921778341674376,121.58261780680284,宅语原,33,22486,亿达物业管理有限公司,2,辽宁,2,二手房,2008
甘井子区促进路30号2-1-1,大连,福佳集团有限公司,甘井子,20180929,38.954133128707575,121.58355746311207,府佳名都,32,15768,大连富佳物业管理有限公司,0.5,辽宁,2,二手房,2002
沙河口区杨树街4-4号公建,大连,大连金弘基房地产开发有限公司,高新园区,20180929,38.88444587249751,121.55130620045541,弘基二期,30,20913,大连金弘基物业管理有限公司,0.6,辽宁,2,二手房,2003
沙河口区鞍山路65号美都园7号1单元1层4号公建,大连,大连美辰房地产开发有限公司,沙河口,20180929,38.92727525772336,121.60296423346817,丽景春天,22,17808,大连远洋基业物业管理有限公司,0.8,辽宁,2,二手房,2003
高新园区海苑街36号1单元2号公建,大连,大连友谊合升房地产开发有限公司,高新园区,20180929,20.06392317589085,110.32302599457326,壹品漫谷,22,17306,大连富丽华物业管理有限公司,1,辽宁,2,二手房,2008
西岗区黄河路362号公建,大连,大连万峰房地产开发有限公司,西岗,20180929,38.91819905243802,121.61365779430986,万达华府一期,52,26423,大连万景物业管理有限公司,1.3,辽宁,2,二手房,2005
高新园敬贤街23-11号,大连,中海东丰地产（大连）有限公司,高新园区,20180929,38.86956637166276,121.5301657390922,中海华庭,55,18628,大连中海物业管理有限公司,2,辽宁,2,二手房,2009
无门店信息,大连,大连龙湖东港房地产有限公司,中山,20180929,34.52713835999158,118.76812980670795,龙湖水晶郦湾,49,24916,大连龙湖物业服务有限公司,4.5,辽宁,2,二手房,2015
大连市甘井子区丰收路3-5号,大连,大连亿海房地产开发有限公司,甘井子,20180929,38.965377255081755,121.58288415324094,亿海盛都,19,19518,街道办事处（居委会）代管物业,0.5,辽宁,2,二手房,2004
中山区安居巷7号,大连,大连锦联地产集团有限公司,中山,20180929,38.900436431991984,121.67796628922625,经典生活,9,7294,大连锦联物业管理有限公司,2.2,辽宁,2,二手房,2003
甘井子区泉水H3区15号3单元1层2号,大连,大连新型房地产开发有限公司,甘井子,20180929,39.00158439075201,121.62616882572375,龙畔金泉二期,74,11921,大连新型物业管理有限公司,0.5,辽宁,2,二手房,2004
甘井子区泉水B2区19-1号,大连,大连金广集团,甘井子,20180929,39.0101309886317,121.60812584213187,金色阳光家园,34,12860,大连金广物业服务有限公司,0.5,辽宁,2,二手房,2002
沙河口区黄河路883号,大连,大连安邦房地产开发有限公司,沙河口,20180929,38.919826721475204,121.57749657966676,阳光小筑,8,17813,大连远洋基业物业管理有限公司,0.8,辽宁,2,二手房,2007
中山区北斗街53号1层1号,大连,大连万众房屋开发有限公司,中山,20180929,38.92727355733075,121.67002970974048,清华园,19,17263,大连万众物业有限公司,1.7,辽宁,2,二手房,2003
沙河口区中山路417A-4号,大连,大连宝嘉房地产有限公司,沙河口,20180929,38.90734671814175,121.59482182703752,德源筑座,13,21120,大连乐尔居物业服务有限公司,2.2,辽宁,2,二手房,2009
高新园区火炬路18号,大连,大连千业房地产开发有限公司,高新园区,20180929,38.937738080520404,117.39340752036043,第8区,32,16243,大连大管家物业管理有限公司,1.9,辽宁,2,二手房,2012
沙河口区黑石礁街3号1层1-1号,大连,大连建隆置业有限公司,沙河口,20180929,38.880058010307856,121.56313403908827,富丽庭,14,18306,达波尔酒店物业管理（大连）有限公司,2.4,辽宁,2,二手房,2010
大连市甘井子区软件园路122号,大连,大连鑫园房屋开发有限公司,高新园区,20180929,38.89286578891647,121.53266600180116,新新园二期,13,14109,大连理工物业管理中心,0.5,辽宁,2,二手房,2005
沙河口区星海广场B3区20—3号,大连,大连亿达房地产股份有限公司,沙河口,20180929,38.888054001818844,121.58662952422732,亿达杰特,62,16531,亿达物业管理有限公司,3.8,辽宁,2,二手房,2005
莲花山路89-3号,大连,大连建兴房屋开发有限公司,沙河口,20180929,38.90273559371702,121.6046814926709,府佳家园,2,14177,大连富佳物业管理有限公司,0.6,辽宁,2,二手房,2002
中山区杏林街66—5号,大连,嘉和房地产集团有限公司,中山,20180929,38.9244189768098,121.6630029448549,嘉和花样年华二期,30,23400,大连嘉和物业管理有限公司,2,辽宁,2,二手房,2005
西岗区北岗街新康巷19-1号公建,大连,大连凯润房屋开发有限公司,西岗,20180929,38.9306759109621,121.61509567690577,景润一期,23,10494,无物业管理服务,-,辽宁,2,二手房,2000
西岗区北岗街新康巷19-1号公建,大连,大连铁龙房地产开发有限公司,西岗,20180929,38.9306759109621,121.61509567690577,北岗新居,8,12959,大连铁龙物业管理有限公司,0.3,辽宁,2,二手房,2002
高新园区火炬路18号,大连,大连海创房地产开发有限公司,高新园区,20180929,38.937738080520404,117.39340752036043,芝麻街,33,14604,大连海创物业管理有限公司,2.4,辽宁,2,二手房,2010
甘井子区泉水H3区15号3单元1层2号,大连,大连新型房地产开发有限公司,甘井子,20180929,39.00158439075201,121.62616882572375,龙畔金泉四期,64,12052,大连新型物业管理有限公司,0.4,辽宁,2,二手房,2005
中山区爱华街13号,大连,无开发商,中山,20180929,38.92541607518685,121.6535728031028,39中安阳街,34,26024,无物业管理服务,-,辽宁,2,二手房,1993
西岗区鞍山路29号龙畔锦城东门,大连,无开发商,西岗,20180929,38.92763470697088,121.61498923399098,21中五一广场,25,17701,无物业管理服务,-,辽宁,2,二手房,1976
中山区武昌街武昌公寓6号公建,大连,大连中盛集团有限公司,中山,20180929,38.912280913445784,121.64921130527547,武昌花园,10,13871,无物业管理服务,0.3,辽宁,2,二手房,1990
中山区南山路59号1层4号,大连,大连恒一嘉元置业有限公司,中山,20180929,38.91992239075882,121.6479206962747,南山首府,5,30926,大连恒信物业服务有限公司,4,辽宁,2,二手房,2015
甘井子区山东路398号,大连,华润置地（大连）开发有限公司,甘井子,20180929,38.99821826443242,121.59274974973462,华润置地广场三期,42,21669,华润物业（大连）有限公司,2.9,辽宁,2,二手房,2016
高新园敬贤街23-11号,大连,大连晟远房地产开发有限公司,高新园区,20180929,38.86956637166276,121.5301657390922,恒瑞坦城,43,16481,大连恒德物业服务有限公司,2.4,辽宁,2,二手房,2015
西岗区平等街21号1层2号,大连,辽宁宁安房地产开发有限公司,西岗,20180929,38.92251066253164,121.63236845125735,赛维利大厦,17,17958,大连良玖物业管理有限责任公司,1.5,辽宁,2,二手房,2004
中山区虎滩路62号,大连,大连国泰房地产开发有限公司,中山,20180929,38.886587440841225,121.69237728440392,帝柏湾,23,19690,加拿大高力国际物业服务有限公司,2,辽宁,2,二手房,2007
经济技术开发区红星海-A区81-2号1层,大连,远洋地产有限公司,开发区,20180929,39.027851194371685,121.80327394132297,红星海一期城市别馆,83,12244,大连远洋基业物业管理有限公司,0.5,辽宁,2,二手房,2010
甘井子辛吉街150号-7号,大连,大连新星房地产开发有限公司,甘井子,20180929,38.96309956105142,121.52341678860995,新星绿城二期,17,12212,大连生生物业管理有限公司,0.5,辽宁,2,二手房,2005
开发区松苑街23号,大连,大连天安房地产开发有限公司,开发区,20180929,22.52087710763645,113.40156104777168,天安海景花园,15,12476,大连港力物业管理有限公司,1.2,辽宁,2,二手房,2006
中山区三八广场5号,大连,无开发商,中山,20180929,38.92540000551715,121.6642911149562,良运四季汇,52,23592,大连良运物业管理有限公司,0.8,辽宁,2,二手房,2010
甘井子区金家街17-7号,大连,大连衡锐房屋开发有限公司,甘井子,20180929,38.97493697764367,121.60110987128529,衡逸园一期,21,17601,大连衡锐物业管理公司,1,辽宁,2,二手房,2010
金州区小平岛B组团4号楼3号商铺,大连,大连安达房地产开发有限公司,高新园区,20180929,39.2986190718601,121.95658248043723,小平岛亲海园A2组团,36,18995,大连凯尔富物业管理有限公司,1.7,辽宁,2,二手房,2007
沙河口区长江路946号-9,大连,大连机车商业城有限公司,沙河口,20180929,38.92295863621255,121.59735298157467,兴工街,64,10943,街道办事处（居委会）代管物业,0.2,辽宁,2,二手房,1985
甘井子区祥龙街2号楼1单元1楼1号,大连,万象地产房地产开发有限公司,甘井子,20180929,38.988045874482445,121.60439401971377,枣园万象,5,20683,大连润东物业管理有限公司,1.7,辽宁,2,二手房,2012
西岗区大同街125号,大连,大连新型房地产开发有限公司,西岗,20180929,38.920458602340894,121.61445835429899,银寰花园,22,11056,街道办事处（居委会）代管物业,0.5,辽宁,2,二手房,1995
大连市甘井子区燕南园50号,大连,大连鑫园房屋开发有限公司,高新园区,20180929,38.90172480153224,121.5363466289672,新新园一期,17,13177,大连理工物业管理中心,0.3,辽宁,2,二手房,2000
中山区碧浪园4号-3号,大连,大连三寰房地产开发有限公司,中山,20180929,38.89147289460474,121.69329560326236,碧浪园一期,30,12813,大连峰霖物业管理有限公司,0.3,辽宁,2,二手房,2000
开发区润海园中区18#2号,大连,华润（大连）房地产有限公司,开发区,20180929,39.04047273176333,121.76392358042445,华润海中国六期,50,13692,华润物业（大连）有限公司,3.1,辽宁,2,二手房,2016
大连市甘井子区银田北园14号,大连,亿达集团大连科技城发展有限公司,甘井子,20180929,38.9742441034389,121.47189841879823,亿达春田馥园,38,19007,亿达物业管理有限公司,1.5,辽宁,2,二手房,2011
中山区中南路226号,大连,大连市建设控股有限公司,中山,20180929,38.90029610333926,121.68178899957817,欧洲小镇,12,18046,大连大众物业管理有限公司,0.8,辽宁,2,二手房,2004
经济技术开发区红星海B区180栋_3号链家地产,大连,远洋地产有限公司,开发区,20180929,39.027851194371685,121.80327394132297,红星海五期岚谷,67,14335,大连远洋基业物业管理有限公司,2.2,辽宁,2,二手房,2012
甘井子区山东路商业街D区12号公建,大连,无开发商,甘井子,20180929,39.001060021502965,121.58883960371418,兴华路,42,11365,街道办事处（居委会）代管物业,0.5,辽宁,2,二手房,1989
西岗区长春路334号,大连,大连新型房地产开发总公司,西岗,20180929,38.89807766522607,121.63221082858387,林茂小区,29,10012,大连新型物业管理有限公司,0.2,辽宁,2,二手房,1995
甘井子区凌秀路37号-1链家地产,大连,千汇德（大连）置业有限公司,高新园区,20180929,38.883794285403965,121.52361997548515,哈佛世纪,17,17059,大连千汇德物业管理有限公司,2.4,辽宁,2,二手房,2014
沙河口区红凌路137号,大连,大连大实企业集团房屋开发有限公司,甘井子,20180929,38.922699288974506,121.54713601744747,泊林阳光B区,6,12893,大连弘实物业管理有限公司,0.6,辽宁,2,二手房,2007
沙河口区恒利园42号-8,大连,大连新型房地产开发有限公司,沙河口,20180929,38.93357562498634,121.57914091532649,中铁十三局,18,11806,大连新兴物业管理有限公司,0.3,辽宁,2,二手房,1993
大连市甘井子区丰收路3-5号,大连,大连铁路房地产开发有限责任公司,甘井子,20180929,38.965377255081755,121.58288415324094,王家桥小区,20,11404,大连铁路物业管理有限公司,0.1,辽宁,2,二手房,1990
大连市甘井子区七贤路8-3号,大连,大连高新万达广场投资有限公司,高新园区,20180929,38.86659077085588,121.5392980566355,万达海公馆,11,23805,大连万达物业管理有限公司,4.5,辽宁,2,二手房,2015
沙河口区民权街324号,大连,大连天河房地产开发集团有限公司,沙河口,20180929,38.92064616208148,121.59777611850379,宝发金钻,19,14160,大连天河物业管理有限公司,2.3,辽宁,2,二手房,2007
开发区红星海-B区89-1号,大连,暂无信息,开发区,20180929,39.027851194371685,121.80327394132297,红星海一期艺墅,36,14801,大连远洋基业物业管理有限公司,0.5,辽宁,2,二手房,2009
开发区小孤山西里3栋-11号,大连,大连九龙汇房地产开发有限公司,开发区,20180929,39.02715282297674,121.80682183666346,九龙汇,33,8120,大连宏亮红物业管理有限公司,1.9,辽宁,2,二手房,2009
甘井子区惠泽南园3-4号,大连,大连全统房地产开发有限公司,甘井子,20180929,38.939326611323615,121.52337842113351,全统西山丽水,17,15666,大连新华物业管理有限公司,0.5,辽宁,2,二手房,2008
甘井子区华北路花锦园28号23-3-1-2建筑物,大连,大连东特房地产开发有限公司,甘井子,20180929,38.951627958411166,121.5739439799003,东特星中环,6,16123,大连东特祥禾物业管理有限公司,0.8,辽宁,2,二手房,2006
沙河口区民权街324号,大连,无开发商,沙河口,20180929,38.92064616208148,121.59777611850379,富鸿国际大厦,3,10704,北京凯莱物业管理有限公司大连分公司,1.5,辽宁,2,二手房,2000
大连市开发区左岸经典正恒园1-17,大连,大连众益神州地产开发有限公司,开发区,20180929,39.049057070649155,121.76187404250511,万国宫馆三期,61,13189,大连万佳物业管理有限公司,2,辽宁,2,二手房,2011
沙河口区长江路946号-9,大连,大连北洋房屋开发公司,沙河口,20180929,38.92295863621255,121.59735298157467,北洋小区,7,13912,大连天洋物业管理有限公司,0.5,辽宁,2,二手房,1999
开发区湾里南12栋-16-17-18号,大连,无开发商,开发区,20180929,39.070782084451,121.8506739675913,东城国际,43,8476,大连乾豪物业管理有限公司,1,辽宁,2,二手房,2006
甘井子区华东路33-5号,大连,大连凯祥房地产开发有限公司,甘井子,20180929,38.97497080220593,121.59479866243332,商城花园,18,10548,大连凯祥物业管理有限公司,0.5,辽宁,2,二手房,2000
西岗区康平街2号（5号楼3-1-3号）,大连,无开发商,西岗,20180929,38.91044414697888,121.61980769264477,教师大厦,12,12356,大连教师大厦物业管理有限公司,0.2,辽宁,2,二手房,1995
甘井子区柳树南街45-10号,大连,中体产业集团大连乐百年置业有限公司,甘井子,20180929,38.92567666296449,121.4841330254372,水木清华,13,12180,大连辰谊物业管理有限公司,1.2,辽宁,2,二手房,2009
沙河口区数码路(北段)20-6号,大连,无开发商,高新园区,20180929,38.890045799133254,121.55191912957606,中辰国际公寓,2,15751,大连阿尔滨汇城物业服务有限公司,2.5,辽宁,2,二手房,2008
开发区黄海西路54号,大连,开发区城建局,开发区,20180929,39.047714586087785,121.76688238228269,青松南里,68,7808,大连经济技术开发区中强物业管理有限公司,0.5,辽宁,2,二手房,2003
无门店信息,大连,大连祥和房屋开发有限公司,甘井子,20180929,34.52713835999158,118.76812980670795,祥和花园,36,11658,大连市大北物业管理有限公司,0.4,辽宁,2,二手房,2007
西岗区八一路102号,大连,大连润泰房地产开发有限公司,中山,20180929,38.891094924332045,121.65327483516513,明秀庄园二期,9,30454,大连澳邦致和物业服务有限公司,3.2,辽宁,2,二手房,2015
甘井子区山东路127-2号,大连,无开发商,甘井子,20180929,38.99065559549029,121.59126483545545,七迎路,19,9871,街道办事处（居委会）代管物业,0.2,辽宁,2,二手房,1995
中山区秀月街37号1层2号,大连,无开发商,中山,20180929,38.88757907576307,121.66311065527876,小龙街,13,14089,无物业管理服务,0.5,辽宁,2,二手房,1985
中山区民建街10号1单元1号,大连,无开发商,中山,20180929,38.925444479476894,121.66915026954452,39中金域朝阳,5,16182,无物业管理服务,-,辽宁,2,二手房,2000
甘井子区甘井子路32号楼1单元1楼9号,大连,无开发商,甘井子,20180929,38.982488275116516,121.63345389253514,松江小区,34,9244,街道办事处（居委会）代管物业,0.5,辽宁,2,二手房,1995
沙河口区星海广场B3区20—3号,大连,金世纪房地产,沙河口,20180929,38.888054001818844,121.58662952422732,金玉星海,11,12795,大连吉田物业管理有限公司,1.3,辽宁,2,二手房,2005
开发区红星海-B区89-1号,大连,远洋地产有限公司,开发区,20180929,39.027851194371685,121.80327394132297,红星海三期视界,29,13935,大连远洋基业物业管理有限公司,2.2,辽宁,2,二手房,2012
甘井子区柳树南街45-11号,大连,大连顺达房屋开发有限公司,甘井子,20180929,38.93107538811559,121.48785133651938,顺达温泉花园二期,20,10487,大连顺达物业服务有限公司,0.6,辽宁,2,二手房,2004
甘井子区泉水P3区35-2号,大连,大连半岛集团有限公司,甘井子,20180929,39.01527710332192,121.63580499384456,半岛泉水欣座,20,15209,大连半岛物业管理有限公司,1.5,辽宁,2,二手房,2010
无门店信息,大连,大连新兴海韵房地产开发有限公司,开发区,20180929,34.52713835999158,118.76812980670795,山海家园,16,12220,大连经济技术开发区通讯物业有限公司,0.5,辽宁,2,二手房,2004
无门店信息,大连,大连铁龙房地产开发有限公司,甘井子,20180929,34.52713835999158,118.76812980670795,连海金源,13,14129,大连铁龙安居物业管理有限公司,1.3,辽宁,2,二手房,2012
中山区清溪南街11号,大连,大连锦绣房地产开发有限公司,中山,20180929,38.88919604283904,121.66466481004835,秀月广场,17,12678,无物业管理服务,0.5,辽宁,2,二手房,1994
开发区翠竹小区33栋4-1-1号,大连,暂无信息,开发区,20180929,30.635492106460237,119.69169575745704,翠竹中区,22,7957,嘉兴物业管理有限公司,0.3,辽宁,2,二手房,1996
中山区职工街96号1-3层公建,大连,无开发商,中山,20180929,38.92565613737007,121.66193575790903,39中开源巷,10,30316,街道办事处（居委会）代管物业,0.5,辽宁,2,二手房,1990
金州区凤祥路236-2,大连,大连鸿玮置业有限公司,金州,20180929,39.08547607514868,121.7749730382401,鸿玮澜山二期,30,14305,大连鸿玮物业服务有限公司,1.8,辽宁,2,二手房,2015
中山区解放路604号,大连,无开发商,中山,20180929,38.89026319122045,121.66407876092346,鸣鹤街,2,13753,街道办事处（居委会）代管物业,0.5,辽宁,2,二手房,1998
大连市甘井子区椒房街24号楼2-104链家地产,大连,大连港置地有限公司,甘井子,20180929,38.985363789837166,121.61034055597686,大连港天下粮仓,10,19001,大连万科物业服务有限公司,2.2,辽宁,2,二手房,2017
沙河口区连山街10号2-1-2,大连,大连城市建设集团有限公司,沙河口,20180929,38.89637522563413,121.57143690983219,星苑小区,13,11150,大连城建开发集团物业管理有限公司,0.2,辽宁,2,二手房,1994
甘井子区玉丽街39号楼3号公建,大连,大连新型房地产开发有限公司,甘井子,20180929,38.98706755029984,121.55605471197089,玉丽街,60,9911,大连新兴物业管理有限公司,0.5,辽宁,2,二手房,2002
开发区正恒园1-16,大连,大连富华房地产有限公司,开发区,20180929,39.04823944344617,121.76165468797754,正泰园A区,11,11272,嘉泰物业管理有限公司,1.9,辽宁,2,二手房,2012
西岗区东北路160号1层2号,大连,无开发商,西岗,20180929,38.89762838073334,121.63125053999369,星火小区,11,8343,大连自然物业管理中心,0.5,辽宁,2,二手房,1999
高新园区凌水路海苑街30号链家地产,大连,大连大有房屋开发有限公司,高新园区,20180929,38.883724627986716,121.51945812605742,大有恬园公寓,8,9025,大连大有恬园物业管理有限公司,1.2,辽宁,2,二手房,2010
中山区中青街43号,大连,无开发商,中山,20180929,38.90150598268117,121.65711014604845,解放路（青云街商圈）,5,11168,街道办事处（居委会）代管物业,0.6,辽宁,2,二手房,1997
金州区金润小区B区861单元102,大连,大连中连房地产开发有限公司,金州,20180929,39.10615165380565,121.74639264534615,自然天城B区,53,7556,大连新生活物业管理有限公司,0.4,辽宁,2,二手房,2010
甘井子区泉水H1区54号3单元1层1号,大连,暂无信息,甘井子,20180929,39.0074937564393,121.62382856020916,龙畔金泉五期K1区,17,12087,大连新兴物业管理有限公司,0.5,辽宁,2,二手房,2008
无门店信息,大连,暂无信息,甘井子,20180929,34.52713835999158,118.76812980670795,亿达春田蝶园,44,15372,暂无信息,-,辽宁,2,二手房,-
无门店信息,大连,大连中政房地产开发有限公司,中山,20180929,34.52713835999158,118.76812980670795,中政小区,18,11194,大连中政物业管理有限公司,0.3,辽宁,2,二手房,1999
西岗区八一路102号,大连,无开发商,西岗,20180929,38.891094924332045,121.65327483516513,杏环街,12,9612,无物业管理服务,-,辽宁,2,二手房,1994
中山区安居巷7号,大连,大连永高房屋开发有限公司,西岗,20180929,38.900436431991984,121.67796628922625,北海胜利公社,11,12269,大连永高物业管理有限公司,0.8,辽宁,2,二手房,2005
沙河口区锦云北园9号2单元1层2号,大连,大连锦绣房地产开发有限公司,沙河口,20180929,38.94836395772248,121.55744845421044,锦云北园,24,9569,大连锦绣物业管理有限公司,0.3,辽宁,2,二手房,1996
甘井子区甘井子街3号公建,大连,无开发商,甘井子,20180929,38.982086281836246,121.63426694995971,甘泉小区,14,10047,街道办事处（居委会）代管物业,0.5,辽宁,2,二手房,1990
无门店信息,大连,暂无信息,旅顺口,20180929,34.52713835999158,118.76812980670795,熙龙山庄,37,7484,暂无信息,-,辽宁,2,二手房,-
金州新区先进街道渤海街7-4号1-2层、7-3号1-2层,大连,大连海洋房地产开发有限公司,金州,20180929,39.09342713035472,121.74590886291374,金海嘉园,21,7999,大连辽渔物业管理有限公司,0.8,辽宁,2,二手房,2007
甘井子区华东路33-5号,大连,大连宜和房地产开发有限公司,甘井子,20180929,38.97497080220593,121.59479866243332,松江路,2,9773,大连新华物业管理有限公司,-,辽宁,2,二手房,1993
开发区杏花里13#楼-7号,大连,大连经济技术开发区城市建设开发有限公司,开发区,20180929,31.31075067906954,120.63127837058457,颐华园,20,8524,大连经济技术开发区杏林物业管理有限公司,0.3,辽宁,2,二手房,2005
沙河口区绿清街12号,大连,无开发商,沙河口,20180929,38.93851335419565,121.57334844377094,绿波B区,16,8987,街道办事处（居委会）代管物业,0.1,辽宁,2,二手房,1992
金州新区八一路金都嘉园1号楼1号公建,大连,大连元新房地产开发有限公司,金州,20180929,39.05525210261778,121.74865634199398,华夏金城,34,10334,大连元新物业管理有限公司,1.2,辽宁,2,二手房,2008
中山区山屏街116号1-1,大连,大连中信海港投资有限公司,中山,20180929,38.90729438486833,121.68598159980013,山屏街,33,10222,大连大众物业管理有限公司,0.5,辽宁,2,二手房,1988
金州区金润小区B区861单元102,大连,大连新型房地产开发有限公司,金州,20180929,39.10615165380565,121.74639264534615,糖果小区,62,8025,大连新兴物业管理有限公司,0.5,辽宁,2,二手房,2011
西岗区东北路160号1层2号,大连,无开发商,西岗,20180929,38.89762838073334,121.63125053999369,东北路（石道街商圈）,2,11382,无物业管理服务,-,辽宁,2,二手房,1995
中山区北斗街53号1层1号,大连,暂无信息,中山,20180929,38.92727355733075,121.67002970974048,39中港湾街,4,18743,暂无信息,-,辽宁,2,二手房,-
甘井子区华北路花锦园28号23-3-1-2建筑物,大连,无开发商,甘井子,20180929,38.951627958411166,121.5739439799003,华北路（周水子商圈）,3,14265,无物业管理服务,-,辽宁,2,二手房,1995
中山区鲁迅路204号百盛新药特药商店一楼西侧部分,大连,无开发商,中山,20180929,38.92576188797548,121.6771337100355,荣泰街,7,12257,无物业管理服务,-,辽宁,2,二手房,1999
中山区中南路店212号门头房,大连,无开发商,中山,20180929,38.91149759691359,121.67700561077149,中纬巷,5,12275,无物业管理服务,-,辽宁,2,二手房,1995
沙河口区恒利园42号-8,大连,无开发商,沙河口,20180929,38.93357562498634,121.57914091532649,新建小区,11,10796,无物业管理服务,-,辽宁,2,二手房,1980
开发区红梅小区19栋-2-1-1号,大连,大开中和祥房地产开发有限公司,开发区,20180929,29.906498897603264,121.5913630631805,金丰大厦,26,8641,新加坡物业管理有限公司,1.9,辽宁,2,二手房,2012
开发区翠竹小区33栋4-1-1号,大连,大连福恒房地产开发有限公司,开发区,20180929,30.635492106460237,119.69169575745704,福佳国际,33,5352,大连福佳物业管理有限公司,1.5,辽宁,2,二手房,2007
中山区高尚路28-1号,大连,无开发商,中山,20180929,38.892673425111305,121.67148833870213,高尚路,18,9070,无物业管理服务,-,辽宁,2,二手房,1993
中山区山屏街116号1-1,大连,暂无信息,中山,20180929,38.90729438486833,121.68598159980013,山屏美境,7,16366,暂无信息,3.5,辽宁,2,二手房,2009
开发区黄海西路201号107公建,大连,无开发商,开发区,20180929,39.04942604506828,121.80126318235419,岗松里小区,42,6931,大连经济技术开发区海青物业有限公司,0.5,辽宁,2,二手房,2000
西岗区八一路102号,大连,无开发商,西岗,20180929,38.891094924332045,121.65327483516513,长春街,9,11113,无物业管理服务,-,辽宁,2,二手房,1997
金州区同济路44号,大连,大连金州金山房地产开发有限公司,金州,20180929,39.10476859984152,121.71234684495865,金山苑小区,13,8476,大连金山物业管理有限公司,-,辽宁,2,二手房,2000
甘井子金地艺境博艺西园2-1号,大连,大连丰达房地产开发有限公司,甘井子,20180929,39.04402110608829,121.665484498555,益丰乾城,20,11340,大连逸佳物业管理有限公司,1.6,辽宁,2,二手房,2015
金州区南棉路310号,大连,大连金连房地产开发有限公司,金州,20180929,39.09939229372624,121.72414976100345,金连福地,24,7229,街道办事处（居委会）代管物业,0.5,辽宁,2,二手房,2010
金州区南棉路310号,大连,暂无信息,金州,20180929,39.09939229372624,121.72414976100345,光明现代城,5,7429,暂无信息,-,辽宁,2,二手房,2004
中山区高尚路28-1号,大连,大连华南地产开发有限公司,中山,20180929,38.892673425111305,121.67148833870213,环山街,10,9559,街道办事处（居委会）代管物业,0.5,辽宁,2,二手房,1994
金州区先进街道渤海街1-4号1-2层,大连,无开发商,金州,20180929,39.09512910553563,121.74578812616167,金元小区,41,7124,街道办事处（居委会）代管物业,0.1,辽宁,2,二手房,1993
金州区南棉路310号,大连,无开发商,金州,20180929,39.09939229372624,121.72414976100345,金色华庭,16,6617,大连阿尔滨集团物业管理有限公司,-,辽宁,2,二手房,2008
无门店信息,大连,暂无信息,西岗,20180929,34.52713835999158,118.76812980670795,34中三元街,57,26667,暂无信息,-,辽宁,2,二手房,1990
中山区山屏街116号1-1,大连,无开发商,中山,20180929,38.90729438486833,121.68598159980013,山峦北巷,5,12143,无物业管理服务,-,辽宁,2,二手房,1985
无门店信息,大连,大连顺浩置业有限公司,开发区,20180929,34.52713835999158,118.76812980670795,上品公馆,5,5843,大连顺浩置业物业有限公司,3.8,辽宁,2,二手房,2013
无门店信息,大连,大连新诚房屋开发有限公司,金州,20180929,34.52713835999158,118.76812980670795,滨城南岸小区,6,7957,大连新城物业管理有限公司,0.4,辽宁,2,二手房,2007
金州区同济路44号,大连,大连荣基置业有限公司,金州,20180929,39.10476859984152,121.71234684495865,瑞栢中心,20,10414,大连银帆物业管理有限公司,2,辽宁,2,二手房,2017
沙河口区富国街14号1-1-2,大连,无开发商,沙河口,20180929,38.901027106600836,121.59047734850638,星光街,1,15355,街道办事处（居委会）代管物业,0.5,辽宁,2,二手房,-
中山区中青街87号一单元107,大连,无开发商,中山,20180929,38.90213494248529,121.65806522267005,开春巷,10,12307,无物业管理服务,-,辽宁,2,二手房,1993
金州新区八一路金都嘉园1号楼1号公建,大连,大连市金州区房屋开发公司,金州,20180929,39.05525210261778,121.74865634199398,古城丁区,52,7104,街道办事处（居委会）代管物业,0.1,辽宁,2,二手房,1993
金州区同济路44号,大连,大连金州金山房地产开发有限公司,金州,20180929,39.10476859984152,121.71234684495865,金山小区,47,6922,大连金山物业管理有限公司,-,辽宁,2,二手房,2009
无门店信息,大连,无开发商,金州,20180929,34.52713835999158,118.76812980670795,金山名苑,9,7973,大连金山物业管理有限公司,0.5,辽宁,2,二手房,2009
金州新区先进街道五一路350-1号1-2层,大连,暂无信息,金州,20180929,39.095023587156554,121.74333264248519,聚鑫小区一期,44,7536,大连新生活物业管理有限公司,0.5,辽宁,2,二手房,1993
金州区先进街道渤海街1-4号1-2层,大连,大连市金州区房屋开发公司,金州,20180929,39.09512910553563,121.74578812616167,鑫海阳光,6,8030,金州区物业管理有限公司,0.5,辽宁,2,二手房,2010
大连市开发区东北三街103号公建,大连,大连新天润企业集团有限公司,开发区,20180929,39.05621858250137,121.80658750738304,天都花园,11,7625,大连银海物业管理有限公司,0.5,辽宁,2,二手房,2002
沙河口区昌黎街77号楼第1层公建,大连,清远君行房地产有限公司,沙河口,20180929,38.91974518366595,121.5902918379551,君安国际,0,13820,街道办事处（居委会）代管物业,11,辽宁,2,二手房,2010
开发区黄海西路201号107公建,大连,中信开发商,开发区,20180929,39.04942604506828,121.80126318235419,金海里,24,6113,大连中信物业管理有限公司,0.1,辽宁,2,二手房,2000
无门店信息,大连,暂无信息,西岗,20180929,34.52713835999158,118.76812980670795,34中纪念街,50,28103,暂无信息,-,辽宁,2,二手房,1990
西岗区北岗街新康巷19-1号公建,大连,大连铁路房地产开发有限责任公司,西岗,20180929,38.9306759109621,121.61509567690577,龙畔锦城,34,19952,大连亚航物业管理有限公司,1.2,辽宁,1,二手房,2009
高新园区敬贤街25-9,大连,中海东丰地产（大连）有限公司,高新园区,20180929,38.86877373541043,121.52975162654023,中海紫御观邸一期,8,23173,大连中海物业管理有限公司,2.6,辽宁,1,二手房,2013
沙河口区黄河路535号,大连,大连建园房地产开发有限公司,沙河口,20180929,38.91773777159567,121.60217159922856,79中城市公元,34,29706,大连斌弘物业管理有限公司,2.6,辽宁,1,二手房,2009
沙河口区黄河路535号,大连,大连城市建设集团有限公司,沙河口,20180929,38.91773777159567,121.60217159922856,79中金光小区,46,28158,无物业管理服务,-,辽宁,1,二手房,1993
沙河口区联合路133号,大连,大连新型房地产开发有限公司,沙河口,20180929,38.91608561262676,121.60480987310456,21中天兴花园一期,18,16981,大连万泰物业管理有限公司,0.5,辽宁,1,二手房,1998
高新园区硅谷假日小区25号楼地下室,大连,大连鑫亿房屋开发有限公司,高新园区,20180929,38.865995717263544,121.53771220335938,硅谷假日,48,17600,大连斌弘物业管理有限公司,0.8,辽宁,1,二手房,2005
中山区华乐街107-115号1单元1层2号,大连,大连海昌房地产开发有限公司,中山,20180929,38.92093821499401,121.68879267531725,海昌欣城,78,14789,大连海昌欣城物业管理有限公司,1.2,辽宁,1,二手房,2002
沙河口区五一路177-1-1-1,大连,大华集团大连房地产开发有限公司,沙河口,20180929,38.90485271510574,121.57313607267041,大华御庭,35,18858,大连乐尔居物业服务有限公司,1.4,辽宁,1,二手房,2009
西岗区中山路158号唐山街市场外14号,大连,大连胜利路拓宽改造工程建设有限公司,西岗,20180929,38.91835355789945,121.63274981188985,星海绿山城,34,27864,无物业管理服务,-,辽宁,1,二手房,2015
甘井子区西南路芳茗园30号楼,大连,大连东北房屋开发有限公司,甘井子,20180929,38.961395177040636,121.59546002818708,东北名苑,33,17116,大连国合物业管理有限公司,0.5,辽宁,1,二手房,2000
沙河口区黄河路535号,大连,大连民兴房地产开发有限公司,沙河口,20180929,38.91773777159567,121.60217159922856,79中民兴花园二期,29,26857,大连衡德物业管理有限公司,1.2,辽宁,1,二手房,2003
甘井子区促进路200号,大连,大连亿达房地产股份有限公司,甘井子,20180929,38.95810188892782,121.58530036264898,林语家话,18,22520,亿达物业管理有限公司,1.2,辽宁,1,二手房,2005
沙河口区中山路417A-4号,大连,大连海孚房地产开发有限公司,沙河口,20180929,38.90734671814175,121.59482182703752,华业玫瑰东方,39,24778,深圳华业物业管理有限公司大连分公司,3.5,辽宁,1,二手房,2011
沙河口区鞍山路65号美都园7号1单元1层4号公建,大连,大连良运房地产开发有限公司,沙河口,20180929,38.92727525772336,121.60296423346817,良运缤纷四季,27,19198,大连良运物业管理有限公司,0.8,辽宁,1,二手房,2006
沙河口区五一路326号,大连,大连亿达房地产股份有限公司,高新园区,20180929,38.88949370884506,121.5496388331407,亿达学清园,19,22009,大连软件园物业管理有限公司,0.5,辽宁,1,二手房,2001
西岗区康平街2号（5号楼3-1-3号）,大连,大连北洋房屋开发公司,西岗,20180929,38.91044414697888,121.61980769264477,胜利花园,16,13127,大连宏成物业管理有限公司,0.5,辽宁,1,二手房,1997
沙河口区长江路738号,大连,大连大和中盛房地产有限公司,西岗,20180929,38.92379936592553,121.61207696256155,颐和香榭,26,27359,大连颐和物业管理有限公司,2.5,辽宁,1,二手房,2008
高新园区红凌路732-4号,大连,大华集团大连置业有限公司,高新园区,20180929,38.90158813547366,121.53265954348016,大华锦绣华城二期,31,23287,大连大华物业管理有限公司,2.5,辽宁,1,二手房,2013
中山区杏林街66—5号,大连,大连万达房地产开发有限公司,中山,20180929,38.9244189768098,121.6630029448549,湖畔小区,34,21666,大连万达物业管理有限公司,0.2,辽宁,1,二手房,1995
甘井子区锦城西园4#3-1-1,大连,大连锦绣房地产开发有限公司,甘井子,20180929,38.95286223185571,121.55129044777,锦城西园,12,18323,大连锦绣物业管理有限公司,0.6,辽宁,1,二手房,2006
西岗区鞍山路65-5号,大连,大连万达房地产开发有限公司,沙河口,20180929,38.92701992456326,121.60258216167713,79中广电中心,73,27917,无物业管理服务,-,辽宁,1,二手房,1988
沙河口区富静街26号1单元1层5号,大连,大连远东房屋开发有限公司,沙河口,20180929,38.908727606250466,121.58667844684369,世嘉星海,17,29093,大连瑞信物业管理有限公司,1.6,辽宁,1,二手房,2007
沙河口区五一路109-4号,大连,大连正源房地产开发有限公司,沙河口,20180929,38.9089272537305,121.58289867190192,幸福e家二期,20,28336,大连正源物业服务有限公司,0.7,辽宁,1,二手房,2003
甘井子区汇仁南园42-16-3,大连,中铁建（大连）置业有限公司,甘井子,20180929,38.99932098520821,121.5897722676133,动力院景三期汇善园,39,14612,大连铁龙安居物业管理有限公司,0.9,辽宁,1,二手房,2007
沙河口区黄河路562号,大连,大连新型房地产开发有限公司,沙河口,20180929,38.9167961764482,121.60352063132478,79中科学家公寓,48,21567,大连新兴物业管理有限公司,0.8,辽宁,1,二手房,1998
大连市甘井子区丰收路3-5号,大连,大连邦德房屋开发有限公司,甘井子,20180929,38.965377255081755,121.58288415324094,芙蓉人家,29,17634,大连广丰物业管理有限公司,0.5,辽宁,1,二手房,2002
沙河口区五一路109-4号,大连,大连正源房地产开发有限公司,沙河口,20180929,38.9089272537305,121.58289867190192,幸福e家一期,21,29335,大连正源物业服务有限公司,0.8,辽宁,1,二手房,2002
沙河口区成仁街91号,大连,大连万达房地产开发有限公司,沙河口,20180929,38.91539947107844,121.59585638842556,龙祥花园,15,22134,大连万达物业管理有限公司,0.8,辽宁,1,二手房,2001
沙河口区五一路270-274号,大连,大连誉园房地产开发有限公司,高新园区,20180929,38.89104111985908,121.55325426578435,斯坦福院落,13,21494,第一太平戴维斯物业顾问（北京）有限公司大连分公司,1.2,辽宁,1,二手房,2008
高新园区海苑街30号1单元1号公建,大连,大连大有房屋开发有限公司,高新园区,20180929,20.06392317589085,110.32302599457326,大有恬园二期,36,16455,大连家园物业有限公司,1.2,辽宁,1,二手房,2010
沙河口区兰田街33号,大连,大连银地置业发展有限公司,沙河口,20180929,38.926138912221084,121.56486022834609,未来星城,12,13779,大连大力物业管理有限公司,0.5,辽宁,1,二手房,2002
高新园区红凌路732-4号,大连,大华集团大连置业有限公司,高新园区,20180929,38.90158813547366,121.53265954348016,大华锦绣华城一期,33,22884,大连大华物业管理有限公司,2.5,辽宁,1,二手房,2010
沙河口区长江路738号,大连,大连民兴房地产开发有限公司,沙河口,20180929,38.92379936592553,121.61207696256155,79中民兴花园一期,9,26262,大连衡德物业管理有限公司,1.2,辽宁,1,二手房,2002
沙河口区五一路110-4号,大连,大连市中联房地产开发有限公司,沙河口,20180929,38.90710946686282,121.58172564480427,星海中龙园,16,18090,大连斌弘物业管理有限公司,0.6,辽宁,1,二手房,2004
高新园区黄浦路600-602号,大连,大连鑫亿房屋开发有限公司,高新园区,20180929,38.86342472318123,121.53493189660259,新科花园,19,17946,大连鑫晟物业管理有限公司,0.6,辽宁,1,二手房,2003
西岗区胜利路33号,大连,大连万达房地产开发有限公司,西岗,20180929,38.91309771954841,121.62500886627636,信兴花园,4,25642,大连亿安物业管理有限公司,0.5,辽宁,1,二手房,1997
沙河口区西南路358号1—2号,大连,大连东兴置业有限公司,沙河口,20180929,38.90839654326566,121.56908246905662,西山园中园,12,20349,大连东昌物业管理有限公司,1.2,辽宁,1,二手房,2007
中山区中南路店212号门头房,大连,大连鸿业房地产开发有限公司,中山,20180929,38.91149759691359,121.67700561077149,中南风景,18,16435,大连自然物业管理有限公司,0.8,辽宁,1,二手房,2004
沙河口区西南路358号1—2号,大连,大连泰安房地产开发有限公司,沙河口,20180929,38.90839654326566,121.56908246905662,泰安花园,19,14929,大连三宝物业发展有限公司,0.5,辽宁,1,二手房,1998
大连市甘井子区燕南园50号,大连,大连软件园发展有限公司,高新园区,20180929,38.90172480153224,121.5363466289672,东方圣克拉一期,35,22522,亿达物业管理有限公司,2.6,辽宁,1,二手房,2010
中山区民运巷 47号1层2号,大连,大连中杰房屋开发有限公司,中山,20180929,38.905955122300846,121.64798148011702,石葵秀景,7,16180,大连中杰物业管理有限公司,1.2,辽宁,1,二手房,2005
中山区杏林街66—5号,大连,大连万达房地产开发有限公司,中山,20180929,38.9244189768098,121.6630029448549,明泽苑,8,25221,大连万达物业管理有限公司,2,辽宁,1,二手房,2000
沙河口区数码路(北段)20-6号,大连,无开发商,高新园区,20180929,38.890045799133254,121.55191912957606,学子园,3,21230,业主自筹物业,0.5,辽宁,1,二手房,2002
甘井子区迎客路郭东街一品蓝天公建14号,大连,大连鼎新房地产开发有限公司,甘井子,20180929,38.958456949708726,121.556756277476,鼎新鼎润府,27,19199,大连鼎新物业管理有限公司,0.6,辽宁,1,二手房,2006
中山区武昌街武昌公寓6号公建,大连,大连武昌房地产开发有限公司,中山,20180929,38.912280913445784,121.64921130527547,部居逸阁,24,12057,大连宜佳物业管理有限公司,1,辽宁,1,二手房,2005
大连市甘井子中华路街道汇畅街48号,大连,远洋地产有限公司,甘井子,20180929,39.00552323996268,121.59684207363269,远洋自然,45,15662,大连远洋基业物业管理有限公司,1.3,辽宁,1,二手房,2010
高新园敬贤街23-11号,大连,中海东丰地产（大连）有限公司,高新园区,20180929,38.86956637166276,121.5301657390922,中海紫御观邸三期,23,19274,大连中海物业管理有限公司,2.6,辽宁,1,二手房,2014
西岗区鞍山路65-5号,大连,大连万益房屋开发有限公司,沙河口,20180929,38.92701992456326,121.60258216167713,万益花园,10,12141,大连自然物业管理中心,0.5,辽宁,1,二手房,2003
高新园区红凌路732-4号,大连,大连软件园开发有限公司,高新园区,20180929,38.90158813547366,121.53265954348016,东方圣克拉三期,20,23317,亿达物业管理有限公司,2.6,辽宁,1,二手房,2015
沙河口区星海广场B3区14-2号1层,大连,大连友谊合升房地产开发有限公司,沙河口,20180929,38.88693148294673,121.58735631267305,壹品星海一期,32,20970,大连友谊物业服务有限公司,1.3,辽宁,1,二手房,2005
甘井子区金北街17号,大连,大连悦泰集团有限公司,甘井子,20180929,38.95546176066109,121.5285003794903,悦泰馨家,18,23506,大连优豪斯物业管理有限公司,0.5,辽宁,1,二手房,2003
大连市甘井子区丰收路3-5号,大连,大连万鼎置业有限公司,甘井子,20180929,38.965377255081755,121.58288415324094,万科蓝山,13,24460,大连万科物业服务有限公司,2.9,辽宁,1,二手房,2015
中山区爱华街13号,大连,大连汇邦置业有限公司,中山,20180929,38.92541607518685,121.6535728031028,汇邦中心,28,43240,大连新昌物业管理有限公司,4.2,辽宁,1,二手房,2012
西岗区鞍山路65-5号,大连,无开发商,沙河口,20180929,38.92701992456326,121.60258216167713,美辰臻品,5,14827,大连众和物业管理有限公司,1,辽宁,1,二手房,2007
无门店信息,大连,大华集团大连置业有限公司,高新园区,20180929,34.52713835999158,118.76812980670795,大华锦绣华城三期,32,21577,大连大华物业管理有限公司,2.5,辽宁,1,二手房,2012
沙河口区知心园10号公建,大连,亿达房地产开发有限公司,高新园区,20180929,38.893977135945136,121.55667141994431,亿达康派,8,18542,亿达物业管理有限公司,1.5,辽宁,1,二手房,2006
高新园区聚贤路36号5幢1单元1层1号,大连,大连金真源集团房地产开发有限公司,高新园区,20180929,32.31472011562832,119.46141263909165,山海一家三期,12,17247,大连龙海物业管理有限公司,1.2,辽宁,1,二手房,2010
中山区秀月街37号1层2号,大连,大连澳南房屋开发有限公司,中山,20180929,38.88757907576307,121.66311065527876,明秀山庄B区,27,28084,大连澳邦致和物业服务有限公司,1.9,辽宁,1,二手房,2008
沙河口区连山街44-2号半地下一层（地上一层部分）,大连,大连远东房屋开发有限公司,沙河口,20180929,38.892991456958086,121.57299542767161,星海大第,6,21821,大连斌宏物业管理有限公司,1,辽宁,1,二手房,2005
沙河口区成仁街91号,大连,大连城市建设集团有限公司,沙河口,20180929,38.91539947107844,121.59585638842556,79中学中盈家园,20,20013,街道办事处（居委会）代管物业,0.5,辽宁,1,二手房,2002
无门店信息,大连,大华集团大连置业有限公司,高新园区,20180929,34.52713835999158,118.76812980670795,大华锦绣华城四期,24,22234,大连大华物业管理有限公司,2.5,辽宁,1,二手房,2015
沙河口区成仁街91号,大连,大连海孚房地产开发有限公司,沙河口,20180929,38.91539947107844,121.59585638842556,华业玫瑰东方Ⅱ期,19,24508,深圳华业物业管理有限公司大连分公司,3.5,辽宁,1,二手房,2014
沙河口区联合路133号,大连,大连建兴房屋开发有限公司,沙河口,20180929,38.91608561262676,121.60480987310456,21中学中山南苑,3,17685,大连自然物业管理有限公司,1.3,辽宁,1,二手房,2001
中山区爱华街13号,大连,无开发商,中山,20180929,38.92541607518685,121.6535728031028,九中安乐街,41,37423,无物业管理服务,-,辽宁,1,二手房,1990
沙河口区五一路326号,大连,无开发商,高新园区,20180929,38.88949370884506,121.5496388331407,双语学校,17,21556,无物业管理服务,0.2,辽宁,1,二手房,1998
甘井子区虹港路16号楼1层公建,大连,大连建园房地产开发有限公司,甘井子,20180929,38.96457808198196,121.55421052098279,城市印象,29,11143,大连天兴物业管理有限公司,1.6,辽宁,1,二手房,2011
西岗区黄河路90号公建部分,大连,大连民兴房地产开发有限公司,西岗,20180929,38.92234529815978,121.62829331825485,前城国际一期,18,21726,大连前城花园物业管理有限公司,1,辽宁,1,二手房,2005
甘井子区金家街17-7号,大连,大连三业房地产开发有限公司,甘井子,20180929,38.97493697764367,121.60110987128529,紫金枫尚,5,22478,亿达物业管理有限公司,0.8,辽宁,1,二手房,2007
甘井子区西南路芳茗园30号楼,大连,大连泰华房地产开发有限公司,甘井子,20180929,38.961395177040636,121.59546002818708,泰华府邸,8,17624,大连华安物业管理有限公司,1.5,辽宁,1,二手房,2009
沙河口区联合路133号,大连,大连新型房地产开发有限公司,沙河口,20180929,38.91608561262676,121.60480987310456,21中联德小区,1,18615,大连新型物业管理有限公司,0.5,辽宁,1,二手房,1998
中山区金城街26号一楼,大连,无开发商,中山,20180929,38.922282529515634,121.65214466263014,九中白兰街,18,34590,无物业管理服务,-,辽宁,1,二手房,1995
中山区民运巷 47号1层2号,大连,大连荣泰房地产开发有限公司,中山,20180929,38.905955122300846,121.64798148011702,豪森茗家,6,22330,大连戴德梁行物业管理有限公司,2.2,辽宁,1,二手房,2008
沙河口区连山街10号2-1-2,大连,大连宝嘉房地产有限公司,沙河口,20180929,38.89637522563413,121.57143690983219,星海名庭,7,21946,大连斌宏物业管理有限公司,0.6,辽宁,1,二手房,2005
中山区华乐街71号公建,大连,大连环海房地产开发有限公司,中山,20180929,38.923187679200566,121.6843197903016,华乐小区,23,12230,大连景和物业管理有限公司,0.5,辽宁,1,二手房,2000
沙河口区中山路417A-4号,大连,大连宝嘉房地产有限公司,沙河口,20180929,38.90734671814175,121.59482182703752,德源,4,25953,大连中和信邦物业管理有限公司,1.9,辽宁,1,二手房,2008
无门店信息,大连,大连顺迈房地产开发有限公司,沙河口,20180929,34.52713835999158,118.76812980670795,星海国宝,32,18114,长城物业集团股份有限大连分公司,3,辽宁,1,二手房,2003
中山区中青街87号一单元107,大连,大连金生房地产开发有限公司,中山,20180929,38.90213494248529,121.65806522267005,金生佳苑,12,17381,大连金宇物业管理有限公司,1,辽宁,1,二手房,2006
甘井子区汇仁街19号12号楼1单元102室,大连,大连凯祥房地产开发有限公司,甘井子,20180929,38.99746297497168,121.58917714380617,名贵山庄亲情园,16,14066,大连弘益达物业管理有限公司,0.5,辽宁,1,二手房,2002
大连市高新园区七贤中路63号,大连,大连宏都房地产开发有限公司,高新园区,20180929,38.86053006357667,121.53273606963094,宏都峰景,27,19776,大连东方百瑞物业管理有限公司,1.9,辽宁,1,二手房,2012
大连市沙河口区五四路199-4号,大连,大连铁路房地产开发有限责任公司,西岗,20180929,38.907987066040505,121.60249214877012,新华小区,3,12445,大连铁路物业管理有限公司,0.3,辽宁,1,二手房,1998
大连市沙河口区黄河路729号,大连,大连盛佳房地产开发有限公司,沙河口,20180929,38.91710565765228,121.58954758972729,城市佳园,7,17605,街道办事处（居委会）代管物业,1,辽宁,1,二手房,2004
沙河口区五一路270-274号,大连,无开发商,高新园区,20180929,38.89104111985908,121.55325426578435,city one,14,14094,街道办事处（居委会）代管物业,0.5,辽宁,1,二手房,2006
大连市高新园区七贤中路63号,大连,无开发商,高新园区,20180929,38.86053006357667,121.53273606963094,学府士家,11,14770,无物业管理服务,-,辽宁,1,二手房,2000
沙河口区星海广场B3区14-2号1层,大连,大连万达房地产开发有限公司,沙河口,20180929,38.88693148294673,121.58735631267305,大连明珠,45,23681,大连万象美物业管理有限公司,3.5,辽宁,1,二手房,2008
沙河口区成仁街91号,大连,无开发商,沙河口,20180929,38.91539947107844,121.59585638842556,西安路公寓,13,11545,大连协和物业管理有限公司,0.5,辽宁,1,二手房,2000
甘井子区亿家缘虹韵路205,大连,大连亿达美加房地产开发有限公司,甘井子,20180929,38.95759554613104,121.5279376157567,第五郡一号地,33,19855,亿达物业管理有限公司,2,辽宁,1,二手房,2012
沙河口区星海广场B3区14-9,大连,大连友谊合升房地产开发有限公司,沙河口,20180929,38.887408126588866,121.58732762887982,壹品星海三期,34,22605,大连友谊物业服务有限公司,1.9,辽宁,1,二手房,2007
金州区小平岛B组团4号楼3号商铺,大连,大连圣岛房地产开发有限公司,高新园区,20180929,39.2986190718601,121.95658248043723,小平岛海角七号,42,20118,大连凯尔富物业管理有限公司,1.7,辽宁,1,二手房,2011
沙河口区黄河路535号,大连,大连利源房屋开发有限公司,沙河口,20180929,38.91773777159567,121.60217159922856,79中万岁公寓,11,17485,大连大众物业管理有限公司,0.8,辽宁,1,二手房,2000
西岗区平等街21号1层2号,大连,裕景兴业（大连）有限公司,西岗,20180929,38.92251066253164,121.63236845125735,中心裕景,51,19170,第一太平戴维斯物业顾问（北京）有限公司大连分公司,3.8,辽宁,1,二手房,2012
甘井子区红南东街7-7号,大连,大连均卫达房地产开发有限公司,甘井子,20180929,38.92880462247992,121.54144910207062,亲亲阳光,10,11224,大连万泰物业管理有限公司,0.5,辽宁,1,二手房,2004
大连市沙河口区五四路199-4号,大连,无开发商,西岗,20180929,38.907987066040505,121.60249214877012,世纪家园,0,14057,大连铁龙物业管理有限公司,0.3,辽宁,1,二手房,2000
高新园区敬贤街25-9,大连,大连家豪房地产开发有限公司,高新园区,20180929,38.86877373541043,121.52975162654023,圣托里尼,27,18817,大连斌弘物业管理有限公司,1.8,辽宁,1,二手房,2013
甘井子区亿家缘虹韵路205,大连,大连耕海置业有限公司,甘井子,20180929,38.95759554613104,121.5279376157567,国民院子,23,18211,大连耕海物业管理有限公司,2,辽宁,1,二手房,2012
大连市甘井子区钻石湾和信园13-5,大连,远洋地产有限公司,甘井子,20180929,38.95806887148857,121.62117199773128,远洋钻石湾一期,78,21586,大连远洋基业物业管理有限公司,2.7,辽宁,1,二手房,2014
中山区中南路226号,大连,大连悦泰集团有限公司,中山,20180929,38.90029610333926,121.68178899957817,悦泰林里,12,24421,大连腾馨物业管理有限公司,1.2,辽宁,1,二手房,2006
沙河口区富国街34-3,大连,大连万达房地产开发有限公司,沙河口,20180929,38.90160386349964,121.58915317342193,星海自由港,6,17998,大连万景物业管理有限公司,1.2,辽宁,1,二手房,2003
大连市高新园区七贤中路63号,大连,大连招宇房地产有限公司,高新园区,20180929,38.86053006357667,121.53273606963094,招商兰溪谷,25,21686,招商局物业管理有限公司大连分公司,2.6,辽宁,1,二手房,2015
沙河口区鞍山路65号美都园7号1单元1层4号公建,大连,远洋地产有限公司,沙河口,20180929,38.92727525772336,121.60296423346817,绿都园,13,12270,大连峰霖物业管理有限公司,0.6,辽宁,1,二手房,2000
甘井子区汇仁街19号12号楼1单元102室,大连,大连华南房地产开发有限公司,甘井子,20180929,38.99746297497168,121.58917714380617,名贵山庄华夏园,9,14013,大连弘益达物业管理有限公司,0.5,辽宁,1,二手房,2004
西岗区华北路100号1层5号,大连,大连渤海红旗集团有限公司,沙河口,20180929,38.91336952993919,121.6258229781024,碧海花园,1,12619,无物业管理服务,0.3,辽宁,1,二手房,2002
西岗区新田巷27号1-2,大连,大连海苑房屋开发有限公司,西岗,20180929,38.893215932589385,121.64103065169111,半岛故乡,6,15425,大连半岛物业管理有限公司,0.8,辽宁,1,二手房,2002
沙河口区五一路219-1,大连,大连圣北房地产有限公司,沙河口,20180929,38.9026964858514,121.56644125985508,电业花园,8,12645,大连市沙河口房产物业管理有限公司,0.3,辽宁,1,二手房,1999
西岗区长红街4号1号公建,大连,大连融泰房地产开发有限公司,西岗,20180929,38.91377414665191,121.6302525225721,融泰花园,12,23857,大连长春花园物业管理有限公司,0.4,辽宁,1,二手房,1996
沙河口区沙能街101号1单元1层1号,大连,大连大力置业有限公司,沙河口,20180929,38.9366316275348,121.59031205759763,机车佳苑,6,13942,大连大力物业管理有限公司,1.5,辽宁,1,二手房,2009
西岗区鞍山路29号龙畔锦城东门,大连,大连名仕房地产开发有限公司,西岗,20180929,38.92763470697088,121.61498923399098,中央复兴里,14,21726,大连名仕物业管理有限公司,2.1,辽宁,1,二手房,2010
大连市沙河口区五四路199-4号,大连,大连新型房地产开发有限公司,西岗,20180929,38.907987066040505,121.60249214877012,新华公寓,5,15767,大连新型物业管理有限公司,0.5,辽宁,1,二手房,1997
高新园区海苑街36号1单元2号公建,大连,千汇德（大连）置业有限公司,高新园区,20180929,20.06392317589085,110.32302599457326,哈佛映像,10,18931,大连千汇德物业管理有限公司,1.2,辽宁,1,二手房,2009
西岗区长春路334号,大连,大连源通房地产开发有限公司,西岗,20180929,38.89807766522607,121.63221082858387,南石源居,2,14833,大连源通物业管理有限公司,1.3,辽宁,1,二手房,2009
沙河口区兰田街33号,大连,大连凭海房地产开发有限公司,沙河口,20180929,38.926138912221084,121.56486022834609,清熙园,2,12903,大连鑫诚物业有限公司,0.5,辽宁,1,二手房,2004
无门店信息,大连,大连软件园世通开发有限公司,高新园区,20180929,34.52713835999158,118.76812980670795,亿达普罗旺斯二期,50,18216,亿达物业管理有限公司,2.6,辽宁,1,二手房,2014
甘井子区华北路花锦园28号23-3-1-2建筑物,大连,大连东特房地产开发有限公司,沙河口,20180929,38.951627958411166,121.5739439799003,东特新居,12,11517,大连东特祥禾物业管理有限公司,0.5,辽宁,1,二手房,2000
金州区小平岛B组团4号楼3号商铺,大连,大连圣岛房地产开发有限公司,高新园区,20180929,39.2986190718601,121.95658248043723,小平岛邻海园,26,15830,大连凯尔富物业管理有限公司,1.3,辽宁,1,二手房,2007
沙河口区民权街324号,大连,无开发商,沙河口,20180929,38.92064616208148,121.59777611850379,79中恒泰大厦,6,18212,大连衡德物业管理有限公司,0.4,辽宁,1,二手房,1996
高新园区海苑街36号1单元2号公建,大连,大连百思泰置业有限公司,高新园区,20180929,20.06392317589085,110.32302599457326,柏林水郡,23,18104,大连百嘉物业管理有限公司,1,辽宁,1,二手房,2005
沙河口区连山街10号2-1-2,大连,大连城市建设集团有限公司,沙河口,20180929,38.89637522563413,121.57143690983219,城建花园,5,16588,大连城建开发集团物业管理有限公司,0.5,辽宁,1,二手房,2002
中山区共建巷61号,大连,无开发商,中山,20180929,38.91828093658718,121.66259221532148,39中明泽街,19,22697,无物业管理服务,-,辽宁,1,二手房,1993
沙河口区黄浦路18号—5号公建,大连,无开发商,高新园区,20180929,38.8771225143479,121.54427480390662,东电小区,14,14924,大连凌电物业管理有限公司,0.3,辽宁,1,二手房,1992
甘井子区辛寨子街道中冶蓝城辛虹园39-7号公建,大连,大连中冶京诚置业有限公司,甘井子,20180929,38.98155611421408,121.49259383356096,中冶蓝城D区,21,14682,大连添翼物业服务有限公司,2,辽宁,1,二手房,2011
沙河口区五一路110-4号,大连,大连大重房屋开发有限公司,沙河口,20180929,38.90710946686282,121.58172564480427,星台花园二期,18,24455,大连大重房屋开发公司物业管理中心,0.4,辽宁,1,二手房,1995
西岗区康平街2号（5号楼3-1-3号）,大连,大连圣元房地产开发有限公司,西岗,20180929,38.91044414697888,121.61980769264477,亿达天琴山,23,19869,亿达物业管理有限公司,2.5,辽宁,1,二手房,2013
甘井子区榆水街6-9号公建,大连,大连弘润置业有限公司,甘井子,20180929,38.97957540063716,121.52458567456938,万科城市之光,31,20693,大连万科物业服务有限公司,2.8,辽宁,1,二手房,2015
沙河口区黑石礁街5号1层1号,大连,大连鹏生房地产开发有限公司,沙河口,20180929,38.879813345473714,121.56313742300513,鹏辉广场,9,16779,大连新兴物业管理有限公司,0.5,辽宁,1,二手房,2000
西岗区新田巷11号三单元103,大连,大连龙润房屋开发有限公司,西岗,20180929,38.89276612016956,121.64190731791966,叠彩桃源,4,14227,大连龙润物业管理有限公司,0.8,辽宁,1,二手房,2003
沙河口区西南路358号1—2号,大连,大连恒安房地产开发有限公司,沙河口,20180929,38.90839654326566,121.56908246905662,水芙山竹,12,20035,大连上达物业管理有限公司,0.6,辽宁,1,二手房,2005
沙河口区红旗东路18-22号2单元1楼3号,大连,大连益海房屋开发有限公司,沙河口,20180929,38.921778341674376,121.58261780680284,西苑花园,8,14523,大连宏溢达物业管理有限公司,0.5,辽宁,1,二手房,2000
甘井子区泉水B5区27-9,大连,大连运达房地产集团有限公司,甘井子,20180929,39.014833760509994,121.60955220395961,锦泉源B5区,58,12408,政治物业管理有限公司,0.1,辽宁,1,二手房,1999
西岗区中山路158号唐山街市场外14号,大连,海运集团大连房屋开发有限公司,西岗,20180929,38.91835355789945,121.63274981188985,宝居佳苑,7,25943,大连城建开发集团物业管理有限公司,2,辽宁,1,二手房,2011
甘井子辛吉街150号-7号,大连,大连金马房屋开发有限公司,甘井子,20180929,38.96309956105142,121.52341678860995,金马圣隆,30,12360,大连金马圣隆物业管理有限公司,0.5,辽宁,1,二手房,2006
天河路173-2号 华润考拉22号公建,大连,大连华南房地产开发有限公司,甘井子,20180929,23.147151253133927,113.3277313198351,名贵山庄华丽园,22,12228,大连弘益达物业管理有限公司,0.5,辽宁,1,二手房,2002
沙河口区连山街10号2-1-2,大连,大连国合嘉汇房地产开发有限公司,沙河口,20180929,38.89637522563413,121.57143690983219,心宁苑,12,17224,大连国合物业管理有限公司,0.6,辽宁,1,二手房,2001
西岗区黄河路90号公建部分,大连,大连兴昌房屋开发有限公司,西岗,20180929,38.92234529815978,121.62829331825485,兴昌都市首府,3,27737,大连戴德梁行物业管理有限公司,1.5,辽宁,1,二手房,2005
大连市甘井子区丰收路3-5号,大连,大连壹高房地产发展有限公司,甘井子,20180929,38.965377255081755,121.58288415324094,朗香小镇,8,19645,大连顶点物业管理有限公司,1.3,辽宁,1,二手房,2011
大连市高新园区七贤中路63号,大连,大连全统房地产开发有限公司,高新园区,20180929,38.86053006357667,121.53273606963094,君海阁,14,18416,大连城建开发集团物业管理有限公司,2.2,辽宁,1,二手房,2013
西岗区八一路196号1-3,大连,无开发商,西岗,20180929,38.89127420834314,121.6483201412943,桃花源小区,51,9859,大连三寰物业管理有限公司,0.5,辽宁,1,二手房,1990
沙河口区星海广场B3区14-9,大连,大连友谊合升房地产开发有限公司,沙河口,20180929,38.887408126588866,121.58732762887982,壹品星海二期,17,22635,大连友谊物业服务有限公司,1.9,辽宁,1,二手房,2007
沙河口区西南路851号3单元1层3号,大连,大连振屹房屋开发有限公司,沙河口,20180929,38.94344210837944,121.58246796944378,柳馨家园,6,10032,街道办事处（居委会）代管物业,0.6,辽宁,1,二手房,2000
无门店信息,大连,大连亿达房地产股份有限公司,高新园区,20180929,34.52713835999158,118.76812980670795,亿达悦龙居,12,14326,亿达物业管理有限公司,2.8,辽宁,1,二手房,2015
甘井子区华北路花锦园28号23-3-1-2建筑物,大连,大连谷和房屋开发有限公司,甘井子,20180929,38.951627958411166,121.5739439799003,大连门小区,13,14956,大连谷和物业管理有限公司,0.3,辽宁,1,二手房,2000
甘井子区泉水E1区27号-3公建,大连,大连时代房地产开发有限公司,甘井子,20180929,39.002846129004375,121.61312453141336,泉水友好园,22,12313,大连爱静物业服务有限公司,0.5,辽宁,1,二手房,1998
甘井子区祥龙街2号楼1单元1楼1号,大连,大连源隆房地产开发有限公司,甘井子,20180929,38.988045874482445,121.60439401971377,鑫汇茗苑,6,15081,大连佳和物业管理有限公司,1.6,辽宁,1,二手房,2011
中山区武昌街武昌公寓6号公建,大连,大连海昌房屋开发有限公司,中山,20180929,38.912280913445784,121.64921130527547,海昌华城,8,14634,大连海昌欣城物业管理有限公司,1.1,辽宁,1,二手房,1997
高新园区红凌路732-4号,大连,大华集团大连房地产开发有限公司,高新园区,20180929,38.90158813547366,121.53265954348016,大华爱琴湾,23,19686,大连大华物业管理有限公司,1.8,辽宁,1,二手房,2010
中山区金城街26号一楼,大连,无开发商,中山,20180929,38.922282529515634,121.65214466263014,九中武汉街,10,37056,无物业管理服务,-,辽宁,1,二手房,1991
开发区松苑街23号,大连,暂无信息,开发区,20180929,22.52087710763645,113.40156104777168,松峪里二期,2,11204,大连中信物业管理有限公司,0.5,辽宁,1,二手房,2000
沙河口区西南路40号楼,大连,亿达房地产开发有限公司,沙河口,20180929,38.94141605900714,121.58612100465703,星浦庄园,13,12053,大连香都物业管理有限公司,0.5,辽宁,1,二手房,1997
金州区小平岛B组团4号楼3号商铺,大连,大连圣岛房地产开发有限公司,高新园区,20180929,39.2986190718601,121.95658248043723,小平岛揽海名寓,28,18139,大连凯尔富物业管理有限公司,1.7,辽宁,1,二手房,2010
大连市沙河口区西南路875号1层21号,大连,大连泰安房地产开发有限公司,沙河口,20180929,38.94485969061231,121.58418648447764,春柳河小区,19,10530,大连三宝物业有限公司,0.5,辽宁,1,二手房,2001
中山区民运巷 47号1层2号,大连,大连连城房地产开发有限公司,中山,20180929,38.905955122300846,121.64798148011702,葵英林苑,4,14343,无物业管理服务,-,辽宁,1,二手房,2005
甘井子区华北路花锦园28号23-3-1-2建筑物,大连,大连东特房地产开发有限公司,甘井子,20180929,38.951627958411166,121.5739439799003,东特金星公馆,21,14047,大连东特祥禾物业管理有限公司,1.2,辽宁,1,二手房,2009
南山路50号,大连,大连铁路房地产开发有限责任公司,中山,20180929,38.92027296196962,121.6483012768786,延安小区,15,19995,大连铁路物业管理有限公司,0.5,辽宁,1,二手房,1995
大连市甘井子区融田西园52-11,大连,大连圣安房地产开发有限公司,甘井子,20180929,38.95546176066109,121.5285003794903,亿达春田晴湾,50,15928,亿达物业管理有限公司,2.2,辽宁,1,二手房,2013
甘井子区汇仁街19号12号楼1单元102室,大连,大连华南房地产开发有限公司,甘井子,20180929,38.99746297497168,121.58917714380617,名贵山庄金盛园,8,15226,大连弘益达物业管理有限公司,0.5,辽宁,1,二手房,2004
甘井子区泉水B2区19-1号,大连,北方沿海房地产开发（大连）有限公司,甘井子,20180929,39.0101309886317,121.60812584213187,沿海鉴筑二期,25,16462,美佳物业管理（深圳）有限公司大连分公司,1.5,辽宁,1,二手房,2012
沙河口区星海广场B3区14-2号1层,大连,华润置地（大连）有限公司,沙河口,20180929,38.88693148294673,121.58735631267305,星海湾壹号,27,27523,华润物业（大连）有限公司,4.8,辽宁,1,二手房,2008
沙河口区民权街324号,大连,大连中源翔房屋开发有限公司,沙河口,20180929,38.92064616208148,121.59777611850379,79中五四华庭,8,26686,大连祥益物业管理有限公司,2.6,辽宁,1,二手房,2008
沙河口区昌黎街77号楼第1层公建,大连,暂无信息,沙河口,20180929,38.91974518366595,121.5902918379551,尚品天城,6,18600,大连永嘉物业管理公司,1.2,辽宁,1,二手房,1999
经济技术开发区红星海-A区81-2号1层,大连,无开发商,开发区,20180929,39.027851194371685,121.80327394132297,西雅图,32,9123,大连维泰物业管理有限公司,0.8,辽宁,1,二手房,2004
中山区山屏街116号1-1,大连,大连毅腾房屋开发有限公司,中山,20180929,38.90729438486833,121.68598159980013,中南苑,11,16113,大连中南苑物业有限公司,0.8,辽宁,1,二手房,2001
中山区武昌街武昌公寓6号公建,大连,暂无信息,中山,20180929,38.912280913445784,121.64921130527547,学府林居,19,11058,暂无信息,-,辽宁,1,二手房,2000
西岗区黄河路362号公建,大连,亿达集团大连房地产开发有限公司,西岗,20180929,38.91819905243802,121.61365779430986,亿达新世界,12,15780,亿达物业管理有限公司,0.5,辽宁,1,二手房,2001
沙河口区黄河路535号,大连,大连春达房屋开发有限公司,沙河口,20180929,38.91773777159567,121.60217159922856,79中数控大厦,7,23122,大连欧德物业管理有限公司,1.2,辽宁,1,二手房,2000
沙河口区昌黎街22号,大连,大连城市建设集团有限公司,沙河口,20180929,38.91975785098891,121.59109628369768,天兴罗斯福,32,14944,大连天兴物业管理有限公司,1.6,辽宁,1,二手房,2004
西岗区华北路100号1层5号,大连,大连双振房屋开发有限公司,沙河口,20180929,38.91336952993919,121.6258229781024,香茗苑,1,13533,大连双振物业有限公司,0.5,辽宁,1,二手房,2003
沙河口区锦霞南园1号1层公建,大连,大连锦绣房地产开发有限公司,沙河口,20180929,38.921778341674376,121.58261780680284,锦虹北园,15,10995,大连锦绣物业管理有限公司,0.3,辽宁,1,二手房,1998
甘井子祥龙街2号1-1-1,大连,大连世隆房地产开发有限公司,甘井子,20180929,39.00554266797988,121.6172971605072,玉树临居,17,12701,北京房修一物业管理有限公司,1.3,辽宁,1,二手房,2009
大连市甘井子区银田北园14号,大连,暂无信息,甘井子,20180929,38.9742441034389,121.47189841879823,亿达春田银杏园,55,16670,亿达物业管理有限公司,2.2,辽宁,1,二手房,2011
中山区民建街10号1单元1号,大连,无开发商,中山,20180929,38.925444479476894,121.66915026954452,39中学士街,24,16281,无物业管理服务,-,辽宁,1,二手房,1995
中山区民运巷 47号1层2号,大连,暂无信息,中山,20180929,38.905955122300846,121.64798148011702,新兴小区,10,9122,暂无信息,0.5,辽宁,1,二手房,2000
甘井子区辛寨子街道中冶蓝城辛虹园39-7号公建,大连,大连中冶京诚置业有限公司,甘井子,20180929,38.98155611421408,121.49259383356096,中冶蓝城C区,17,15420,大连添翼物业服务有限公司,2,辽宁,1,二手房,2011
沙河口区连山街10号2-1-2,大连,大连国合嘉汇房地产开发有限公司,沙河口,20180929,38.89637522563413,121.57143690983219,嘉汇星海,3,18664,大连国合物业管理有限公司,0.5,辽宁,1,二手房,2004
中山区安居巷7号,大连,大连华鹏房地产有限公司,中山,20180929,38.900436431991984,121.67796628922625,海派优座,7,14700,第一东方（大连）物业服务有限公司,2.5,辽宁,1,二手房,2008
中山区鲁迅路184号1层B—A,大连,大连华顺房地产开发公司,中山,20180929,38.92590875965419,121.67594393403164,春和花园,10,15153,大连华富物业管理有限公司,0.5,辽宁,1,二手房,2004
甘井子区华东路33-5号,大连,大连景和房屋开发有限公司,甘井子,20180929,38.97497080220593,121.59479866243332,怡景园,10,16876,大连景和物业管理有限公司,0.5,辽宁,1,二手房,2002
开发区松苑街23号,大连,开发区城建局,开发区,20180929,22.52087710763645,113.40156104777168,东山花园,6,12225,大连戎旅物业管理有限公司,0.8,辽宁,1,二手房,2006
沙河口区星海广场B3区14-9,大连,大连科宏房屋开发有限公司,沙河口,20180929,38.887408126588866,121.58732762887982,科宏花园,4,13777,无物业管理服务,-,辽宁,1,二手房,2000
经济技术开发区红星海-A区81-2号1层,大连,远洋地产有限公司,开发区,20180929,39.027851194371685,121.80327394132297,红星海二期视界,42,12327,大连远洋基业物业管理有限公司,0.5,辽宁,1,二手房,2012
西岗区鞍山路29号龙畔锦城东门,大连,大连大世界房地产开发有限公司,西岗,20180929,38.92763470697088,121.61498923399098,第九频道,32,23655,大世界商业联合机构,3.6,辽宁,1,二手房,2014
甘井子区华北路花锦园28号23-3-1-2建筑物,大连,大连东特房地产开发有限公司,甘井子,20180929,38.951627958411166,121.5739439799003,星中环广场,10,16056,大连东特物业管理有限公司,1.2,辽宁,1,二手房,2009
甘井子区凌秀路37号-1链家地产,大连,大连九九集团有限公司,高新园区,20180929,38.883794285403965,121.52361997548515,文荟小区,8,12136,大连理工物业管理中心,0.5,辽宁,1,二手房,1994
沙河口区成仁街91号,大连,无开发商,沙河口,20180929,38.91539947107844,121.59585638842556,科技广场,14,10121,街道办事处（居委会）代管物业,0.8,辽宁,1,二手房,2001
甘井子区红旗中路143号1层4号,大连,亿海房地产开发有限公司,甘井子,20180929,38.93169566676921,121.5426632438217,水苑居,0,13965,大连万泰物业管理有限公司,0.6,辽宁,1,二手房,2003
经济技术开发区城润万家62-8公建,大连,大连海汇房地产开发有限公司,开发区,20180929,39.06883436780937,117.72669530355309,正源吉祥e家祥福园,36,10274,大连正源物业服务有限公司,1,辽宁,1,二手房,2015
西岗区新田巷27号1-2,大连,大连安大房屋开发有限公司,西岗,20180929,38.893215932589385,121.64103065169111,仲夏花园,7,15065,大连长风物业管理有限公司,0.4,辽宁,1,二手房,1997
沙河口区黑石礁街5号1层1号,大连,大连鹏生房地产开发有限公司,沙河口,20180929,38.879813345473714,121.56313742300513,鹏莱花园,6,12228,大连新兴物业管理有限公司,0.3,辽宁,1,二手房,1998
甘井子区虹港路16号楼1层公建,大连,大连鑫奇房地产开发有限公司,甘井子,20180929,38.96457808198196,121.55421052098279,鑫境界,50,10981,大连鑫境界物业管理有限公司,1.3,辽宁,1,二手房,2009
沙河口区连山街44-2号半地下一层（地上一层部分）,大连,大连富华房地产有限公司,沙河口,20180929,38.892991456958086,121.57299542767161,富华山庄,6,17726,大连城建开发集团物业管理有限公司,0.5,辽宁,1,二手房,1998
中山区民建街10号1单元1号,大连,无开发商,中山,20180929,38.925444479476894,121.66915026954452,39中太阳街,10,19510,无物业管理服务,-,辽宁,1,二手房,1996
开发区红星海B区212-1,大连,远洋地产有限公司,开发区,20180929,39.027851194371685,121.80327394132297,红星海时光的岸,60,12115,大连远洋基业物业管理有限公司,3.1,辽宁,1,二手房,2015
无门店信息,大连,大连长鹭房屋开发有限公司,甘井子,20180929,34.52713835999158,118.76812980670795,晶品森岚,8,13790,大连旺宇物业有限公司,1.3,辽宁,1,二手房,2009
西岗区华北路100号1层5号,大连,无开发商,西岗,20180929,38.91336952993919,121.6258229781024,远东小区,1,11410,无物业管理服务,-,辽宁,1,二手房,1999
无门店信息,大连,大连景和房屋开发有限公司,甘井子,20180929,34.52713835999158,118.76812980670795,怡华园,11,15258,大连景和物业管理有限公司,0.5,辽宁,1,二手房,2001
沙河口区黄浦路18号—5号公建,大连,大连良运房地产开发有限公司,高新园区,20180929,38.8771225143479,121.54427480390662,翰林观海公寓,19,17576,大连良运物业管理有限公司,0.8,辽宁,1,二手房,2003
西岗区平等街21号1层2号,大连,远洋地产有限公司,西岗,20180929,38.92251066253164,121.63236845125735,丽都花园,10,16353,无物业管理服务,-,辽宁,1,二手房,1997
南山路50号,大连,深圳市东山开发有限公司,中山,20180929,38.92027296196962,121.6483012768786,昆明花园,3,18437,深圳市东山物业管理有限公司,0.5,辽宁,1,二手房,2000
大连市高新园区七贤中路63号,大连,大连乾丞房地产开发有限公司,高新园区,20180929,38.86053006357667,121.53273606963094,昊宇山海湾,9,19291,大连三和住邦物业管理有限公司,2.6,辽宁,1,二手房,2015
西岗区胜利路33号,大连,大连恒盛房屋开发有限公司,西岗,20180929,38.91309771954841,121.62500886627636,盛阳山庄,9,9434,大连佳捷物业管理有限公司,0.5,辽宁,1,二手房,1999
甘井子区甘井子街3号公建,大连,无开发商,甘井子,20180929,38.982086281836246,121.63426694995971,东翠鸣苑,12,12874,大连亿新物业管理有限公司,0.5,辽宁,1,二手房,2006
中山区共建巷61号,大连,无开发商,中山,20180929,38.91828093658718,121.66259221532148,39中中化街,8,24605,街道办事处（居委会）代管物业,0.5,辽宁,1,二手房,1995
沙河口区兰田街33号,大连,无开发商,沙河口,20180929,38.926138912221084,121.56486022834609,马栏广场,10,10320,无物业管理服务,0.4,辽宁,1,二手房,2000
中山区解放路604号,大连,大连雅风房屋开发有限公司,中山,20180929,38.89026319122045,121.66407876092346,桃源旺座,1,16123,大连豪斯沃克物业有限公司,1,辽宁,1,二手房,2007
沙河口区西南路40号楼,大连,大连金通房屋开发有限公司,沙河口,20180929,38.94141605900714,121.58612100465703,海韵花园,6,13182,大连金通物业管理有限公司,0.4,辽宁,1,二手房,2000
沙河口区西南路358号1—2号,大连,无开发商,沙河口,20180929,38.90839654326566,121.56908246905662,龙岗园,5,10246,大连嘉和物业管理有限公司,0.2,辽宁,1,二手房,2001
中山区民建街10号1单元1号,大连,无开发商,中山,20180929,38.925444479476894,121.66915026954452,39中爱阳街,19,19108,无物业管理服务,-,辽宁,1,二手房,1993
甘井子区泉水H3区15号3单元1层2号,大连,大连新型房地产开发有限公司,甘井子,20180929,39.00158439075201,121.62616882572375,龙畔金泉一期,15,10807,大连新型物业管理有限公司,0.5,辽宁,1,二手房,2002
中山区金城街26号一楼,大连,暂无信息,中山,20180929,38.922282529515634,121.65214466263014,枫林苑,1,20391,暂无信息,-,辽宁,1,二手房,-
开发区金马路169-2-6号房屋,大连,大连亿锋集团有限公司,开发区,20180929,39.055616222703364,121.78435683280883,铜锣湾,27,8866,亿锋豪景物业管理有限公司,1.5,辽宁,1,二手房,2004
沙河口区兰田街33号,大连,无开发商,沙河口,20180929,38.926138912221084,121.56486022834609,858家园,6,12319,无物业管理服务,-,辽宁,1,二手房,2000
大连市沙河口区五四路199-4号,大连,暂无信息,西岗,20180929,38.907987066040505,121.60249214877012,商都花园,1,17982,大连天河物业管理有限公司,0.3,辽宁,1,二手房,1993
甘井子区红旗西路104-7,大连,大连盛达基业房地产开发有限公司,甘井子,20180929,38.940012695252975,121.52780738260293,依山云水二期,1,13520,大连盛新物业管理有限公司,0.6,辽宁,1,二手房,2007
中山区民建街10号1单元1号,大连,大连安达房地产开发有限公司,中山,20180929,38.925444479476894,121.66915026954452,39中安达大厦,19,12994,大连凯尔物业管理有限责任公司,0.5,辽宁,1,二手房,2008
中山区鲁迅路184号1层B—A,大连,大连泰达新城建设发展有限公司,中山,20180929,38.92590875965419,121.67594393403164,泰达花园,6,18541,大连国合物业管理有限公司,1,辽宁,1,二手房,2000
沙河口区昌黎街77号楼第1层公建,大连,大连高新园区建设开发总公司,沙河口,20180929,38.91974518366595,121.5902918379551,79中昌隆大厦,9,17607,无物业管理服务,-,辽宁,1,二手房,1998
金州区小平岛B组团4号楼3号商铺,大连,大连圣岛房地产开发有限公司,高新园区,20180929,39.2986190718601,121.95658248043723,小平岛邻海园H组团,11,19311,大连凯尔富物业管理有限公司,1.3,辽宁,1,二手房,2009
沙河口区知心园10号公建,大连,暂无信息,高新园区,20180929,38.893977135945136,121.55667141994431,亿达康派公寓,19,17334,亿达物业管理有限公司,2.2,辽宁,1,二手房,2006
高新园敬贤街23-11号,大连,暂无信息,高新园区,20180929,38.86956637166276,121.5301657390922,中海紫御观邸二期,19,20827,大连中海物业管理有限公司,2.6,辽宁,1,二手房,2013
中山区同心街72号1楼公建,大连,大连振屹房屋开发有限公司,中山,20180929,38.91979245940674,121.64769198230202,城市广场,27,17442,大连振屹物业有限公司,3.5,辽宁,1,二手房,2006
沙河口区黄河路883号,大连,无开发商,沙河口,20180929,38.919826721475204,121.57749657966676,沙区医院,19,10242,无物业管理服务,-,辽宁,1,二手房,1990
甘井子区佳林北园2-7号,大连,大连加尔伦房地产开发有限公司,甘井子,20180929,38.96331610956877,121.52802328494242,万科金域华府,26,21795,大连万科物业服务有限公司,3,辽宁,1,二手房,2016
甘井子区惠泽南园3-4号,大连,大连泓良房地产开发有限公司,甘井子,20180929,38.939326611323615,121.52337842113351,山水秀景,5,15322,大连三和住邦物业管理有限公司,1,辽宁,1,二手房,2007
开发区松苑街23号,大连,大连西太平洋家属楼,开发区,20180929,22.52087710763645,113.40156104777168,松平里,9,12486,街道办事处（居委会）代管物业,0.5,辽宁,1,二手房,1995
沙河口区新生路万科园7—1号,大连,大连公屋发展有限公司,沙河口,20180929,38.94440370819716,121.57117928210005,春柳人家,1,15396,大连德衡物业管理有限公司,0.5,辽宁,1,二手房,2003
中山区杏林街66—5号,大连,无开发商,中山,20180929,38.9244189768098,121.6630029448549,39中民生里,14,25846,街道办事处（居委会）代管物业,0.5,辽宁,1,二手房,1990
中山区鲁迅路184号1层B—A,大连,无开发商,中山,20180929,38.92590875965419,121.67594393403164,39中山岳街,7,17606,无物业管理服务,-,辽宁,1,二手房,1998
中山区杏林街66—5号,大连,大连嘉和房地产集团有限公司,中山,20180929,38.9244189768098,121.6630029448549,嘉和园,3,19009,大连嘉和物业管理有限公司,3,辽宁,1,二手房,2005
沙河口区锦虹北园38-3-1-1,大连,大连锦绣房地产开发有限公司,沙河口,20180929,38.95230821928003,121.55503724232328,锦绣燕居沙河口区一期,2,18923,大连锦绣物业管理有限公司,1.2,辽宁,1,二手房,2012
无门店信息,大连,新兴际华集团有限公司,甘井子,20180929,34.52713835999158,118.76812980670795,中华城,12,14543,大连仲邦维行物业管理有限公司,2.5,辽宁,1,二手房,2017
沙河口区中山路417A-4号,大连,无开发商,沙河口,20180929,38.90734671814175,121.59482182703752,同泰街,14,10672,无物业管理服务,0.5,辽宁,1,二手房,1999
中山区爱华街13号,大连,大连一方地产有限公司,中山,20180929,38.92541607518685,121.6535728031028,大连国际酒店,18,22271,大连一方物业管理有限公司,3.0,辽宁,1,二手房,2006
沙河口区杨树街4-4号公建,大连,无开发商,高新园区,20180929,38.88444587249751,121.55130620045541,育明高中,4,16046,无物业管理服务,-,辽宁,1,二手房,1998
开发区兴城路29-81层,大连,大连华宇房地产开发有限公司,开发区,20180929,39.05020829677517,121.7578103751747,华宇梧桐苑,15,12467,大连永嘉物业管理公司,1.9,辽宁,1,二手房,2013
高新园区书香街1A#1-1-2,大连,大连和升房地产开发有限公司,高新园区,20180929,38.880372108393104,121.55218773010999,学苑广场九号,5,26088,大连戴德梁行物业管理有限公司,2.8,辽宁,1,二手房,2017
中山区中南路226号,大连,大连永薪房屋开发有限公司,中山,20180929,38.90029610333926,121.68178899957817,海神花园,4,11333,大连永佳物业管理有限公司,0.8,辽宁,1,二手房,1999
沙河口区联合路133号,大连,亿达集团大连房地产开发有限公司,沙河口,20180929,38.91608561262676,121.60480987310456,21中亿达广场,4,17974,亿达物业管理有限公司,1.2,辽宁,1,二手房,1999
经济技术开发区红星海-A区81-2号1层,大连,远洋地产有限公司,开发区,20180929,39.027851194371685,121.80327394132297,红星海郡墅二号,8,17331,大连远洋基业物业管理有限公司,3.5,辽宁,1,二手房,2012
开发区小孤山西里27栋-7号,大连,大连光伸房地产开发有限公司,开发区,20180929,39.0278711398559,121.8095276927579,绿洲半岛一期,14,8529,大连经济技术开发区海青物业有限公司,0.5,辽宁,1,二手房,2004
无门店信息,大连,大连鲁能置业有限公司,金州,20180929,34.52713835999158,118.76812980670795,鲁能优山美地,36,8653,长城物业集团股份有限大连分公司,1.9,辽宁,1,二手房,2013
甘井子区汇仁街19号12号楼1单元102室,大连,大连华南房地产开发有限公司,甘井子,20180929,38.99746297497168,121.58917714380617,名贵山庄华春园,4,13683,大连弘益达物业管理有限公司,0.5,辽宁,1,二手房,2004
大连市甘井子区七贤路8-3号,大连,大连树源世嘉房地产开发有限公司,高新园区,20180929,38.86659077085588,121.5392980566355,国滨馆,19,22726,大连树源物业管理有限公司,3.5,辽宁,1,二手房,2015
甘井子区华东路22号公建,大连,大连盖特房地产开发有限公司,甘井子,20180929,38.97736184953593,121.5935814234334,盖特名园,8,10755,大连富鑫物业管理有限公司,0.5,辽宁,1,二手房,2004
开发区高新里6栋-8,大连,无开发商,开发区,20180929,39.0710895068195,121.82860134358343,新港家园,14,6704,龙祥物业管理有限公司,0.3,辽宁,1,二手房,2003
无门店信息,大连,远洋地产有限公司,开发区,20180929,34.52713835999158,118.76812980670795,远洋时代城二期,5,8385,大连远洋基业物业管理有限公司,1.5,辽宁,1,二手房,2012
大连市高新园区七贤中路63号,大连,大连龙海房地产开发有限公司,高新园区,20180929,38.86053006357667,121.53273606963094,华录园,6,12840,无物业管理服务,-,辽宁,1,二手房,1995
开发区大开高吉里33栋6号,大连,大连开建集团有限公司,开发区,20180929,39.07355836059941,121.8280439450145,高城北花园,18,7790,大连经济技术开发区聚盛达物业管理有限公司,0.2,辽宁,1,二手房,1998
中山区职工街96号1-3层公建,大连,大连嘉和房地产开发有限公司,中山,20180929,38.92565613737007,121.66193575790903,嘉和花样年华四期,3,22958,大连嘉和物业管理有限公司,3.8,辽宁,1,二手房,2005
甘井子区泉水D1区10-2#1-1-7,大连,大连春达房屋开发有限公司,甘井子,20180929,39.014763910942854,121.61661407462454,景富铭苑,21,11810,庄河金城物业管理有限公司,0.5,辽宁,1,二手房,2004
南山路50号,大连,辽宁远大房屋开发有限公司,中山,20180929,38.92027296196962,121.6483012768786,远大大厦,27,8923,街道办事处（居委会）代管物业,2.5,辽宁,1,二手房,2000
中山区中南路226号,大连,大连大业房屋开发有限公司,中山,20180929,38.90029610333926,121.68178899957817,阳光花园二期,3,13240,大连全得利物业管理有限公司,0.5,辽宁,1,二手房,1997
甘井子区西南路979-7号公建,大连,大连万亿房地产开发有限公司,甘井子,20180929,38.96275592929325,121.5958698791777,万亿香橙,4,20556,街道办事处（居委会）代管物业,0.5,辽宁,1,二手房,2011
经济技术开发区红星海-A区81-2号1层,大连,远洋地产有限公司,开发区,20180929,39.027851194371685,121.80327394132297,红星海珑筑,27,17557,大连远洋基业物业管理有限公司,3.5,辽宁,1,二手房,2016
开发区东北三街94号1层,大连,大连港连房地产开发有限公司,开发区,20180929,39.05723508011585,121.80570768630555,海航YOHO湾,16,9730,海航物业管理有限公司大连分公司,1.8,辽宁,1,二手房,2014
无门店信息,大连,大连运达房地产集团有限公司,甘井子,20180929,34.52713835999158,118.76812980670795,运达诺维溪谷三期,9,13684,大连运达物业有限公司,2,辽宁,1,二手房,2015
西岗区鞍山路65-5号,大连,大连晟大房地产开发有限公司,沙河口,20180929,38.92701992456326,121.60258216167713,亿鑫大厦,4,12009,大连德一物业管理有限公司,2.5,辽宁,1,二手房,2003
中山区职工街96号1-3层公建,大连,无开发商,中山,20180929,38.92565613737007,121.66193575790903,39中民功街,2,12618,无物业管理服务,-,辽宁,1,二手房,1997
大连市沙河口区五四路199-4号,大连,无开发商,沙河口,20180929,38.907987066040505,121.60249214877012,新华街,7,11650,无物业管理服务,-,辽宁,1,二手房,1999
无门店信息,大连,暂无信息,中山,20180929,34.52713835999158,118.76812980670795,明秀庄园一期,14,27962,暂无信息,-,辽宁,1,二手房,2012
开发区红星海-B区89-1号,大连,远洋地产有限公司,开发区,20180929,39.027851194371685,121.80327394132297,红星海五期鼎墅,17,19622,大连远洋基业物业管理有限公司,4.8,辽宁,1,二手房,2012
中山区益民街16号1层1号,大连,大连三鑫房地产开发有限公司,中山,20180929,38.93092761298906,121.66470740073377,金和苑,11,19259,大连报业物业管理有限公司三鑫分公司,3.5,辽宁,1,二手房,2004
金州区拥政街道733号-8号1-2层,大连,大连千川房地产有限公司,金州,20180929,39.11690610445662,121.73030803603723,湖畔嘉园,5,9162,大连千川物业管理有限公司,-,辽宁,1,二手房,2007
无门店信息,大连,大连中政房地产开发有限公司,中山,20180929,34.52713835999158,118.76812980670795,龙溪村,9,15938,大连中政物业管理有限公司,0.8,辽宁,1,二手房,2002
无门店信息,大连,大连运达房地产集团有限公司,甘井子,20180929,34.52713835999158,118.76812980670795,运达诺维溪谷二期,24,11071,大连运达物业有限公司,1.8,辽宁,1,二手房,2012
中山区安居巷7号,大连,大连建通房地产开发有限公司,中山,20180929,38.900436431991984,121.67796628922625,民生松竹苑,2,13716,大连奎祥物业管理有限公司,1.1,辽宁,1,二手房,2003
中山区鲁迅路184号1层B—A,大连,无开发商,中山,20180929,38.92590875965419,121.67594393403164,听海新居,0,18852,大连兆宇物业管理有限公司,0.6,辽宁,1,二手房,2003
经济技术开发区红星海-A区81-2号1层,大连,远洋地产有限公司,开发区,20180929,39.027851194371685,121.80327394132297,红星海二期领墅,12,18265,大连远洋基业物业管理有限公司,0.5,辽宁,1,二手房,2009
中山区碧浪园4号-3号,大连,大连铁路房地产开发有限责任公司,中山,20180929,38.89147289460474,121.69329560326236,山水家园二期,2,18262,大连铁道物业管理有限责任公司,0.3,辽宁,1,二手房,2003
开发区湾里南12栋-16-17-18号,大连,大连金湾实业有限公司,开发区,20180929,39.070782084451,121.8506739675913,湾里西,36,6859,广宜物业有限公司,0.2,辽宁,1,二手房,2003
中山区金城街26号一楼,大连,暂无信息,中山,20180929,38.922282529515634,121.65214466263014,解放街,17,25180,无物业管理服务,-,辽宁,1,二手房,1982
沙河口区中山路417A-4号,大连,无开发商,沙河口,20180929,38.90734671814175,121.59482182703752,星海造船楼,9,11369,无物业管理服务,-,辽宁,1,二手房,1996
无门店信息,大连,大连运达房地产集团有限公司,甘井子,20180929,34.52713835999158,118.76812980670795,运达诺维溪谷,1,13696,大连运达物业有限公司,2,辽宁,1,二手房,2015
中山区北斗街53号1层1号,大连,大连大森房地产开发有限公司,中山,20180929,38.92727355733075,121.67002970974048,东港林苑,5,16285,大连美心物业管理有限公司,2.8,辽宁,1,二手房,2013
无门店信息,大连,大连新兴海韵房地产开发有限公司,开发区,20180929,34.52713835999158,118.76812980670795,白石湾小区,8,6813,大连海韵物业管理有限公司,0.8,辽宁,1,二手房,2006
中山区鲁迅路204号百盛新药特药商店一楼西侧部分,大连,大连港连房地产开发有限公司,中山,20180929,38.92576188797548,121.6771337100355,海港公寓（寺儿沟商圈）,14,11381,大连仁安物业管理有限公司,0.2,辽宁,1,二手房,1996
金州区凤翔路220号,大连,大连鸿玮置业有限公司,金州,20180929,39.08410553937731,121.77700083356399,鸿玮澜山一期,19,13073,大连鸿玮物业服务有限公司,1.8,辽宁,1,二手房,2009
中山区安居巷7号,大连,大连鸿霖房地产开发有限公司,中山,20180929,38.900436431991984,121.67796628922625,鸿霖大厦,11,7430,大连凯立宏物业管理有限公司,3.2,辽宁,1,二手房,2004
开发区金源南里14栋-11号一层部分，14号-12号一层部分,大连,商金源地产,开发区,20180929,39.06148997014026,121.82510513314875,金苑新居,4,7044,嘉兴物业管理有限公司,0.3,辽宁,1,二手房,2004
开发区高新里6栋-8,大连,无开发商,开发区,20180929,39.0710895068195,121.82860134358343,怡海花园二期,22,7290,街道办事处（居委会）代管物业,0.2,辽宁,1,二手房,2002
促进路30号2单元1楼1号,大连,大连泰安房地产开发有限公司,沙河口,20180929,38.954133128707575,121.58355746311207,春柳园,11,9121,街道办事处（居委会）代管物业,0.5,辽宁,1,二手房,1995
沙河口区连山街10号2-1-2,大连,无开发商,沙河口,20180929,38.89637522563413,121.57143690983219,桃山电业楼,5,11893,无物业管理服务,-,辽宁,1,二手房,1998
中山区华乐街71号公建,大连,首开集团,中山,20180929,38.923187679200566,121.6843197903016,首开铂郡,5,22138,北京燕侨物业管理有限公司大连分公司,3.8,辽宁,1,二手房,2016
西岗区平等街21号1层2号,大连,无开发商,西岗,20180929,38.92251066253164,121.63236845125735,香榭里,36,6943,大连金地物业管理有限公司,3.6,辽宁,1,二手房,2010
中山区民建街10号1单元1号,大连,无开发商,中山,20180929,38.925444479476894,121.66915026954452,39中和阳街,16,17715,无物业管理服务,-,辽宁,1,二手房,1990
无门店信息,大连,无开发商,甘井子,20180929,34.52713835999158,118.76812980670795,石油六闾,73,8469,街道办事处（居委会）代管物业,0.5,辽宁,1,二手房,1995
沙河口区黄埔路427号,大连,暂无信息,高新园区,20180929,38.921778341674376,121.58261780680284,海洋环保所,8,14305,单位自管物业,0.2,辽宁,1,二手房,1981
甘井子区惠泽南园3-7号,大连,大连利丰房地产开发有限公司,甘井子,20180929,38.939326611323615,121.52337842113351,国安宜居,6,16162,大连易明物业服务有限公司,2,辽宁,1,二手房,2014
甘井子区玉丽街39号楼3号公建,大连,大连乾元房地产开发有限公司,甘井子,20180929,38.98706755029984,121.55605471197089,和合美家,6,13017,大连广兴物业管理有限公司,0.8,辽宁,1,二手房,2010
开发区金源南里14栋-11号一层部分，14号-12号一层部分,大连,大连经济技术开发区金源实业有限公司,开发区,20180929,39.06148997014026,121.82510513314875,金源名府,16,9441,街道办事处（居委会）代管物业,1,辽宁,1,二手房,2009
甘井子区甘井子路32号楼1单元1楼9号,大连,大连和华房地产开发有限公司,甘井子,20180929,38.982488275116516,121.63345389253514,万成御园,12,12786,大连银力物业管理有限公司,1.3,辽宁,1,二手房,2015
开发区松苑街23号,大连,无开发商,开发区,20180929,22.52087710763645,113.40156104777168,松林里小区,5,10583,街道办事处（居委会）代管物业,0.5,辽宁,1,二手房,1996
甘井子区玉湖街18号1单元1-1,大连,大连新型房地产开发有限公司,甘井子,20180929,38.97554522550266,121.54552721066896,书香府第二期,10,11462,大连新型物业管理有限公司,0.5,辽宁,1,二手房,2002
中山区中南路店212号门头房,大连,无开发商,中山,20180929,38.91149759691359,121.67700561077149,转山小区,9,11856,大连怡和物业服务有限公司,0.2,辽宁,1,二手房,1990
中山区秀月街37号1层2号,大连,无开发商,西岗,20180929,38.88757907576307,121.66311065527876,长利巷,2,14005,无物业管理服务,-,辽宁,1,二手房,1995
中山区同心街72号1楼公建,大连,大连万达房地产开发有限公司,西岗,20180929,38.91979245940674,121.64769198230202,雍景台,9,16350,大连万达物业管理有限公司,3.5,辽宁,1,二手房,2000
甘井子区惠泽南园3-7号,大连,大连开成房地产开发有限公司,甘井子,20180929,38.939326611323615,121.52337842113351,开成领地,7,16398,大连旺宇物业有限公司,2,辽宁,1,二手房,2011
大连市甘井子区椒房街24号楼2-104链家地产,大连,暂无信息,甘井子,20180929,38.985363789837166,121.61034055597686,青秀蓝湾二期,20,20778,中国铁建地产集团物业公司,2.6,辽宁,1,二手房,2016
甘井子区华东路33-5号,大连,无开发商,甘井子,20180929,38.97497080220593,121.59479866243332,秀水小区,12,10122,大连广宇物业有限责任公司,0.5,辽宁,1,二手房,1994
开发区金源南里14栋-11号一层部分，14号-12号一层部分,大连,大连开建房地产开发有限公司,开发区,20180929,39.06148997014026,121.82510513314875,金北花园小区,22,7413,嘉兴物业管理有限公司,-,辽宁,1,二手房,1999
开发区红梅小区19栋-2-1-1号,大连,无开发商,开发区,20180929,29.906498897603264,121.5913630631805,金玛海景,5,10507,街道办事处（居委会）代管物业,1.1,辽宁,1,二手房,2007
开发区兴城路29-81层,大连,大连瑞宇置业有限公司,开发区,20180929,39.05020829677517,121.7578103751747,心海阳光,15,11768,大连经济技术开发区盛辉物业服务有限公司,2,辽宁,1,二手房,2015
无门店信息,大连,大连融昇房地产开发有限公司,甘井子,20180929,34.52713835999158,118.76812980670795,鹿港小镇,5,10368,大连三和住邦物业管理有限公司,1.3,辽宁,1,二手房,2015
南山路50号,大连,无开发商,中山,20180929,38.92027296196962,121.6483012768786,昆明街（独立街）,6,19314,无物业管理服务,-,辽宁,1,二手房,1988
开发区杏花里13#楼-7号,大连,暂无信息,金州,20180929,31.31075067906954,120.63127837058457,凤凰山花园,18,10452,大连双赢物业管理有限公司,1,辽宁,1,二手房,2009
甘井子区玉湖街25号2单元1层3号,大连,大连新型房地产开发有限公司,甘井子,20180929,38.97626265183615,121.54617349027997,书香府第一期,5,10164,大连新型物业管理有限公司,0.5,辽宁,1,二手房,2002
经济技术开发区红星海-A区81-2号1层,大连,远洋地产有限公司,开发区,20180929,39.027851194371685,121.80327394132297,红星海三期领墅,10,33660,大连远洋基业物业管理有限公司,2.2,辽宁,1,二手房,2012
甘井子区华北路花锦园28号23-3-1-2建筑物,大连,无开发商,甘井子,20180929,38.951627958411166,121.5739439799003,大连门广场,5,13980,街道办事处（居委会）代管物业,0.1,辽宁,1,二手房,2003
甘井子区玉丽街35号4单元-1-2,大连,暂无信息,甘井子,20180929,38.98487421584909,121.55236707590676,泡崖康祥园,17,11294,大连新兴物业管理有限公司,0.5,辽宁,1,二手房,2005
中山区共建巷61号,大连,暂无信息,中山,20180929,38.91828093658718,121.66259221532148,39中南山福润人家,6,24065,暂无信息,-,辽宁,1,二手房,2000
开发区松苑街23号,大连,大连众益神州地产开发有限公司,开发区,20180929,22.52087710763645,113.40156104777168,松海庄园一期,4,13361,大连万佳物业管理有限公司,0.5,辽宁,1,二手房,2000
开发区大开高吉里33栋6号,大连,大连开建集团有限公司,开发区,20180929,39.07355836059941,121.8280439450145,高安里,30,6210,广宜物业有限公司,0.2,辽宁,1,二手房,1998
开发区高新里6栋-8,大连,无开发商,开发区,20180929,39.0710895068195,121.82860134358343,怡海花园一期,18,6938,街道办事处（居委会）代管物业,0.2,辽宁,1,二手房,2001
沙河口区中山路552-1-1公建,大连,大连绿城房地产开发有限公司,沙河口,20180929,38.90339064542996,121.593567176308,深蓝中心,21,17012,绿城物业服务集团有限公司大连分公司,4.9,辽宁,1,二手房,2012
中山区北斗街53号1层1号,大连,无开发商,中山,20180929,38.92727355733075,121.67002970974048,四海一家,6,17758,大连中杰物业管理有限公司,1.3,辽宁,1,二手房,2002
沙河口区黄河路883号,大连,北方沿海房地产开发（大连）有限公司,沙河口,20180929,38.919826721475204,121.57749657966676,清泉小区,15,10115,无物业管理服务,-,辽宁,1,二手房,1999
中山区鲁迅路184号1层B—A,大连,大连环海房地产开发有限公司,中山,20180929,38.92590875965419,121.67594393403164,北斗家园,1,12558,大连峰霖物业管理有限公司,0.9,辽宁,1,二手房,2000
无门店信息,大连,暂无信息,沙河口,20180929,34.52713835999158,118.76812980670795,中海天赋山二期,13,19115,大连中海物业管理有限公司,2.8,辽宁,1,二手房,2017
甘井子区华北路花锦园28号23-3-1-2建筑物,大连,无开发商,甘井子,20180929,38.951627958411166,121.5739439799003,华北路（甘）,15,14893,街道办事处（居委会）代管物业,0.1,辽宁,1,二手房,1989
中山区鲁迅路204号百盛新药特药商店一楼西侧部分,大连,无开发商,中山,20180929,38.92576188797548,121.6771337100355,学士街（寺儿沟商圈）,5,13960,无物业管理服务,-,辽宁,1,二手房,1994
中山区民建街10号1单元1号,大连,无开发商,中山,20180929,38.925444479476894,121.66915026954452,39中朝阳街,3,19547,无物业管理服务,-,辽宁,1,二手房,1993
沙河口区黑石礁街3号1层1-1号,大连,暂无信息,沙河口,20180929,38.880058010307856,121.56313403908827,熙园,1,21175,达波尔酒店物业管理（大连）有限公司,2.2,辽宁,1,二手房,2009
中山区鲁迅路184号1层B—A,大连,无开发商,中山,20180929,38.92590875965419,121.67594393403164,荣民街（二七商圈）,12,13589,无物业管理服务,-,辽宁,1,二手房,1999
西岗区康平街2号（5号楼3-1-3号）,大连,无开发商,西岗,20180929,38.91044414697888,121.61980769264477,康平街,7,10254,无物业管理服务,-,辽宁,1,二手房,1995
金州区同济路44号,大连,大连峰景房地产开发有限公司,金州,20180929,39.10476859984152,121.71234684495865,峰景西海岸,23,8375,大连峰景物业有限公司,0.8,辽宁,1,二手房,2009
开发区松苑街23号,大连,大连神洲众益集团有限公司,开发区,20180929,22.52087710763645,113.40156104777168,松海里小区,1,9780,无物业管理服务,0.5,辽宁,1,二手房,2000
中山区中南路店212号门头房,大连,大连金广地产集团有限公司,中山,20180929,38.91149759691359,121.67700561077149,迎宾花园,2,13026,大连德一物业管理有限公司,1.2,辽宁,1,二手房,2003
中山区中青街43号,大连,无开发商,中山,20180929,38.90150598268117,121.65711014604845,岭前街,11,11779,街道办事处（居委会）代管物业,0.4,辽宁,1,二手房,1997
无门店信息,大连,大连东亚房地产开发有限公司,中山,20180929,34.52713835999158,118.76812980670795,山屏花园,3,17074,大连大伟物业管理有限公司,0.5,辽宁,1,二手房,1996
大连市甘井子区柳林园8-7号,大连,大连万科房地产开发有限公司,甘井子,20180929,38.91290525308349,121.47673750074993,万科溪之谷柳林园,3,12789,大连万科物业服务有限公司,2,辽宁,1,二手房,2014
