address,city,developer,district,index_date,lat,lng,name,osv,price,property,property_fee,province,tv,type,year
甘井子区榆林街37号-12公建,大连,新型房地产开发有限公司,甘井子,20191007,38.980133141940186,121.52779506952932,泡崖美林园,230,11760,新兴物业,0.6,辽宁,44,二手房,1996
开发区湾里南12栋-16-17-18号,大连,大连金湾实业有限公司,开发区,20191007,39.070782084451,121.8506739675913,湾里东,239,8248,大连金湾物业管理有限公司,0.5,辽宁,22,二手房,2001
甘井子区山东路商业街D区12号公建,大连,无开发商,甘井子,20191007,39.001060021502965,121.58883960371418,兴华路,56,12979,街道办事处（居委会）代管物业,0.5,辽宁,10,二手房,1986
甘井子区泉水D1区37-7号,大连,大连运腾房地产开发有限公司,甘井子,20191007,39.013992871679214,121.61921940045104,锦泉源D2区,199,13488,大连嘉毅物业管理有限公司,0.5,辽宁,16,二手房,2000
沙河口区富民路120号4-1-1,大连,大连渤海红旗集团有限公司,沙河口,20191007,38.930937859528605,121.5647274237578,马栏小学北,99,10929,街道办事处（居委会）代管物业,0.2,辽宁,10,二手房,1990
沙河口区华新苑10号楼4号公建,大连,大连新型房地产开发有限公司,沙河口,20191007,38.94033750532864,121.58990295130229,侯一小区,179,11489,大连新兴物业管理有限公司,0.3,辽宁,34,二手房,1988
甘井子区千山路26号,大连,大连市大钢集团,甘井子,20191007,38.985697948031984,121.58768860037272,山东路,84,12922,街道办事处（居委会）代管物业,0.2,辽宁,18,二手房,1900
开发区湾里南12栋-16-17-18号,大连,大连金湾实业有限公司,开发区,20191007,39.070782084451,121.8506739675913,湾里南小区,391,8840,大连金湾物业管理有限公司,0.3,辽宁,43,二手房,2002
甘井子区玉湖街25号2单元1层3号,大连,大连新型房地产开发有限公司,甘井子,20191007,38.97626265183615,121.54617349027997,泡崖四区,189,10828,大连新型物业管理有限公司,0.5,辽宁,22,二手房,2000
西岗区香炉礁24号1-1,大连,无开发商,西岗,20191007,38.92047268927287,121.61862512554262,香炉礁,186,11099,街道办事处（居委会）代管物业,0.1,辽宁,26,二手房,1979
大连经济技术开发区东城天下98-14,大连,大连乾豪集团有限公司,开发区,20191007,39.069195091289004,121.8502099927954,东城天下,371,8650,大连远洋基业物业管理有限公司,0.9,辽宁,30,二手房,2002
大连市甘井子区逸林南园1-1号,大连,大连三联置业有限公司,甘井子,20191007,38.95800216293212,121.53151895549547,三鼎春天,98,24064,瑞联德（大连）物业管理有限公司,2.8,辽宁,7,二手房,2016
开发区黄海西路54号,大连,中国铁路十三局,开发区,20191007,39.047714586087785,121.76688238228269,翠竹小区,125,8168,大连经济技术开发区中强物业管理有限公司,0.3,辽宁,11,二手房,1995
金州新区润海园中区18#2号,大连,华润置地（大连）有限公司,开发区,20191007,39.1124801012176,121.71117008629992,华润海中国二期,153,14116,华润物业（大连）有限公司,2.8,辽宁,11,二手房,2007
沙河口区昌黎街22号,大连,大连城市建设集团有限公司,沙河口,20191007,38.91975785098891,121.59109628369768,北昌平小区,139,13401,无物业管理服务,0.8,辽宁,21,二手房,1983
沙河口区华北路448号楼1-4公建,大连,无开发商,沙河口,20191007,38.903224944733765,121.56809734950556,刘家桥,88,11183,街道办事处（居委会）代管物业,0.1,辽宁,16,二手房,1980
甘井子区千山路26号,大连,大连嘉兴房地产开发有限公司,甘井子,20191007,38.985697948031984,121.58768860037272,千山路,67,12548,无物业管理服务,0.5,辽宁,11,二手房,1985
金州新区站前街道生辉第一城5号楼1-2层4号,大连,大连公路工程集团生辉房地产开发有限公司,金州,20191007,39.0579172895377,121.74665464602948,生辉第一城,139,11053,大连生辉物业管理有限公司,1.2,辽宁,14,二手房,2005
沙河口区西南路40号楼,大连,无开发商,沙河口,20191007,38.94155650404125,121.5861259059117,星海公园,68,13044,无物业管理服务,-,辽宁,6,二手房,1975
西岗区鞍山路29号龙畔锦城东门,大连,无开发商,西岗,20191007,38.92763470697088,121.61498923399098,北京街北,50,13209,无物业管理服务,-,辽宁,5,二手房,1981
金州区金润花园B区47号1单元1层1号2号,大连,大连辽大房地产开发有限公司,金州,20191007,39.10434716151341,121.74517862677146,金润小区B区,190,8496,大连新兴物业管理有限公司,0.4,辽宁,26,二手房,2000
开发区润海园中区30-1,大连,华润（大连）房地产有限公司,开发区,20191007,39.03913809369363,121.75878503934794,华润海中国三期,167,14401,华润物业（大连）有限公司,3.1,辽宁,6,二手房,2010
开发区润海园中区62-9,大连,华润（大连）房地产有限公司,开发区,20191007,39.03913809369363,121.75878503934794,华润海中国四期,138,14122,华润物业（大连）有限公司,3.1,辽宁,9,二手房,2000
甘井子区泉水H3区15号3单元1层2号,大连,大连新型房地产开发有限公司,甘井子,20191007,39.00158439075201,121.62616882572375,龙畔金泉二期,72,12753,大连新型物业管理有限公司,0.5,辽宁,9,二手房,2002
甘井子区玉丽街2号楼1单元4号公建,大连,大连新型房地产开发有限公司,甘井子,20191007,38.98705071699301,121.55513043130172,泡崖七区,132,11112,大连新兴物业管理有限公司,0.3,辽宁,21,二手房,1995
大连市金州区站前街道生辉第一城14-3号1-2层,大连,大连新希望家园房地产有限公司,金州,20191007,39.0569681786798,121.74773530665969,新希望家园,201,8762,大连新希望物业服务有限公司,1.2,辽宁,23,二手房,2000
沙河口区黑石礁街5号1层1号,大连,无开发商,沙河口,20191007,38.879813345473714,121.56313742300513,黑石礁,11,12305,无物业管理服务,-,辽宁,2,二手房,1990
沙河口区富民路120号4-1-1,大连,大连渤海红旗集团有限公司,沙河口,20191007,38.930937859528605,121.5647274237578,马栏小学南,68,11532,大连辽南物业管理有限公司,0.2,辽宁,8,二手房,1990
沙河口区沙能街101号1单元1层1号,大连,大连新型房地产开发有限公司,沙河口,20191007,38.9366316275348,121.59031205759763,侯二小区,182,11368,街道办事处（居委会）代管物业,0.1,辽宁,31,二手房,1978
大连市甘井子中华路街道汇畅街48号,大连,远洋地产有限公司,甘井子,20191007,39.0059299196697,121.59621871231741,远洋荣域,5,19102,远洋亿家物业服务股份有限公司大连分公司,2.8,辽宁,11,二手房,2015
甘井子区泉水D6区51号,大连,大连锦丰和源祥房地产开发有限公司,甘井子,20191007,39.00897610161069,121.61789300655198,泉水人家幸福里,133,14030,大连泽霖物业管理有限公司,0.9,辽宁,5,二手房,2007
甘井子区宜居园10-1号房屋,大连,大连万科房地产开发有限公司,甘井子,20191007,38.99913094587405,121.52084969112292,万科魅力之城,153,14624,大连万科物业服务有限公司,1.5,辽宁,40,二手房,2006
甘井子区汇仁街22号,大连,远洋地产有限公司,甘井子,20191007,38.99712640764999,121.58834420439493,远洋广场,183,17517,大连远洋基业物业管理有限公司,1.4,辽宁,26,二手房,2003
大连开发区金马路169-2-8号,大连,大连亿锋房地产实业有限公司,开发区,20191007,39.057398235688176,121.78261137849105,亿锋现代城,134,10158,亿锋豪景物业管理有限公司,1.1,辽宁,24,二手房,2004
甘井子区山东路127-2号,大连,大连市大钢集团,甘井子,20191007,38.99065559549029,121.59126483545545,苍山路,57,12687,街道办事处（居委会）代管物业,0.4,辽宁,4,二手房,1988
高新园区火炬路18号,大连,大连海脉房地产开发有限公司,高新园区,20191007,38.937738080520404,117.39340752036043,MINI印象,141,15092,大连豪斯威物业管理有限公司,2.2,辽宁,15,二手房,2000
大连市开发区湾里东5-6号,大连,大连宏港房地产开发有限公司,开发区,20191007,39.07275772231556,121.85888789351343,都悦里,220,7026,大连宏港物业管理有限公司,0.3,辽宁,8,二手房,1992
沙河口区西南路851号3单元1层3号,大连,无开发商,沙河口,20191007,38.94344210837944,121.58246796944378,李家街,29,11989,无物业管理服务,0.1,辽宁,10,二手房,1980
甘井子区山东路315号14栋1单元1跃2层13号,大连,华润置地（大连）有限公司,甘井子,20191007,39.00206212579579,121.59357231641214,华润置地广场二期,56,20336,华润物业（大连）有限公司,2.9,辽宁,4,二手房,2011
开发区景和园1-7,大连,大连市政府工程建设指挥部,开发区,20191007,40.11590553486206,116.40732462645829,小孤山中里,123,7853,大连广谊物业管理有限公司,0.4,辽宁,14,二手房,1998
金州区鹏程家园53#-8,大连,大连光伸房地产开发有限公司,开发区,20191007,39.03523987258615,121.80826248065051,绿洲半岛北岸,156,9456,大连经济技术开发区光伸物业服务有限公司,1.2,辽宁,10,二手房,2000
沙河口区西南路643号,大连,无开发商,沙河口,20191007,38.943483429804665,121.5833555851182,交通大学,84,13367,无物业管理服务,-,辽宁,14,二手房,1955
沙河口区五一路177-1-1-1,大连,无开发商,沙河口,20191007,38.913544290955585,121.59450670056631,台山,124,12409,街道办事处（居委会）代管物业,0.5,辽宁,12,二手房,1980
经济技术开发区城润万家62-8公建,大连,大连海汇房地产开发有限公司,开发区,20191007,39.06883436780937,117.72669530355309,城润万家,122,9734,大连正源物业服务有限公司,1,辽宁,10,二手房,2006
莲花山路89-3号,大连,大连胜利路拓宽改造工程建设有限公司,沙河口,20191007,38.902848261803356,121.6041720815823,星海融汇,129,21741,大连星海湾商务区物业管理有限公司,1.5,辽宁,5,二手房,2010
甘井子区泉水D6区51号,大连,大连金广集团,甘井子,20191007,39.00897610161069,121.61789300655198,枫丹丽城,101,16080,大连金广物业有限公司,1.5,辽宁,8,二手房,1987
沙河口区西南路161号,大连,无开发商,沙河口,20191007,38.89269676588945,121.56639953951542,孙家沟,102,12564,无物业管理服务,-,辽宁,11,二手房,1987
甘井子区锦城西园4#3-1-1,大连,大连锦绣房地产开发有限公司,沙河口,20191007,38.95286223185571,121.55129044777,锦华北园,85,13991,大连锦绣物业管理有限公司,0.6,辽宁,6,二手房,2000
无门店信息,大连,大连金湾实业有限公司,开发区,20191007,43.873634114640744,81.30301501416476,金湾山城,187,9535,大连金湾物业管理有限公司,0.5,辽宁,10,二手房,2000
高新园区聚贤路36号5幢1单元1层1号,大连,大连法马克房地产开发有限公司,高新园区,20191007,32.31472011562832,119.46141263909165,中铁诺德滨海花园,102,19928,大连中铁诺德物业服务有限公司,2.3,辽宁,8,二手房,2010
甘井子区泉水H1区54号3单元1层1号,大连,华润置业集团,甘井子,20191007,39.00703902814677,121.62498697367278,龙畔金泉五期K1区,34,13590,大连新兴物业管理有限公司,0.5,辽宁,1,二手房,2008
无门店信息,大连,大连乾豪集团有限公司,开发区,20191007,43.873634114640744,81.30301501416476,格林小镇,200,8304,沈阳瑞码阁物业管理有限公司大连分公司,0.6,辽宁,6,二手房,2000
开发区大开高吉里33栋6号,大连,大连金港集团有限公司,开发区,20191007,39.07355836059941,121.8280439450145,高祥里,69,7844,街道办事处（居委会）代管物业,0.3,辽宁,1,二手房,1992
甘井子区泉水D1区37-7号,大连,大连运腾房地产开发有限公司,甘井子,20191007,39.013992871679214,121.61921940045104,锦泉源D3区,88,13058,大连南虹物业管理有限公司,0.5,辽宁,10,二手房,2006
甘井子区泉水D6区51号,大连,大连锦丰和源祥房地产开发有限公司,甘井子,20191007,39.00897610161069,121.61789300655198,泉水家年华,114,13876,街道办事处（居委会）代管物业,0.9,辽宁,10,二手房,2007
大连经济技术开发区东城天下98-14,大连,大连富远房地产开发有限公司,开发区,20191007,39.069195091289004,121.8502099927954,一河两公园,68,10181,大连锦明物业服务有限公司,1.7,辽宁,6,二手房,2007
沙河口区新生路万客园3-7,大连,大连绿波房屋开发集团有限公司,沙河口,20191007,38.94412875710208,121.57006756704837,绿波小区,163,11338,大连绿波建设发展有限公司,0.2,辽宁,10,二手房,1993
大连市甘井子区泉水N2区3-13号,大连,大连鹏生房地产开发有限公司,甘井子,20191007,39.021116079001885,121.64659997607325,泉水N1区,110,9996,无物业管理服务,0.7,辽宁,6,二手房,1999
大连市开发区左岸经典正恒园1-17,大连,大连神洲众益集团有限公司,开发区,20191007,39.049057070649155,121.76187404250511,万国宫馆一期,125,13111,加拿大高力国际物业服务有限公司,2.4,辽宁,6,二手房,1998
大连市甘井子区辛如街35号1单元1层1号,大连,大连新星房地产开发有限公司,甘井子,20191007,38.96862607066881,121.52294869064194,新星绿城五期,79,14106,大连生生物业有限公司,0.8,辽宁,9,二手房,2006
开发区润海园中区65-7号1-2号,大连,华润（大连）房地产有限公司,开发区,20191007,39.03913809369363,121.75878503934794,华润海中国五期,110,14417,华润物业（大连）有限公司,3.1,辽宁,8,二手房,2006
甘井子区泉水K4区1号2单元1层1号,大连,大连新型房地产开发总公司,甘井子,20191007,39.01482019232349,121.63242049308988,龙畔金泉五期K2区,65,13146,大连新兴物业管理有限公司,0.5,辽宁,3,二手房,2006
开发区安盛里5栋-4,大连,大连开建集团有限公司,开发区,20191007,23.112106678834838,113.27801046214822,开建阳光馨苑,103,9691,大连开利物业管理有限公司,1.2,辽宁,12,二手房,2007
沙河口区兰田街33号,大连,无开发商,沙河口,20191007,38.926138912221084,121.56486022834609,马栏广场东,19,11974,大连辽南物业管理有限公司,0.2,辽宁,5,二手房,1992
甘井子区锦城西园4#3-1-1,大连,大连锦绣房地产开发有限公司,沙河口,20191007,38.95286223185571,121.55129044777,锦霞北园,107,12059,大连锦绣物业管理有限公司,0.3,辽宁,14,二手房,1998
西岗区平等街21号1层2号,大连,西安保亿名卓置业有限公司,西岗,20191007,38.92251066253164,121.63236845125735,实验小学英华街,101,22024,无物业管理服务,0.5,辽宁,7,二手房,1985
甘井子区哲林北园17-6号,大连,大连恒德房屋开发有限公司,甘井子,20191007,38.9600267109581,121.53876726228256,恒德橄榄季,49,21878,大连恒德物业服务有限公司,1.4,辽宁,4,二手房,2008
开发区红星海-B区89-1号,大连,远洋地产有限公司,开发区,20191007,39.01381262279472,121.8129339971839,红星海五期青屿蓝,254,15211,大连远洋基业物业管理有限公司,2.2,辽宁,7,二手房,2005
大连经济技术开发区时代城4-3号1-2号,大连,远洋地产有限公司,开发区,20191007,39.0992481321252,121.83007860699459,远洋时代城一期,170,9259,大连远洋基业物业管理有限公司,1.5,辽宁,19,二手房,1998
无门店信息,大连,大连一方生态城房地产开发有限公司,开发区,20191007,43.873634114640744,81.30301501416476,一方天鹅湖,238,8218,大连一方物业管理有限公司,1.9,辽宁,22,二手房,2010
沙河口区五一路219-1,大连,大连亿达房地产股份有限公司,沙河口,20191007,38.913544290955585,121.59450670056631,桃山小区,102,10126,街道办事处（居委会）代管物业,0.5,辽宁,8,二手房,1994
甘井子区美域盛景A2区10-6,大连,大连泉水园房屋开发有限公司,甘井子,20191007,39.006221362805846,121.61022278003976,骏腾名苑,78,14372,大连衡德物业管理有限公司,0.5,辽宁,3,二手房,1993
西岗区鞍山路29号龙畔锦城东门,大连,大连凯润房屋开发有限公司,西岗,20191007,38.92763470697088,121.61498923399098,景润一期,46,11487,无物业管理服务,-,辽宁,7,二手房,1998
沙河口区前程街46号4—1—2号,大连,大连银地置业发展有限公司,沙河口,20191007,38.913544290955585,121.59450670056631,观山满庭芳,98,18375,大连新展物业管理有限公司,1,辽宁,5,二手房,2003
开发区红梅小区19栋-2-1-1号,大连,香港北海集团,开发区,20191007,29.906498897603264,121.5913630631805,君悦豪庭,71,11795,街道办事处（居委会）代管物业,1.2,辽宁,6,二手房,2001
甘井子区泡崖六小区6号楼1单元1层2号,大连,大连新型房地产开发有限公司,甘井子,20191007,38.98033159306754,121.55920598894072,泡崖五区,86,11689,大连新兴物业管理有限公司,0.5,辽宁,7,二手房,1990
经济技术开发区城润万家4-5号公建,大连,大连山河永好置业有限公司,开发区,20191007,39.05525210261778,121.74865634199398,山河秀景,54,10095,大连山河物业管理有限公司,1.5,辽宁,7,二手房,2000
甘井子区华东路22号公建,大连,无开发商,甘井子,20191007,38.97736184953593,121.5935814234334,经四街,14,12252,街道办事处（居委会）代管物业,0.5,辽宁,0,二手房,1989
甘井子区山东路398号,大连,华润置地（大连）开发有限公司,甘井子,20191007,38.99821826443242,121.59274974973462,华润置地广场三期,44,22482,华润物业（大连）有限公司,2.9,辽宁,5,二手房,2005
甘井子区祥龙街2号楼1单元1楼1号,大连,大连市大钢集团,甘井子,20191007,38.98830160721291,121.60368765236996,文星街,20,12705,街道办事处（居委会）代管物业,1,辽宁,2,二手房,1982
甘井子区泉水D1区10-2#1-1-7,大连,大连运达房地产集团有限公司,甘井子,20191007,39.014829187321,121.61637940668294,锦泉源B4区,64,11657,大连佳泰物业管理有限公司,0.5,辽宁,4,二手房,2002
沙河口区富民路249号,大连,大连文路建设集团有限公司,沙河口,20191007,38.93341510428133,121.5770130002514,阳光月秀,59,16591,大连丰泽物业管理有限公司,0.6,辽宁,6,二手房,1999
大连市甘井子区燕南园50号,大连,大连软件园发展有限公司,高新园区,20191007,38.90172480153224,121.5363466289672,东方圣克拉二期,44,26260,亿达物业管理有限公司,2.6,辽宁,10,二手房,2010
开发区松苑街23号,大连,大连盛和房地产开发有限公司,开发区,20191007,22.52087435807652,113.40156105086167,北欧假日,154,12226,大连鸿达物业管理有限公司,1.1,辽宁,8,二手房,2003
开发区兴城路29-81层,大连,大连亿锋房地产实业有限公司,开发区,20191007,39.05020829677517,121.7578103751747,亿锋广场一期,94,14908,大连广恒物业管理有限公司,2.5,辽宁,8,二手房,2008
沙河口区锦霞南园13号4单元1层3号,大连,大连锦绣房地产开发有限公司,沙河口,20191007,38.947634390493555,121.5510543155904,锦华中园,65,12265,大连锦绣物业管理有限公司,0.5,辽宁,8,二手房,1998
甘井子区红旗花园23号楼19-24轴公建,大连,大连红旗兴达房地产开发有限公司,甘井子,20191007,38.93108029984587,121.54902145022133,兴达花园,94,12986,大连万泰物业管理有限公司,0.6,辽宁,8,二手房,1996
甘井子区圣林南园3-3号,大连,大连广泰房屋开发有限公司,甘井子,20191007,38.95187485659917,121.54434740855115,美树日记,67,22792,大连华安物业管理有限公司,1.6,辽宁,12,二手房,2005
高新园区海苑街30号1单元1号公建,大连,大连大有房屋开发有限公司,高新园区,20191007,20.06392317589085,110.32302599457326,大有恬园二期,53,17366,大连家园物业有限公司,1.2,辽宁,5,二手房,2009
经济技术开发区红星海-A区81-2号1层,大连,无开发商,开发区,20191007,39.01381262279472,121.8129339971839,西雅图,50,10460,大连维泰物业管理有限公司,0.8,辽宁,1,二手房,2002
沙河口区恒利园42号-8,大连,大连新华房屋开发有限公司,沙河口,20191007,38.93357562498634,121.57914091532649,新华同仁轩,41,17542,大连新华物业管理有限公司,0.6,辽宁,10,二手房,2000
大连经济技术开发区时代城4-3号1-2号,大连,远洋地产有限公司,开发区,20191007,39.0992481321252,121.83007860699459,远洋时代城三期,89,8848,大连远洋基业物业管理有限公司,1.5,辽宁,14,二手房,2010
甘井子区虹城路503号1-1号,大连,大连易和房地产集团有限公司,甘井子,20191007,38.981193588625004,121.49964051837122,岭秀滨城悦和西园,30,14768,大连易兴物业服务有限公司,1.3,辽宁,1,二手房,2013
无门店信息,大连,大连益宁房地产开发有限公司,开发区,20191007,43.873634114640744,81.30301501416476,岭湾峰尚一期,168,8891,大连鸿达物业管理有限公司,1.3,辽宁,18,二手房,2000
沙河口区兰田街33号,大连,无开发商,沙河口,20191007,38.926138912221084,121.56486022834609,兰玉街,27,11977,街道办事处（居委会）代管物业,0.2,辽宁,2,二手房,1990
西岗区八一路102号,大连,大连澳南房屋开发有限公司,中山,20191007,38.92047268927287,121.61862512554262,明秀山庄A区,52,35846,绿城物业服务集团有限公司大连分公司,1.9,辽宁,3,二手房,2008
金州区同济路44号,大连,大连金州金山房地产开发有限公司,金州,20191007,39.10476859984152,121.71234684495865,金山小区,96,7108,大连金山物业管理有限公司,-,辽宁,5,二手房,1995
开发区润海园中区30-1,大连,华润置地（大连）开发有限公司,开发区,20191007,39.03913809369363,121.75878503934794,华润海中国一期,191,16489,华润物业（大连）有限公司,1.8,辽宁,3,二手房,2007
甘井子区泉水D1区37-7号,大连,大连运腾房地产开发有限公司,甘井子,20191007,39.013992871679214,121.61921940045104,锦泉源D1区,100,14498,大连嘉合物业管理有限公司,0.5,辽宁,5,二手房,2005
无门店信息,大连,大连新跃房地产开发有限公司,金州,20191007,43.873634114640744,81.30301501416476,金海国际花园,201,8085,盘锦瀚新物业管理有限公司,1,辽宁,8,二手房,2000
无门店信息,大连,无开发商,甘井子,20191007,43.873634114640744,81.30301501416476,石油六闾,82,9609,街道办事处（居委会）代管物业,0.5,辽宁,10,二手房,1900
西岗区黄河路362号公建,大连,大连万达商业地产有限公司,西岗,20191007,38.91819905243802,121.61365779430986,万达华府二期,42,23103,大连万景物业管理有限公司,1.6,辽宁,4,二手房,2005
甘井子辛吉街150号-7号,大连,"大连新界置业有限公司,大连新星房地产开发有限公司",甘井子,20191007,38.96269175537377,121.52106381995755,新星绿城三期,64,13109,大连生生物业管理有限公司,0.5,辽宁,3,二手房,2004
中山区东港龙湖水晶郦湾7-102,大连,大连德威佳业投资有限公司,中山,20191007,38.924700620463895,121.70344398518496,东港天鹅湾,115,26994,哈尔滨德润物业管理有限公司大连分公司,4.8,辽宁,4,二手房,2015
经济技术开发区城润万家4-5号公建,大连,大连海汇房地产开发有限公司,开发区,20191007,39.05525210261778,121.74865634199398,正源吉祥e家,56,12235,大连正源物业服务有限公司,1,辽宁,3,二手房,2010
天河路173-2号 华润考拉22号公建,大连,华润置地（大连）开发有限公司,甘井子,20191007,38.9909476665524,121.57626660718621,华润考拉住区,91,15739,华润物业（大连）有限公司,2.5,辽宁,15,二手房,2007
中山区北斗街53号1层1号,大连,大连运达房地产集团有限公司,中山,20191007,38.92727355733075,121.67002970974048,运达嘉洲阳光,39,19173,大连运达物业有限公司,1.8,辽宁,1,二手房,2004
西岗区胜利路33号,大连,陕西亿润经贸有限公司,西岗,20191007,38.91309771954841,121.62500886627636,34中胜利路,23,26805,无物业管理服务,0.5,辽宁,0,二手房,1985
开发区兴城路29-81层,大连,大连亿锋房地产实业有限公司,开发区,20191007,39.05020829677517,121.7578103751747,亿锋广场二期,46,15490,大连广恒物业管理有限公司,2.5,辽宁,6,二手房,2005
沙河口区西南路40号楼,大连,无开发商,沙河口,20191007,38.94155650404125,121.5861259059117,黑石礁景山,19,12235,无物业管理服务,-,辽宁,4,二手房,1980
甘井子区千山路26号,大连,大连市大钢集团,甘井子,20191007,38.985697948031984,121.58768860037272,华中街,33,12716,街道办事处（居委会）代管物业,0.1,辽宁,12,二手房,1900
无门店信息,大连,大华集团大连置业有限公司,高新园区,20191007,43.873634114640744,81.30301501416476,大华锦绣华城四期,38,22780,大连大华物业管理有限公司,2.5,辽宁,8,二手房,2010
无门店信息,大连,大连软件园瑞安发展有限公司,高新园区,20191007,43.873634114640744,81.30301501416476,大连天地悦翠台,91,15006,大连万科物业服务有限公司,2.4,辽宁,8,二手房,2000
沙河口区新生路万客园3-7,大连,大连鹏生房地产开发有限公司,沙河口,20191007,38.94412875710208,121.57006756704837,枫林绿洲,47,14514,大连鹏辉物业管理有限公司,0.3,辽宁,2,二手房,2002
沙河口区长江路738号,大连,勋业（大连）置业有限公司,西岗,20191007,38.913544290955585,121.59450670056631,远洋风景,58,23634,大连远洋风景物业服务中心,1.9,辽宁,2,二手房,2007
甘井子区金北路17号,大连,大理耀鹏房地产开发有限责任公司,甘井子,20191007,38.97553393692831,121.59969720502335,76中学桥南,86,16247,大连新华物业管理有限公司,0.2,辽宁,5,二手房,1970
沙河口区五一路96B-8号,大连,大连正源房地产开发有限公司,沙河口,20191007,38.913544290955585,121.59450670056631,幸福e家三期,62,37983,大连正源物业服务有限公司,1,辽宁,5,二手房,2003
开发区金源南里14栋-11号一层部分，14号-12号一层部分,大连,大连开建房地产开发有限公司,开发区,20191007,39.06148862675436,121.82503941311765,金源北里安居小区,76,8353,嘉兴物业管理有限公司,0.3,辽宁,3,二手房,1996
西岗区黄河路362号公建,大连,大连万峰房地产开发有限公司,西岗,20191007,38.91819905243802,121.61365779430986,万达华府一期,69,27057,大连万景物业管理有限公司,1.3,辽宁,4,二手房,1990
甘井子金地艺境博艺西园2-1号,大连,大连天意房地产开发有限公司,甘井子,20191007,39.04402110608829,121.665484498555,金地艺境,190,15136,大连金地物业管理有限公司,0.5,辽宁,3,二手房,2011
沙河口区锦江园30号1层公建,大连,大连锦绣房地产开发有限公司,沙河口,20191007,38.949985113183935,121.56560955976859,锦江园,95,10890,大连锦绣物业管理有限公司,0.3,辽宁,9,二手房,1983
甘井子区泉水D1区37-7号,大连,大连运腾房地产开发有限公司,甘井子,20191007,39.013992871679214,121.61921940045104,锦泉源D4区,32,14241,大连嘉和物业管理有限公司,0.5,辽宁,4,二手房,2006
中山区共建巷61号,大连,无开发商,中山,20191007,38.91828093658718,121.66259221532148,39中望海街,9,26300,街道办事处（居委会）代管物业,0.5,辽宁,1,二手房,1970
甘井子区红凌路109号,大连,大连锦联地产集团有限公司,甘井子,20191007,38.923388478439314,121.54860212120927,锦绣暖山,87,15139,大连锦明物业服务有限公司,1.2,辽宁,10,二手房,2004
甘井子区山东路127-2号,大连,无开发商,甘井子,20191007,38.99065559549029,121.59126483545545,七迎路,37,12653,街道办事处（居委会）代管物业,0.2,辽宁,0,二手房,1990
甘井子区芳韵街31号,大连,亿达集团大连房地产开发有限公司,甘井子,20191007,38.95628814568166,121.59125586946814,亿达世纪城,56,24462,亿达物业管理有限公司,0.9,辽宁,1,二手房,2002
甘井子区新兴路36号3-1-3,大连,大连新型房地产开发有限公司,甘井子,20191007,38.95800216293212,121.53151895549547,泡崖二区,96,10941,大连新兴物业管理有限公司,0.5,辽宁,5,二手房,1990
甘井子区中华路泉水A1区86号4单元1层1号,大连,大连运泽房地产开发有限公司,甘井子,20191007,39.00405715025758,121.60716996062854,润泽园,91,17115,大连城建开发集团物业管理有限公司,1.4,辽宁,5,二手房,2008
西岗区平等街21号1层2号,大连,无开发商,西岗,20191007,38.92251066253164,121.63236845125735,实验小学同庆街,89,22938,无物业管理服务,-,辽宁,6,二手房,1980
沙河口区五一路270-274号,大连,无开发商,高新园区,20191007,38.913544290955585,121.59450670056631,由家村,28,13421,无物业管理服务,-,辽宁,6,二手房,1987
金州区凤翔路220号,大连,大连润景房地产开发有限公司,金州,20191007,39.08410553937731,121.77700083356399,恒盛阳光美麓,139,9581,沈阳阳光鑫地物业管理有限公司大连分公司,1.6,辽宁,14,二手房,2006
甘井子区促进路30号2-1-1,大连,无开发商,甘井子,20191007,38.954133128707575,121.58355746311207,柳河小区,6,11670,大连衡德物业管理有限公司,0.2,辽宁,5,二手房,1994
大连市开发区左岸经典正恒园1-17,大连,大连神洲众益集团有限公司,开发区,20191007,39.049057070649155,121.76187404250511,万国宫馆二期,152,14206,加拿大高力国际物业服务有限公司,2.4,辽宁,10,二手房,2000
开发区红梅小区19栋-2-1-1号,大连,开发区城建局,开发区,20191007,29.906498897603264,121.5913630631805,红梅小区,50,12687,街道办事处（居委会）代管物业,0.3,辽宁,7,二手房,1992
甘井子区中华路泉水A1区86号4单元1层1号,大连,大连科技园房地产开发有限公司,甘井子,20191007,39.00405715025758,121.60716996062854,奥林园,50,13940,大连衡德物业管理有限公司,0.5,辽宁,4,二手房,1985
沙河口区兰田街33号,大连,渤海恒达房屋开发有限公司,沙河口,20191007,38.926138912221084,121.56486022834609,西苑小区,31,13091,大连西苑物业管理有限公司,0.3,辽宁,2,二手房,1994
金州区南棉路310号,大连,无开发商,金州,20191007,39.09939229372624,121.72414976100345,南棉小区,171,7326,街道办事处（居委会）代管物业,0.5,辽宁,4,二手房,1987
甘井子金地艺境博艺西园2-1号,大连,大连恒昇房地产开发有限公司,甘井子,20191007,39.04402110608829,121.665484498555,福佳新城一期,109,9504,大连福佳物业管理有限公司,0.9,辽宁,0,二手房,2000
中山区东港龙湖水晶郦湾7-102,大连,大连德银置业有限公司,中山,20191007,38.924700620463895,121.70344398518496,海韵华府,21,26392,大连金地物业管理有限公司,3.8,辽宁,0,二手房,2000
无门店信息,大连,大连中海新城置业有限公司,甘井子,20191007,43.873634114640744,81.30301501416476,中海凤凰熙岸,84,13530,大连中海物业管理有限公司,2.3,辽宁,3,二手房,2010
沙河口区锦云北园9号2单元1层2号,大连,大连锦绣房地产开发有限公司,沙河口,20191007,38.94844392905448,121.55735323382639,锦云北园,28,11824,大连锦绣物业管理有限公司,0.3,辽宁,3,二手房,1995
大连市开发区左岸经典正恒园1-17,大连,大连众益神州地产开发有限公司,开发区,20191007,39.049057070649155,121.76187404250511,万国宫馆三期,119,14279,大连万佳物业管理有限公司,2.8,辽宁,15,二手房,2000
沙河口区富静街26号1单元1层5号,大连,大连正源房地产开发有限公司,沙河口,20191007,38.908727606250466,121.58667844684369,幸福e家五期,184,37212,大连正源物业服务有限公司,1.8,辽宁,11,二手房,2006
中山区民建街10号1单元1号,大连,无开发商,中山,20191007,38.925444479476894,121.66915026954452,39中明阳街,48,20014,无物业管理服务,-,辽宁,1,二手房,1990
开发区鹏程家园66#-6、66#-7公建,大连,大连神洲众益集团有限公司,开发区,20191007,39.03523987258615,121.80826248065051,众益阳光海岸,107,10449,大连万佳物业管理有限公司,1.2,辽宁,7,二手房,2004
金州区金湾路132-2号,大连,大连金新房地产开发有限公司,金州,20191007,39.10269111644727,121.72221060686516,金州福佳新天地广场,121,8626,大连福佳物业管理有限公司,1.8,辽宁,3,二手房,2005
开发区红星海B区212-1,大连,远洋地产有限公司,开发区,20191007,39.01758113129015,121.82062304319655,红星海五期岚谷,138,13697,大连远洋基业物业管理有限公司,2.2,辽宁,6,二手房,2007
沙河口区南沙街36号台二2号1-1-37,大连,大连鹏生房地产开发有限公司,沙河口,20191007,38.90741410359388,121.57685699961822,鹏顺园,50,24688,大连新型物业管理有限公司,0.5,辽宁,4,二手房,2000
甘井子区海口路77—5号,大连,大连鹏辉房地产开发有限公司,甘井子,20191007,38.960286398428124,121.60305183172997,鹏辉新世纪四期,49,17851,大连鹏辉物业管理有限公司,0.6,辽宁,2,二手房,2003
大连市高新园区七贤中路63号,大连,大连全统房地产开发有限公司,高新园区,20191007,38.86053006357667,121.53273606963094,君海阁,21,18377,大连城建开发集团物业管理有限公司,2.2,辽宁,0,二手房,2012
甘井子区柳树南街45-10号,大连,中体产业集团大连乐百年置业有限公司,甘井子,20191007,38.92567666296449,121.4841330254372,中体奥林匹克花园,100,14676,广东中奥物业有限公司大连分公司,1.9,辽宁,2,二手房,2010
金州区同济路44号,大连,大连峰景房地产开发有限公司,金州,20191007,39.10476859984152,121.71234684495865,峰景西海岸,36,9109,大连峰景物业有限公司,0.8,辽宁,2,二手房,2004
开发区黄海西路54号,大连,大连凯伦房地产开发股份有限公司,开发区,20191007,39.047714586087785,121.76688238228269,凯伦凯悦,113,8966,大连凯悦物业管理有限公司,3.1,辽宁,8,二手房,2000
甘井子区红南东街7-7号,大连,大连大实企业集团房屋开发有限公司,甘井子,20191007,38.92880462247992,121.54144910207062,泊林和山,27,11965,大连弘实物业管理有限公司,0.6,辽宁,7,二手房,2006
沙河口区黑石礁街3号1层1-1号,大连,无开发商,沙河口,20191007,38.880058010307856,121.56313403908827,浪花街,56,11801,无物业管理服务,-,辽宁,8,二手房,1990
沙河口区西南路643号,大连,无开发商,沙河口,20191007,38.943483429804665,121.5833555851182,西关街,34,11733,无物业管理服务,-,辽宁,6,二手房,1995
高新园区黄浦路901S号1单元1层3号,大连,大连金真源集团房地产开发有限公司,高新园区,20191007,38.85845801548294,121.51687109601923,山海一家一期,61,14436,大连龙海物业管理有限公司,0.6,辽宁,8,二手房,2004
沙河口区红旗东路18-22号2单元1楼3号,大连,大连渤海红旗集团有限公司,甘井子,20191007,38.913544290955585,121.59450670056631,红旗东路,49,11969,渤海吉祥物业管理有限公司,0.4,辽宁,3,二手房,1990
甘井子区红旗西路104-23,大连,大连万科房地产开发有限公司,甘井子,20191007,38.94013845868325,121.5282577714263,万科假日风景,96,16957,大连万科物业服务有限公司,1,辽宁,8,二手房,2006
甘井子区绿洲园60号,大连,大连新华房屋开发有限公司,甘井子,20191007,38.95800216293212,121.53151895549547,新华绿洲,73,18647,大连新华物业管理有限公司,0.6,辽宁,6,二手房,2001
高新园区海苑街36号1单元2号公建,大连,大连大有房屋开发有限公司,高新园区,20191007,20.06392317589085,110.32302599457326,大有恬园,53,17719,大连家园物业有限公司,0.5,辽宁,2,二手房,2000
沙河口区黄河路883号,大连,大连正源房地产开发有限公司,沙河口,20191007,38.919826721475204,121.57749657966676,幸福e家四期,67,32812,大连正源物业服务有限公司,1.2,辽宁,0,二手房,2003
甘井子区鹏辉新世纪1幢1单元1-3号房屋（海口路99号）,大连,大连鹏生房地产开发有限公司,甘井子,20191007,38.96077365187575,121.60514653016222,鹏辉新世纪三期,16,17208,大连鹏辉物业管理有限公司,0.6,辽宁,3,二手房,2003
高新园区聚贤路36号5幢1单元1层1号,大连,大连海创房地产开发有限公司,高新园区,20191007,32.31472011562832,119.46141263909165,海创半山壹号,61,17148,大连海创物业管理有限公司,1.8,辽宁,4,二手房,2010
大连市金州新区中长街道碧海尚城5-4号1-2层,大连,无开发商,金州,20191007,39.1001690968934,121.73061017121415,碧海尚城,119,8067,街道办事处（居委会）代管物业,0.8,辽宁,9,二手房,2005
无门店信息,大连,大连亿达房地产股份有限公司,高新园区,20191007,43.873634114640744,81.30301501416476,亿达悦龙居,30,14767,亿达物业管理有限公司,2.8,辽宁,3,二手房,2012
甘井子区海口路77—5号,大连,大连鹏生房地产开发有限公司,甘井子,20191007,38.960286398428124,121.60305183172997,鹏辉新世纪二期,13,17450,大连鹏辉物业管理有限公司,0.6,辽宁,3,二手房,2003
高新园区红凌路732-4号,大连,大华集团大连置业有限公司,高新园区,20191007,38.90204708664442,121.53244406374695,大华锦绣华城二期,42,26158,大连大华物业管理有限公司,2.5,辽宁,0,二手房,2010
大连市甘井子中华路街道汇畅街48号,大连,远洋地产有限公司,甘井子,20191007,39.0059299196697,121.59621871231741,远洋自然,53,17562,大连远洋基业物业管理有限公司,1.3,辽宁,5,二手房,2001
大连市甘井子区燕南园50号,大连,大连软件园发展有限公司,高新园区,20191007,38.90172480153224,121.5363466289672,东方圣克拉一期,60,25116,亿达物业管理有限公司,2.6,辽宁,3,二手房,2010
甘井子区山东路137号,大连,大连新型房地产开发有限公司,甘井子,20191007,38.99129404608926,121.59172125999353,华南花园,37,14275,大连天洋物业管理有限公司,0.3,辽宁,4,二手房,1998
"西岗区泰公街20号2层7号 西岗区久寿街22号1层14号""",大连,大连润德君城房地产开发有限公司,西岗,20191007,38.92600196862723,121.62141976476381,北京公园,42,24894,大连润德物业管理有限公司,2.2,辽宁,3,二手房,2008
甘井子区虹韵路114号,大连,大连亿达美加房地产开发有限公司,甘井子,20191007,38.95653310483457,121.5329869995972,第五郡一号地,52,22350,亿达物业管理有限公司,1.9,辽宁,4,二手房,2010
大连市开发区湾里东5-6号,大连,大连明和房地产开发有限公司,开发区,20191007,39.07275772231556,121.85888789351343,青国青城,75,11422,大连豪斯沃克物业有限公司,1.5,辽宁,1,二手房,2005
中山区山屏街116号1-1,大连,无开发商,中山,20191007,38.90729438486833,121.68598159980013,怡和街,33,12474,街道办事处（居委会）代管物业,0.5,辽宁,8,二手房,1990
开发区松苑街23号,大连,大连泰乐房地产开发有限公司,开发区,20191007,22.52087435807652,113.40156105086167,碧海华庭,55,6826,大连海滨物业管理有限公司,0.5,辽宁,1,二手房,2000
中山区武昌街武昌公寓6号公建,大连,大连武昌房地产开发有限公司,中山,20191007,38.912280913445784,121.64921130527547,部居逸阁,23,13512,大连宜佳物业管理有限公司,1,辽宁,1,二手房,2005
高新园区硅谷假日小区25号楼地下室,大连,大连志恒房地产开发有限公司,高新园区,20191007,38.865995717263544,121.53771220335938,菁英汇,72,15754,大连海创物业管理有限公司,1.2,辽宁,5,二手房,2007
甘井子区泉水D6区51号,大连,大连时代房地产开发有限公司,甘井子,20191007,39.00897610161069,121.61789300655198,富士庄园,70,16349,大连佳泰物业管理有限公司,1.2,辽宁,2,二手房,2004
无门店信息,大连,大连聚达房地产开发有限公司,旅顺口,20191007,43.873634114640744,81.30301501416476,海尚明珠,182,9835,大连合生物业管理有限公司,1.5,辽宁,11,二手房,2005
西岗区鞍山路29号龙畔锦城东门,大连,大连铁路房地产开发有限责任公司,西岗,20191007,38.92763470697088,121.61498923399098,龙畔锦城,56,20052,大连亚航物业管理有限公司,1.2,辽宁,3,二手房,2000
开发区兴城路29-81层,大连,大连亿锋集团有限公司,开发区,20191007,39.05020829677517,121.7578103751747,亿锋广场三期,63,15311,大连广恒物业管理有限公司,2.8,辽宁,6,二手房,2010
无门店信息,大连,金辉地产,金州,20191007,43.873634114640744,81.30301501416476,金石明珠,125,9023,街道办事处（居委会）代管物业,1,辽宁,3,二手房,1997
甘井子区红南东街7-7号,大连,大连均卫达房地产开发有限公司,甘井子,20191007,38.92880462247992,121.54144910207062,亲亲阳光,11,13385,大连万泰物业管理有限公司,0.5,辽宁,1,二手房,2003
沙河口区锦石园24-7号第A2-13幢1单元1层1号,大连,大连锦绣房地产开发有限公司,沙河口,20191007,38.913544290955585,121.59450670056631,锦城园C区,34,15636,大连锦绣物业管理有限公司,0.5,辽宁,3,二手房,2002
沙河口区知心园10号公建,大连,大连软件园开发有限公司,高新园区,20191007,38.893977135945136,121.55667141994431,亿达国际新城,46,22115,亿达物业管理有限公司,1,辽宁,3,二手房,2003
甘井子区千山路66号楼2单元1楼2号,大连,大连宜和房地产开发有限公司,甘井子,20191007,38.985716774397915,121.58287796391829,盛世闲庭,54,15279,大连衡德物业管理有限公司,0.5,辽宁,4,二手房,2003
甘井子区金北路17号,大连,无开发商,甘井子,20191007,38.97553393692831,121.59969720502335,76中学桥北,96,18622,无物业管理服务,-,辽宁,4,二手房,1965
开发区大开高吉里33栋6号,大连,大连开建集团有限公司,开发区,20191007,39.07355836059941,121.8280439450145,高城花园,40,7822,嘉兴物业管理有限公司,0.2,辽宁,6,二手房,2000
经济技术开发区城润万家62-8公建,大连,大连海汇房地产开发有限公司,开发区,20191007,39.06883436780937,117.72669530355309,正源吉祥e家祥福园,62,11770,大连正源物业服务有限公司,1.5,辽宁,7,二手房,2012
甘井子区虹港路16号楼1层公建,大连,大连鑫奇房地产开发有限公司,甘井子,20191007,38.9645939333502,121.553851837474,鑫境界,89,11948,大连鑫境界物业管理有限公司,1.3,辽宁,3,二手房,2007
沙河口区恒利园42号-8,大连,大连天河房地产开发集团有限公司,沙河口,20191007,38.93357562498634,121.57914091532649,天河新苑,49,12930,大连天河物业管理有限公司,0.4,辽宁,3,二手房,2000
金州区金润小区B区861单元102,大连,大连中连房地产开发有限公司,金州,20191007,39.103153105120306,121.74665495055505,自然天城B区,78,7596,大连新生活物业管理有限公司,0.4,辽宁,7,二手房,2004
金州新区先进街道渤海街7-4号1-2层、7-3号1-2层,大连,大连九鼎置地有限公司,金州,20191007,39.09342713035472,121.74590886291374,万科城,76,11272,大连万科物业服务有限公司,2.2,辽宁,8,二手房,2011
大连市经济技术开发区东城园98-14,大连,大连金湾实业有限公司,开发区,20191007,39.069505812004174,121.85041013526302,裕民新苑,72,8632,大连金湾物业管理有限公司,0.3,辽宁,4,二手房,2002
大连市经济技术开发区东城园98-14,大连,大连聚美房地产开发有限公司,开发区,20191007,39.069505812004174,121.85041013526302,聚美东湾,83,12167,大连聚美房地产开发有限公司,1.6,辽宁,2,二手房,2013
甘井子区绿洲园60号,大连,大连友谊合升房地产开发有限公司,甘井子,20191007,38.95800216293212,121.53151895549547,壹品天城,144,28527,大连富丽华物业管理有限公司,0.5,辽宁,4,二手房,2009
沙河口区杨树街4-4号公建,大连,大连金弘基房地产开发有限公司,高新园区,20191007,38.88444587249751,121.55130620045541,弘基二期,32,22324,大连金弘基物业管理有限公司,0.6,辽宁,4,二手房,2002
甘井子区宜居园10-1号房屋,大连,大连万科房地产开发有限公司,甘井子,20191007,38.99913094587405,121.52084969112292,万科朗润园,109,15017,大连万科物业服务有限公司,1.5,辽宁,13,二手房,2009
无门店信息,大连,大连亿达房地产股份有限公司,旅顺口,20191007,43.873634114640744,81.30301501416476,亿达玉龙湾,49,9622,亿达物业管理有限公司,1.5,辽宁,3,二手房,2010
西岗区香炉礁24号1-1,大连,中瑞置业（大连）有限公司,西岗,20191007,38.92047268927287,121.61862512554262,香周首府,79,19532,中融物业管理有限公司,3,辽宁,2,二手房,2008
沙河口区富民路120号4-1-1,大连,大连银地置业发展有限公司,沙河口,20191007,38.930937859528605,121.5647274237578,观山蝶恋花,43,14972,大连新展物业管理有限公司,1,辽宁,3,二手房,2002
大连市甘井子区钻石湾和信园13-5,大连,远洋地产有限公司,甘井子,20191007,38.958506893694114,121.61900385114562,远洋钻石湾三期,48,21912,远洋亿家物业服务股份有限公司大连分公司,1.5,辽宁,8,二手房,2012
开发区东北三街94号1层,大连,开发区城建局,开发区,20191007,39.05723508011585,121.80570768630555,倚园里小区,53,7520,大连佳兴物业管理有限公司,0.3,辽宁,4,二手房,1998
大连市甘井子区泉水N2区3-13号,大连,大连半岛集团有限公司,甘井子,20191007,39.021116079001885,121.64659997607325,半岛泉水欣座,36,14942,大连半岛物业管理有限公司,1.5,辽宁,1,二手房,2010
开发区安盛里5栋-4,大连,大连盛铭资产管理有限公司,开发区,20191007,23.112106678834838,113.27801046214822,安盛花园,86,9604,大连经济技术开发区海青物业有限公司,1.1,辽宁,6,二手房,2002
甘井子区华龙南园12-4-3-1-3,大连,大连长鹭房屋开发有限公司,甘井子,20191007,38.98528794231248,121.61028969481718,晶品枫林,47,14010,北京房修一物业管理有限公司,0.5,辽宁,3,二手房,2005
金州区光明街道育才街42-6号1-2层,大连,大连市金州区育才房地产开发有限公司,金州,20191007,39.109080894078986,121.7182584929096,职高小区,59,8638,大连金州育才物业管理有限公司,0.5,辽宁,3,二手房,1900
甘井子区促进路200号,大连,大连航宇房屋开发有限公司,甘井子,20191007,38.95810188892782,121.58530036264898,促进小区,27,12183,大连顺达物业服务有限公司,0.2,辽宁,0,二手房,1995
开发区翠竹小区33栋4-1-1号,大连,"大连宏济开发经济有限公司,大连宏发投资发展有限公司",开发区,20191007,39.050117654732595,121.7714150980385,宏城金棕榈,71,10142,大连宏景物业管理有限公司,1.3,辽宁,5,二手房,2004
天河路173-2号 华润考拉22号公建,大连,无开发商,甘井子,20191007,38.9909476665524,121.57626660718621,七江路,24,11524,街道办事处（居委会）代管物业,0.2,辽宁,4,二手房,1995
沙河口区鞍山路65号美都园7号1单元1层4号公建,大连,大连美辰房地产开发有限公司,沙河口,20191007,38.92755211283745,121.60306664748275,丽景春天,26,19236,大连远洋基业物业管理有限公司,0.8,辽宁,2,二手房,2003
大连市沙河口区知邻街50号,大连,大连软件园开发有限公司,沙河口,20191007,38.913544290955585,121.59450670056631,宅语原,79,20108,亿达物业管理有限公司,2,辽宁,3,二手房,2008
无门店信息,大连,开发区城建局,开发区,20191007,43.873634114640744,81.30301501416476,东居里,139,7163,大连经济技术开发区海青物业有限公司,0.2,辽宁,4,二手房,1994
开发区景和园1-7,大连,无开发商,开发区,20191007,40.11590553486206,116.40732462645829,古耕景和园,41,9435,街道办事处（居委会）代管物业,0.5,辽宁,7,二手房,2007
大连市金州区友谊街道南金华城25号1-2层1号,大连,大连金园房地产开发有限公司,金州,20191007,39.128677228885614,121.71356109978767,金海明珠,54,9988,大连金园社区服务有限公司,0.5,辽宁,6,二手房,2000
大连市沙河口区文萃街1号1-2-2；大连市沙河口区由家五小区五号楼1单元2层1,大连,大连理工科技城建设开发有限公司,高新园区,20191007,38.88596852074166,121.54389553303217,文萃轩小区,36,17897,大连理工物业管理中心,0.2,辽宁,5,二手房,1980
西岗区长红街4号1号公建,大连,五指山水墨雨林置业有限公司,西岗,20191007,38.91377414665191,121.6302525225721,34中茂田巷,7,29259,无物业管理服务,-,辽宁,1,二手房,1984
大连市高新园区七贤中路63号,大连,大连宏都房地产开发有限公司,高新园区,20191007,38.86053006357667,121.53273606963094,宏都峰景,29,20201,大连东方百瑞物业管理有限公司,1.9,辽宁,4,二手房,2012
大连市开发区抚顺街30号,大连,无开发商,开发区,20191007,38.92272284555705,121.5977239817503,爱我家园,29,9681,大连嘉兴物业管理有限公司,0.5,辽宁,3,二手房,1998
沙河口区黄河路562号,大连,大连新型房地产开发有限公司,沙河口,20191007,38.9167961764482,121.60352063132478,79中科学家公寓,40,20527,大连新兴物业管理有限公司,0.8,辽宁,6,二手房,1992
沙河口区绿清街12号,大连,大连绿波房屋开发集团有限公司,沙河口,20191007,38.93851335419565,121.57334844377094,绿波花园,32,14224,大连绿波建设发展有限公司,0.6,辽宁,3,二手房,1997
金州区南棉路310号,大连,无开发商,金州,20191007,39.09939229372624,121.72414976100345,劳动局小区,122,8238,无物业管理服务,0.1,辽宁,6,二手房,1989
中山区华乐街93—1号,大连,大连环海房地产开发有限公司,中山,20191007,38.921950924512124,121.68673151242629,华乐环海花园,37,23269,大连景和物业管理有限公司,1.1,辽宁,0,二手房,2001
沙河口区星海广场B3区14-2号1层,大连,大连友谊合升房地产开发有限公司,沙河口,20191007,38.88693148294673,121.58735631267305,壹品星海一期,52,23040,暂无信息,1.3,辽宁,6,二手房,2004
高新园敬贤街23-11号,大连,大连晟远房地产开发有限公司,高新园区,20191007,38.869456648212356,121.53023725049893,恒瑞坦城,67,18084,大连恒德物业服务有限公司,2.4,辽宁,4,二手房,2013
甘井子区红旗中路143号1层4号,大连,大连保利红旗房地产开发有限公司,甘井子,20191007,38.93169566676921,121.5426632438217,保利西山林语,92,21182,保利物业服务有限公司,1.5,辽宁,5,二手房,2006
金州区同济路44号,大连,大连金开信都房地产开发有限公司,金州,20191007,39.10476859984152,121.71234684495865,海天新界,59,8404,大连西海岸物业管理有限公司,1,辽宁,3,二手房,2000
大连市甘井子区泉水R2区33-4号第8幢1单元1跃2层9号,大连,大连天意房地产开发有限公司,甘井子,20191007,39.00959640852594,121.63835439386493,金地檀溪,85,17973,大连金地物业管理有限公司,2.6,辽宁,5,二手房,2009
西岗区九三街64号,大连,润德集团有限公司,西岗,20191007,38.92047268927287,121.61862512554262,润德广场,59,15327,大连润德物业管理有限公司,3.8,辽宁,3,二手房,2000
西岗区香炉礁24号1-1,大连,大连新型房地产开发有限公司,西岗,20191007,38.92047268927287,121.61862512554262,金海花园西园,49,11984,无物业管理服务,0.5,辽宁,8,二手房,1990
甘井子区柳树南街45-10号,大连,大连都源置业有限公司,甘井子,20191007,38.92567666296449,121.4841330254372,依云溪谷,63,14571,大连远洋物业管理有限公司,1.2,辽宁,9,二手房,2007
大连市甘井子区软件园路122号,大连,大连鑫园房屋开发有限公司,高新园区,20191007,38.89286578891647,121.53266600180116,新新园二期,20,14697,大连理工物业管理中心,0.5,辽宁,1,二手房,2004
甘井子辛吉街150号-7号,大连,大连新星房地产开发有限公司,甘井子,20191007,38.96269175537377,121.52106381995755,新星帕尔美娜,61,16163,大连生生物业有限公司,1,辽宁,2,二手房,2008
沙河口区中山路417A-4号,大连,大连海孚房地产开发有限公司,沙河口,20191007,38.906939870156414,121.5941747326634,华业玫瑰东方,67,26085,深圳华业物业管理有限公司大连分公司,3.5,辽宁,5,二手房,1990
甘井子区红旗中路143号1层4号,大连,大连红旗兴达房地产开发有限公司,甘井子,20191007,38.93169566676921,121.5426632438217,兴达福山居,28,15414,大连万泰物业管理有限公司,0.4,辽宁,6,二手房,2004
中山区金城街26号一楼,大连,大连万达房地产开发有限公司,中山,20191007,38.922282529515634,121.65214466263014,九中金城街,22,34679,无物业管理服务,-,辽宁,8,二手房,1990
金州区光明街道育才街42-6号1-2层,大连,金州城建局，开发区城建局,金州,20191007,39.109080894078986,121.7182584929096,芙蓉花园（金州）,33,9872,大连金州新区建房物业管理中心,0.6,辽宁,4,二手房,2000
沙河口区西南路358号1—2号,大连,大连泰安房地产开发有限公司,沙河口,20191007,38.90839654326566,121.56908246905662,泰安花园,31,15013,大连三宝物业发展有限公司,0.5,辽宁,3,二手房,1998
无门店信息,大连,大连馨悦房地产开发有限公司,金州,20191007,43.873634114640744,81.30301501416476,悦泰山里,96,10477,大连百安物业管理有限公司,0.5,辽宁,10,二手房,2000
高新园区红凌路732-4号,大连,大连软件园开发有限公司,高新园区,20191007,38.90204708664442,121.53244406374695,东方圣克拉三期,69,25082,亿达物业管理有限公司,2.6,辽宁,3,二手房,2013
沙河口区兰田街33号,大连,大连运达房地产集团有限公司,沙河口,20191007,38.926138912221084,121.56486022834609,兰溪文苑,58,20672,大连运达物业管理有限公司,0.8,辽宁,1,二手房,2004
金州区先进街道渤海街1-4号1-2层,大连,无开发商,金州,20191007,39.09512910553563,121.74578812616167,金元小区,67,7317,街道办事处（居委会）代管物业,0.1,辽宁,2,二手房,1993
甘井子区芳韵街31号,大连,大连亿达房地产股份有限公司,甘井子,20191007,38.95628814568166,121.59125586946814,唯美品格,113,30121,亿达物业管理有限公司,1.5,辽宁,4,二手房,2008
沙河口区锦石园24-7号第A2-13幢1单元1层1号,大连,大连鼎新美地置业有限公司,甘井子,20191007,38.913544290955585,121.59450670056631,鼎新鼎润四季,23,21407,大连中原物业代理有限公司,1.2,辽宁,2,二手房,2006
金州区胜利西小区44号楼,大连,大连金宸集团,金州,20191007,39.10507689383061,121.71536524220103,连大文润金宸一二期,74,10634,大连四通物业管理有限公司,0.9,辽宁,1,二手房,2000
甘井子区玉丽街39号楼3号公建,大连,大连新型房地产开发有限公司,甘井子,20191007,38.98706755029984,121.55605471197089,玉丽街,67,10396,大连新兴物业管理有限公司,0.5,辽宁,2,二手房,2000
金州区小平岛B组团4号楼3号商铺,大连,安达圣岛开发有限公司,高新园区,20191007,39.05643299166072,121.78943558267059,小平岛亲海园,81,17534,大连凯尔富物业管理有限公司,1.3,辽宁,2,二手房,2007
高新园区敬贤街25-9,大连,大连邦盛发展有限公司,高新园区,20191007,38.86879447142154,121.53007349209936,雯君庭,38,21614,大连意美物业服务有限公司,2.3,辽宁,6,二手房,2013
沙河口区锦石路8号,大连,大连锦绣房地产开发有限公司,沙河口,20191007,38.94771288948481,121.56110903658733,锦泉南园,48,11818,大连锦绣物业管理有限公司,0.3,辽宁,3,二手房,1995
沙河口区富国街14号1-1-2,大连,大连永辉房地产开发有限公司,沙河口,20191007,38.90122538432287,121.59040728337153,百年汇,125,18237,大连百年城物业管理有限公司,2.8,辽宁,12,二手房,2006
大连市甘井子区丰收路3-5号,大连,大连万鼎置业有限公司,甘井子,20191007,38.965377255081755,121.58288415324094,万科蓝山,28,26868,大连万科物业服务有限公司,2.9,辽宁,3,二手房,2012
沙河口区南沙街36号台二2号1-1-37,大连,大连康加立置业有限公司,沙河口,20191007,38.90741410359388,121.57685699961822,台四小区,48,13641,大连弘达物业管理有限公司,-,辽宁,3,二手房,1996
莲花山路89-3号,大连,无开发商,西岗,20191007,38.902848261803356,121.6041720815823,世纪家园(西岗),9,17124,大连铁龙物业管理有限公司,0.3,辽宁,0,二手房,2000
甘井子区红南东街7-7号,大连,大连良运房地产开发有限公司,甘井子,20191007,38.92880462247992,121.54144910207062,山居笔记,24,16278,大连良运物业管理有限公司,1.5,辽宁,2,二手房,2007
高新园区海苑街36号1单元2号公建,大连,千汇德（大连）置业有限公司,高新园区,20191007,20.06392317589085,110.32302599457326,哈佛映像,20,18567,大连千汇德物业管理有限公司,1.2,辽宁,1,二手房,2008
沙河口区星海广场B3区20—3号,大连,大连飞通房地产开发有限公司,沙河口,20191007,38.88821813888643,121.58674530143466,东方星海,134,17987,大连兆恒物业管理有限公司,2.9,辽宁,7,二手房,2000
无门店信息,大连,大华集团大连置业有限公司,高新园区,20191007,43.873634114640744,81.30301501416476,大华锦绣华城三期,48,22849,大连大华物业管理有限公司,2.5,辽宁,4,二手房,2010
甘井子区山东路398号,大连,大连盛铭资产管理有限公司,甘井子,20191007,38.99821826443242,121.59274974973462,亿合城,71,18691,大连盛安物业管理有限公司,1.5,辽宁,6,二手房,2008
甘井子区华龙南园12-4-3-1-3,大连,大连瑞祥房地产开发有限公司,甘井子,20191007,38.98528794231248,121.61028969481718,今都小区,60,12490,大连泰安物业管理有限公司,0.2,辽宁,4,二手房,1996
高新园区红凌路732-4号,大连,大华集团大连置业有限公司,高新园区,20191007,38.90204708664442,121.53244406374695,大华锦绣华城一期,48,24675,大连大华物业管理有限公司,2.5,辽宁,2,二手房,2010
高新园区火炬路18号,大连,大连千业房地产开发有限公司,高新园区,20191007,38.937738080520404,117.39340752036043,第8区,31,17869,大连大管家物业管理有限公司,1.9,辽宁,7,二手房,2010
甘井子区华东路22号公建,大连,大连金广地产集团有限公司,甘井子,20191007,38.97736184953593,121.5935814234334,华东路（山东路商圈）,29,12070,大连嘉和物业管理有限公司,0.5,辽宁,1,二手房,1990
甘井子区金北街17号,大连,大连悦泰集团有限公司,甘井子,20191007,38.95800216293212,121.53151895549547,悦泰馨家,25,25833,大连优豪斯物业管理有限公司,0.5,辽宁,1,二手房,2003
甘井子金地艺境博艺西园2-1号,大连,福佳集团有限公司,甘井子,20191007,39.04402110608829,121.665484498555,欣家园二期,40,9681,街道办事处（居委会）代管物业,0.5,辽宁,4,二手房,2000
甘井子区汇达园26号,大连,大连市大钢集团,甘井子,20191007,38.99704654604941,121.59758808878767,华南沃尔玛六平路,18,12397,街道办事处（居委会）代管物业,0.5,辽宁,0,二手房,1990
甘井子区西南路芳茗园30号楼,大连,大连东北房屋开发有限公司,甘井子,20191007,38.961395177040636,121.59546002818708,东北名苑,58,17468,大连国合物业管理有限公司,0.5,辽宁,1,二手房,2000
高新园区红凌路732-4号,大连,大连亿达房地产股份有限公司,高新园区,20191007,38.90204708664442,121.53244406374695,亿达峦翠园,39,20834,亿达物业管理有限公司,1.3,辽宁,6,二手房,2009
沙河口区成仁街91号,大连,大连万达房地产开发有限公司,沙河口,20191007,38.91539947107844,121.59585638842556,龙祥花园,16,25178,大连万达物业管理有限公司,0.8,辽宁,2,二手房,2001
开发区兴城路29-81层,大连,大连兆佳房地产开发有限公司,开发区,20191007,39.05020829677517,121.7578103751747,自由向,59,14535,大连华安物业管理有限公司,2.4,辽宁,6,二手房,2000
中山区爱华街13号,大连,无开发商,中山,20191007,38.92541607518685,121.6535728031028,九中安乐街,47,37725,无物业管理服务,-,辽宁,1,二手房,1980
无门店信息,大连,融创开发商,甘井子,20191007,43.873634114640744,81.30301501416476,三寰融创城北园,55,12937,融创物业,2.2,辽宁,2,二手房,2013
大连市高新园区软件园路1A-3号,大连,亿达房地产开发有限公司,高新园区,20191007,38.894037160822535,121.54670889743173,软件园小区,68,14889,业主自筹物业,0.2,辽宁,1,二手房,1990
中山区东港龙湖水晶郦湾7-102,大连,大连龙湖东港房地产有限公司,中山,20191007,38.924700620463895,121.70344398518496,龙湖水晶郦湾,71,28695,大连龙湖物业服务有限公司,4.5,辽宁,6,二手房,2012
中山区金城街26号一楼,大连,合肥万科瑞翔地产有限公司,中山,20191007,38.922282529515634,121.65214466263014,解放街,22,25238,无物业管理服务,-,辽宁,0,二手房,1982
沙河口区西南路851号3单元1层3号,大连,大连振屹房屋开发有限公司,沙河口,20191007,38.94344210837944,121.58246796944378,柳馨家园,7,13853,街道办事处（居委会）代管物业,0.6,辽宁,1,二手房,2000
甘井子区促进路200号,大连,大连亿达房地产股份有限公司,甘井子,20191007,38.95810188892782,121.58530036264898,林语家话,45,26663,亿达物业管理有限公司,1.2,辽宁,9,二手房,2000
甘井子区华东路22号公建,大连,大连凯祥房地产开发有限公司,甘井子,20191007,38.97736184953593,121.5935814234334,环馨山庄,25,13048,大连凯祥物业管理有限公司,0.5,辽宁,0,二手房,2000
沙河口区西南路358号1—2号,大连,大连弘晟房地产开发有限公司,沙河口,20191007,38.90839654326566,121.56908246905662,明月山庄,18,14941,大连衡德物业管理有限公司,0.6,辽宁,1,二手房,2003
西岗区长春路334号,大连,无开发商,西岗,20191007,38.89807766522607,121.63221082858387,长春路（石道街商圈）,20,11828,无物业管理服务,-,辽宁,2,二手房,1989
西岗区黄河路82号,大连,大连民兴房地产开发有限公司,西岗,20191007,38.92243503020161,121.6287927913896,前城国际二期,39,22688,大连前城花园物业管理有限公司,1.5,辽宁,0,二手房,2000
中山区解放路604号,大连,无开发商,中山,20191007,38.89026319122045,121.66407876092346,山海巷,10,9667,街道办事处（居委会）代管物业,0.5,辽宁,2,二手房,1985
甘井子区柳树南街45-10号,大连,中体产业集团大连乐百年置业有限公司,甘井子,20191007,38.92567666296449,121.4841330254372,水木清华,28,13461,大连辰谊物业管理有限公司,1.2,辽宁,4,二手房,2007
开发区杏树里10栋-14,大连,无开发商,开发区,20191007,39.08113818354046,121.78505742127606,松苑山庄,86,5994,大连市金州区先进物业管理中心,0.5,辽宁,4,二手房,1990
西岗区华北路100号1层5号,大连,大连万达房地产开发有限公司,西岗,20191007,38.92047268927287,121.61862512554262,香海花园,31,16392,大连万达物业管理有限公司,0.8,辽宁,1,二手房,1998
开发区翠竹小区33栋4-1-1号,大连,江苏翠竹置业集团有限公司,开发区,20191007,39.050117654732595,121.7714150980385,翠竹中区,30,10954,嘉兴物业管理有限公司,0.3,辽宁,3,二手房,1996
沙河口区五一路177-1-1-1,大连,大华集团大连房地产开发有限公司,沙河口,20191007,38.913544290955585,121.59450670056631,大华御庭,61,22375,大连乐尔居物业服务有限公司,1.4,辽宁,2,二手房,2009
沙河口区长江路738号,大连,大连大和中盛房地产有限公司,西岗,20191007,38.913544290955585,121.59450670056631,颐和香榭,36,29709,大连颐和物业管理有限公司,2.5,辽宁,3,二手房,2007
大连市金州新区友谊街道和平路59-10号1-2层公建,大连,无开发商,金州,20191007,39.112168401852266,121.72006917947859,古城乙区,189,7559,无物业管理服务,0.4,辽宁,5,二手房,1992
中山区东港龙湖水晶郦湾7-102,大连,大连金广地产集团有限公司,中山,20191007,38.924700620463895,121.70344398518496,金广东海岸,74,23070,大连金广物业有限公司,2.2,辽宁,5,二手房,2007
甘井子区促进路30号2-1-1,大连,大连谷和房屋开发有限公司,甘井子,20191007,38.954133128707575,121.58355746311207,谷和温馨苑,21,17643,大连谷和物业管理有限公司,0.6,辽宁,5,二手房,2002
甘井子区山东路315号14栋1单元1跃2层13号,大连,华润置地（大连）开发有限公司,甘井子,20191007,39.00206212579579,121.59357231641214,华润置地广场一期,71,19872,华润物业（大连）有限公司,2.8,辽宁,2,二手房,2005
无门店信息,大连,大连环宇置业有限公司,开发区,20191007,43.873634114640744,81.30301501416476,环宇品阁,105,6639,大连环宇物业管理有限公司,1.5,辽宁,6,二手房,2004
开发区黄海西路201号107公建,大连,无开发商,开发区,20191007,39.04942604506828,121.80126318235419,新辰里,42,8151,街道办事处（居委会）代管物业,0.5,辽宁,3,二手房,1996
中山区职工街96号1-3层公建,大连,大连嘉和房地产开发有限公司,中山,20191007,38.92565613737007,121.66193575790903,嘉和花样年华一期,89,20508,大连嘉和物业管理有限公司,3,辽宁,1,二手房,2002
甘井子区泉水H3区15号3单元1层2号,大连,大连新型房地产开发有限公司,甘井子,20191007,39.00158439075201,121.62616882572375,龙畔金泉一期,10,11640,大连新型物业管理有限公司,0.5,辽宁,0,二手房,2002
开发区湾里南12栋-16-17-18号,大连,无开发商,开发区,20191007,39.070782084451,121.8506739675913,东城国际,48,8644,大连乾豪物业管理有限公司,1,辽宁,4,二手房,2004
西岗区长春路334号,大连,大连新型房地产开发总公司,西岗,20191007,38.89807766522607,121.63221082858387,林茂小区,46,10117,大连新型物业管理有限公司,0.2,辽宁,4,二手房,1990
无门店信息,大连,大连宏港房地产开发有限公司,开发区,20191007,43.873634114640744,81.30301501416476,港湾观海,72,8772,大连宏港物业管理有限公司,0.5,辽宁,5,二手房,2010
中山区东港龙湖水晶郦湾7-102,大连,大连保利东港房地产开发有限公司,中山,20191007,38.924700620463895,121.70344398518496,保利天禧,75,26088,保利物业服务有限公司,4.8,辽宁,3,二手房,2015
甘井子区辛寨子街道中冶蓝城辛虹园39-7号公建,大连,大连中冶京诚置业有限公司,甘井子,20191007,38.982809148822504,121.49228627082215,中冶蓝城D区,39,15825,大连添翼物业服务有限公司,2,辽宁,0,二手房,2010
中山区共建巷61号,大连,无开发商,中山,20191007,38.91828093658718,121.66259221532148,39中共建巷,19,25720,街道办事处（居委会）代管物业,0.5,辽宁,7,二手房,1982
高新园区硅谷假日小区25号楼地下室,大连,浦项（大连）软件园开发有限公司,高新园区,20191007,38.865995717263544,121.53771220335938,浦项道,41,22329,浦项(大连)物业管理有限公司,3.4,辽宁,3,二手房,2010
甘井子区佳林北园2-7号,大连,大连瑞泰祥房地产开发有限公司,甘井子,20191007,38.96331610956877,121.52802328494242,缇香漫城,51,21344,大连瑞泰祥物业服务有限公司,2,辽宁,3,二手房,2010
开发区正恒园1-16,大连,河北沃金投资有限公司,开发区,20191007,39.04823944344617,121.76165468797754,正泰园B区,34,12003,无物业管理服务,1.9,辽宁,3,二手房,2000
开发区安盛里5栋-4,大连,大连汽贸房屋开发有限公司,开发区,20191007,23.112106678834838,113.27801046214822,东北明珠,66,12394,大连汽贸物业管理有限公司,1.5,辽宁,2,二手房,2006
中山区同心街72号1楼公建,大连,无开发商,中山,20191007,38.91979245940674,121.64769198230202,南山里,15,18810,无物业管理服务,-,辽宁,2,二手房,1985
沙河口区前程街15号1层E-C轴36-44轴公建,大连,大连安邦房地产开发有限公司,甘井子,20191007,38.91588050824643,121.60099647548584,阳光百合,15,16904,渤海吉祥物业管理有限公司,0.8,辽宁,2,二手房,2000
无门店信息,大连,无开发商,甘井子,20191007,43.873634114640744,81.30301501416476,五二三厂,63,8952,无物业管理服务,0.5,辽宁,3,二手房,1900
中山区清溪南街11号,大连,无开发商,中山,20191007,38.88919604283904,121.66466481004835,秀月小区,48,16976,无物业管理服务,-,辽宁,3,二手房,1982
金州区小平岛B组团4号楼3号商铺,大连,大连安达房地产开发有限公司,高新园区,20191007,39.05643299166072,121.78943558267059,小平岛亲海园A2组团,47,20913,大连凯尔富物业管理有限公司,1.3,辽宁,1,二手房,2007
经济技术开发区城润万家4-5号公建,大连,诠盛置业（大连）有限公司,开发区,20191007,39.05525210261778,121.74865634199398,清都记忆,51,12164,金科物业服务集团有限公司,0.5,辽宁,5,二手房,2010
沙河口区展望街29,大连,大连嘉源置业发展有限公司,沙河口,20191007,38.93473052900021,121.57390298303343,御园,47,18336,大连御博物业,2,辽宁,5,二手房,2010
甘井子区海口路77—5号,大连,大连圣韬房地产开发有限公司,甘井子,20191007,38.960286398428124,121.60305183172997,万福居,59,18027,大连圣韬物业管理有限公司,0.5,辽宁,5,二手房,2004
开发区湾里南12栋-16-17-18号,大连,大连金湾实业有限公司,开发区,20191007,39.070782084451,121.8506739675913,湾里西,73,7721,广宜物业有限公司,0.2,辽宁,1,二手房,1996
中山区爱华街13号,大连,大连长荣房屋开发有限公司,中山,20191007,38.92541607518685,121.6535728031028,休斯顿公寓,34,13006,大连长荣物业管理有限公司,2.6,辽宁,4,二手房,2001
大连经济技术开发区同和里7栋-9号,大连,大连城市建设集团有限公司,开发区,20191007,39.048933782970316,121.78832105502437,新日里小区,36,8959,街道办事处（居委会）代管物业,0.5,辽宁,2,二手房,1995
中山区清溪南街11号,大连,大连锦绣房地产开发有限公司,中山,20191007,38.88919604283904,121.66466481004835,秀月广场,28,12742,无物业管理服务,0.5,辽宁,3,二手房,1992
沙河口区五一路110-4号,大连,大连市中联房地产开发有限公司,沙河口,20191007,38.913544290955585,121.59450670056631,星海中龙园,22,20944,大连斌弘物业管理有限公司,0.6,辽宁,3,二手房,2003
无门店信息,大连,大连海脉房地产开发有限公司,金州,20191007,43.873634114640744,81.30301501416476,海脉未来城,34,8243,大连豪斯威物业管理有限公司,1,辽宁,5,二手房,2008
中山区武昌街武昌公寓6号公建,大连,大连中盛集团有限公司,中山,20191007,38.912280913445784,121.64921130527547,武昌花园,11,13438,无物业管理服务,0.3,辽宁,2,二手房,1990
无门店信息,大连,北方沿海房地产开发（大连）有限公司,沙河口,20191007,43.873634114640744,81.30301501416476,星海大观,229,17210,北京世邦魏理仕物业管理服务有限公司大连分公司,4.4,辽宁,4,二手房,2008
无门店信息,大连,大连运达房地产集团有限公司,甘井子,20191007,43.873634114640744,81.30301501416476,运达诺维溪谷一期,55,16844,大连运达物业有限公司,1.8,辽宁,2,二手房,2010
无门店信息,大连,大连鲁能置业有限公司,金州,20191007,43.873634114640744,81.30301501416476,鲁能优山美地,88,11495,长城物业集团股份有限大连分公司,1.9,辽宁,3,二手房,2001
沙河口区鞍山路65号美都园7号1单元1层4号公建,大连,大连良运房地产开发有限公司,沙河口,20191007,38.92755211283745,121.60306664748275,良运缤纷四季,46,22169,大连良运物业管理有限公司,0.8,辽宁,0,二手房,2002
沙河口区数码路北段18—20号,大连,大连软景房地产开发有限公司,高新园区,20191007,38.892000603999115,121.5494486394066,软景E居,85,27375,亿达物业管理有限公司,2.6,辽宁,12,二手房,2009
沙河口区星海广场B3区20—3号,大连,大连亿达房地产股份有限公司,沙河口,20191007,38.88821813888643,121.58674530143466,亿达杰特,146,19881,亿达物业管理有限公司,3.8,辽宁,3,二手房,2005
中山区爱华街13号,大连,大连锦联地产集团有限公司,中山,20191007,38.92541607518685,121.6535728031028,经典生活,45,8973,大连锦联物业管理有限公司,2.2,辽宁,4,二手房,2003
无门店信息,大连,无开发商,金州,20191007,43.873634114640744,81.30301501416476,滨海丰园,117,8582,大连奥泰物业服务有限公司,0.5,辽宁,3,二手房,2001
中山区杏林街66—5号,大连,大连开建集团有限公司,中山,20191007,38.92440845067654,121.66285472444575,花香维也纳,45,23966,大连开利物业管理有限公司,0.5,辽宁,4,二手房,1990
开发区高新里6栋-8,大连,无开发商,开发区,20191007,39.0710895068195,121.82860134358343,高民里,69,6941,街道办事处（居委会）代管物业,0.2,辽宁,4,二手房,1992
大连市甘井子区丰收路3-5号,大连,无开发商,甘井子,20191007,38.965377255081755,121.58288415324094,王家桥,72,15875,大连铁路物业管理有限公司,0.1,辽宁,4,二手房,1987
西岗区平等街21号1层2号,大连,裕景兴业（大连）有限公司,西岗,20191007,38.92251066253164,121.63236845125735,中心裕景,147,21111,第一太平戴维斯物业顾问（北京）有限公司大连分公司,3.8,辽宁,8,二手房,1997
高新园区黄浦路600-602号,大连,大连东阳房地产开发有限公司,高新园区,20191007,38.86342472318123,121.53493189660259,龙湖星海彼岸,73,26224,大连龙湖物业服务有限公司,3.3,辽宁,0,二手房,2017
中山区清溪南街11号,大连,大连澳南房屋开发有限公司,中山,20191007,38.88919604283904,121.66466481004835,明秀山庄B区,40,41884,绿城物业服务集团有限公司大连分公司,1.9,辽宁,2,二手房,2008
高新园区黄浦路901S号1单元1层3号,大连,大连金真源集团房地产开发有限公司,高新园区,20191007,38.85845801548294,121.51687109601923,山海一家三期,11,18174,大连龙海物业管理有限公司,1.2,辽宁,2,二手房,2010
沙河口区星海广场B3区14-9,大连,大连友谊合升房地产开发有限公司,沙河口,20191007,38.887408126588866,121.58732762887982,壹品星海三期,52,24017,大连友谊物业服务有限公司,1.2,辽宁,3,二手房,2003
西岗区鞍山路65-5号,大连,大连万达房地产开发有限公司,沙河口,20191007,38.92701992456326,121.60258216167713,79中广电中心,57,28138,无物业管理服务,-,辽宁,8,二手房,1988
大连市甘井子区椒房街24号楼2-104链家地产,大连,大连港置地有限公司,甘井子,20191007,38.985363789837166,121.61034055597686,大连港天下粮仓,18,20826,大连万科物业服务有限公司,2.2,辽宁,6,二手房,2013
中山区中青街87号一单元107,大连,无开发商,中山,20191007,38.90213494248529,121.65806522267005,爱华巷,4,10906,无物业管理服务,-,辽宁,0,二手房,1993
中山区山屏街116号1-1,大连,大连中信海港投资有限公司,中山,20191007,38.90729438486833,121.68598159980013,山屏街,38,11804,暂无信息,-,辽宁,1,二手房,1988
无门店信息,大连,无开发商,金州,20191007,43.873634114640744,81.30301501416476,永安四季,44,7287,无物业管理服务,0.5,辽宁,6,二手房,2005
无门店信息,大连,大连振富房屋开发有限公司,西岗,20191007,43.873634114640744,81.30301501416476,振富公寓（胜利桥北商圈）,39,8986,大连中海振富物业管理有限公司,1.1,辽宁,2,二手房,2002
大连市甘井子区软件园路122号,大连,大连理工科技城建设开发有限公司,高新园区,20191007,38.89286578891647,121.53266600180116,理工园,26,14938,街道办事处（居委会）代管物业,1,辽宁,3,二手房,1998
西岗区新田巷11号三单元103,大连,无开发商,西岗,20191007,38.89276612016956,121.64190731791966,新船巷,34,9730,无物业管理服务,-,辽宁,2,二手房,1990
中山区岭前街53-5,大连,大连九龙仓绿城置业有限公司,中山,20191007,38.894816075499904,121.65794368822269,绿城九龙仓桃源里,30,26018,绿城物业服务集团有限公司大连分公司,3.8,辽宁,0,二手房,2015
中山区爱华街13号,大连,无开发商,中山,20191007,38.92541607518685,121.6535728031028,九中爱华街,6,42167,无物业管理服务,-,辽宁,1,二手房,1988
中山区中青街87号一单元107,大连,大连亿达房地产股份有限公司,中山,20191007,38.90213494248529,121.65806522267005,青云林海,50,21731,亿达物业管理有限公司,1,辽宁,4,二手房,2001
中山区民建街10号1单元1号,大连,无开发商,中山,20191007,38.925444479476894,121.66915026954452,39中顺阳街,37,20139,无物业管理服务,-,辽宁,3,二手房,1985
中山区东港龙湖水晶郦湾7-102,大连,大连一方东港置地有限公司,中山,20191007,38.924700620463895,121.70344398518496,中庚当代艺术,35,24803,大连中庚物业管理有限公司,4.5,辽宁,0,二手房,2015
高新园区海苑街36号1单元2号公建,大连,大连金华兴房地产开发有限公司,高新园区,20191007,20.06392317589085,110.32302599457326,华兴山庄,18,15700,大连华兴物业管理有限公司,0.5,辽宁,0,二手房,2000
沙河口区中山路417A-4号,大连,大连宝嘉房地产有限公司,沙河口,20191007,38.906939870156414,121.5941747326634,德源筑座,21,22154,大连乐尔居物业服务有限公司,2.5,辽宁,1,二手房,2008
天河路173-2号 华润考拉22号公建,大连,大连世隆房地产开发有限公司,甘井子,20191007,38.9909476665524,121.57626660718621,桑尼小镇,18,15453,大连大家物业管理有限公司,1.9,辽宁,7,二手房,2011
中山区益民街16号1层1号,大连,无开发商,中山,20191007,38.93092761298906,121.66470740073377,永胜街（三八广场）,16,13852,无物业管理服务,-,辽宁,3,二手房,1987
沙河口区西南路643号,大连,大连泰安房地产开发有限公司,沙河口,20191007,38.943483429804665,121.5833555851182,幸福小区(沙河口),42,12491,大连三宝物业发展有限公司,0.3,辽宁,7,二手房,1995
大连市高新园区桃峪园4-2号第31幢-2层8号,大连,大连软件园安博开发有限公司,高新园区,20191007,38.9189536667856,121.62163148459285,亿达普罗旺斯,85,21238,亿达物业管理有限公司,2.6,辽宁,1,二手房,2000
金州区拥政街道733号-8号1-2层,大连,无开发商,金州,20191007,39.11275710643187,121.7224229797623,414小区,97,7498,街道办事处（居委会）代管物业,-,辽宁,2,二手房,1989
中山区高尚路28-1号,大连,无开发商,中山,20191007,38.892673425111305,121.67148833870213,高原街,25,11378,街道办事处（居委会）代管物业,0.5,辽宁,1,二手房,1989
沙河口区绿清街12号,大连,大连中海新城置业有限公司,沙河口,20191007,38.93851335419565,121.57334844377094,中海英伦观邸,63,22608,大连中海物业管理有限公司,1.8,辽宁,5,二手房,2009
沙河口区长江路946号-9,大连,无开发商,沙河口,20191007,38.913544290955585,121.59450670056631,城品城,18,19353,大连万景物业管理有限公司,2,辽宁,3,二手房,2010
中山区共建巷61号,大连,辽宁外贸有限公司,中山,20191007,38.91828093658718,121.66259221532148,39中南山花园,15,21810,渤海花园物业管理有限公司,3.5,辽宁,0,二手房,1998
高新园区火炬路18号,大连,大连嘉创房地产开发有限公司,高新园区,20191007,38.937738080520404,117.39340752036043,嘉创E人国际,77,15597,大连紫金物业管理有限公司,2,辽宁,6,二手房,2009
甘井子区凌秀路37号-1链家地产,大连,千汇德（大连）置业有限公司,高新园区,20191007,38.883794285403965,121.52361997548515,哈佛世纪,26,19551,大连千汇德物业管理有限公司,2.4,辽宁,0,二手房,2012
无门店信息,大连,大连鹏玥房地产开发有限公司,开发区,20191007,43.873634114640744,81.30301501416476,中环城市广场,50,9529,大连鹏玥物业公司,1.5,辽宁,5,二手房,2012
甘井子区虹韵路114号,大连,大连亿达美加房地产开发有限公司,甘井子,20191007,38.95653310483457,121.5329869995972,第五郡五号地,92,27754,亿达物业管理有限公司,2,辽宁,4,二手房,2006
甘井子区美域盛景A2区10-6,大连,大连时代房地产开发有限公司,甘井子,20191007,39.006221362805846,121.61022278003976,泉水友好园,41,13517,大连爱静物业服务有限公司,0.5,辽宁,2,二手房,1998
西岗区大同街125号,大连,大连新型房地产开发有限公司,西岗,20191007,38.920458602340894,121.61445835429899,银寰花园,20,11219,街道办事处（居委会）代管物业,0.3,辽宁,2,二手房,1995
沙河口区华新苑10号楼4号公建,大连,大连新型房地产开发有限公司,沙河口,20191007,38.94033750532864,121.58990295130229,华新苑,7,14419,大连新型物业管理有限公司,0.5,辽宁,2,二手房,2001
西岗区中山路158号唐山街市场外14号,大连,重庆汇东房地产开发有限公司,西岗,20191007,38.91688106727098,121.63201298398174,34中唐山街,10,28792,无物业管理服务,0.1,辽宁,0,二手房,1985
沙河口区富静街26号1单元1层5号,大连,大连远东房屋开发有限公司,沙河口,20191007,38.908727606250466,121.58667844684369,世嘉星海,38,27812,大连瑞信物业管理有限公司,1.6,辽宁,0,二手房,2007
大连市甘井子区椒房街24号楼2-104链家地产,大连,大连圣韬房地产开发有限公司,甘井子,20191007,38.985363789837166,121.61034055597686,万福山庄,30,14902,大连海旭物业管理有限公司,0.5,辽宁,1,二手房,1996
高新园区海苑街36号1单元2号公建,大连,大连鸿越房地产开发有限公司,高新园区,20191007,20.06392317589085,110.32302599457326,康桥小镇,26,19691,大连长青物业管理中心,1.3,辽宁,1,二手房,2009
无门店信息,大连,大连软件园世通开发有限公司,高新园区,20191007,43.873634114640744,81.30301501416476,亿达普罗旺斯二期,100,20993,亿达物业管理有限公司,2.6,辽宁,6,二手房,2010
甘井子区玉丽街2号楼1单元4号公建,大连,大连新型房地产开发有限公司,甘井子,20191007,38.98705071699301,121.55513043130172,泡崖康居园,61,10540,大连新兴物业管理有限公司,0.5,辽宁,2,二手房,2000
无门店信息,大连,大连益宁房地产开发有限公司,开发区,20191007,43.873634114640744,81.30301501416476,岭湾峰尚二期,96,10313,大连鸿达物业管理有限公司,0.6,辽宁,6,二手房,2010
无门店信息,大连,大连明和房地产开发有限公司,开发区,20191007,43.873634114640744,81.30301501416476,知语山园,36,10845,大连大众物业管理有限公司,1.3,辽宁,1,二手房,2003
甘井子区甘井子路32号楼1单元1楼9号,大连,无开发商,甘井子,20191007,38.982488275116516,121.63345389253514,松江小区,30,10623,街道办事处（居委会）代管物业,0.5,辽宁,0,二手房,1980
中山区高尚路28-1号,大连,大连华南地产开发有限公司,中山,20191007,38.892673425111305,121.67148833870213,环山街,11,11528,街道办事处（居委会）代管物业,0.5,辽宁,3,二手房,1987
甘井子区金家街17-7号,大连,大连嘉兴房地产开发有限公司,甘井子,20191007,38.97493697764367,121.60110987128529,青林美地,35,20709,大连嘉盛物业管理有限公司,0.5,辽宁,4,二手房,2003
金州新区八一路金都嘉园1号楼1号公建,大连,大连元新房地产开发有限公司,金州,20191007,39.05525210261778,121.74865634199398,华夏金城,57,10014,大连元新物业管理有限公司,1.2,辽宁,5,二手房,2000
甘井子区柳树南街45-11号,大连,中海新海汇（大连）置业有限公司,甘井子,20191007,38.92567666296449,121.4841330254372,中海御湖熙谷,91,14885,大连中海物业管理有限公司,2.2,辽宁,7,二手房,2013
中山区华乐街71号公建,大连,大连环海房地产开发有限公司,中山,20191007,38.923187679200566,121.6843197903016,华乐小区,20,14033,大连景和物业管理有限公司,0.5,辽宁,4,二手房,1999
沙河口区黄河路535号,大连,大连城市建设集团有限公司,沙河口,20191007,38.91773777159567,121.60217159922856,79中金光小区,41,24908,无物业管理服务,-,辽宁,5,二手房,1982
开发区小孤山西里3栋-11号,大连,大连开建房地产开发有限公司,开发区,20191007,39.02715282297674,121.80682183666346,瑞仕尚城,57,11530,大连阿尔滨汇城物业服务有限公司,1.1,辽宁,6,二手房,2007
无门店信息,大连,大连顺迈房地产开发有限公司,沙河口,20191007,43.873634114640744,81.30301501416476,星海国宝,53,20557,长城物业集团股份有限大连分公司,3,辽宁,2,二手房,2000
金州区南棉路310号,大连,大连金连房地产开发有限公司,金州,20191007,39.09939229372624,121.72414976100345,金连领地,15,8011,街道办事处（居委会）代管物业,0.5,辽宁,2,二手房,1995
中山区杏林街66—5号,大连,嘉和房地产集团有限公司,中山,20191007,38.92440845067654,121.66285472444575,嘉和花样年华二期,66,22006,大连嘉和物业管理有限公司,2,辽宁,5,二手房,2005
开发区大开高吉里33栋6号,大连,无开发商,开发区,20191007,39.07355836059941,121.8280439450145,高吉里,34,7335,广宜物业有限公司,0.2,辽宁,3,二手房,1998
甘井子区哲林北园17-6号,大连,大连科宏房屋开发有限公司,甘井子,20191007,38.9600267109581,121.53876726228256,虹港新居,35,14356,大连空港物业管理有限公司,0.3,辽宁,6,二手房,1996
甘井子区山东路127-2号,大连,无开发商,甘井子,20191007,38.99065559549029,121.59126483545545,天水街,16,11501,街道办事处（居委会）代管物业,0.1,辽宁,1,二手房,1990
金州区站前街道盛滨花园B区13号楼2号公建,大连,大连和嘉房地产开发有限公司,金州,20191007,39.09609011892329,121.7335816409767,和嘉佳园,81,7194,街道办事处（居委会）代管物业,0.5,辽宁,3,二手房,2000
中山区碧浪园4号-3号,大连,大连万达房地产开发有限公司,中山,20191007,38.89147289460474,121.69329560326236,虎滩路,41,13116,大连虎滩置业物业管理有限公司,0.2,辽宁,1,二手房,1987
沙河口区星海广场B3区14-2号1层,大连,大连友谊合升房地产开发有限公司,沙河口,20191007,38.88693148294673,121.58735631267305,壹品星海公寓,38,18544,大连富丽华物业管理有限公司,2,辽宁,2,二手房,2000
甘井子区虹港路391号第五幢1单元1跃2层3号,大连,海城市新新置业有限公司,甘井子,20191007,38.96606635942528,121.53201387432493,商务学院,20,13737,亿达物业管理有限公司,0.5,辽宁,1,二手房,1995
沙河口区中山路417A-4号,大连,无开发商,沙河口,20191007,38.906939870156414,121.5941747326634,同泰街,15,12485,无物业管理服务,0.5,辽宁,4,二手房,1997
沙河口区黄河路535号,大连,大连建园房地产开发有限公司,沙河口,20191007,38.91773777159567,121.60217159922856,79中城市公元,50,28187,大连斌弘物业管理有限公司,2.6,辽宁,2,二手房,2008
甘井子区泉水B5区27-9,大连,大连运达房地产集团有限公司,甘井子,20191007,39.014808383172415,121.60978022983026,锦泉源B6区,20,14458,政治物业管理有限公司,0.5,辽宁,2,二手房,2010
沙河口区黄河路535号,大连,大连民兴房地产开发有限公司,沙河口,20191007,38.91773777159567,121.60217159922856,79中民兴花园二期,24,27003,大连衡德物业管理有限公司,1.2,辽宁,1,二手房,1990
沙河口区红凌路137号,大连,大连大实企业集团房屋开发有限公司,甘井子,20191007,38.922699288974506,121.54713601744747,泊林映山,35,12710,大连弘实物业管理有限公司,1.2,辽宁,3,二手房,2010
甘井子区山东路137号,大连,大连市大钢集团,甘井子,20191007,38.99129404608926,121.59172125999353,华南沃尔玛六和路,12,12825,街道办事处（居委会）代管物业,0.5,辽宁,0,二手房,1990
甘井子区汇仁街22号,大连,大连铁龙房地产开发有限公司,甘井子,20191007,38.99712640764999,121.58834420439493,动力院景一期汇仁南园,25,16040,大连铁龙安居物业管理有限公司,0.7,辽宁,1,二手房,2006
甘井子区金家街17-7号,大连,大连衡锐房屋开发有限公司,甘井子,20191007,38.97493697764367,121.60110987128529,温莎小镇,12,20362,大连长波物业管理有限公司,1.5,辽宁,0,二手房,2002
大连市甘井子区七贤路8-3号,大连,大连高新万达广场投资有限公司,高新园区,20191007,38.865466069033424,121.53968356444511,万达海公馆,41,32157,大连万达物业管理有限公司,4.5,辽宁,2,二手房,2012
甘井子区金北路17号,大连,五指山水墨雨林置业有限公司,甘井子,20191007,38.97553393692831,121.59969720502335,金二小学南,50,21030,无物业管理服务,-,辽宁,2,二手房,1975
高新园区敬贤街25-9,大连,大连东盛房地产开发有限公司,高新园区,20191007,38.86879447142154,121.53007349209936,东盛启城,27,17307,大连东盛物业管理有限公司,2.3,辽宁,2,二手房,2010
甘井子区鹏辉新世纪1幢1单元1-3号房屋（海口路99号）,大连,凯鹏,甘井子,20191007,38.96077365187575,121.60514653016222,鹏辉新世纪三期北园,17,17040,大连鹏辉物业管理有限公司,0.6,辽宁,3,二手房,2003
大连市甘井子区融田西园52-11,大连,大连圣安房地产开发有限公司,甘井子,20191007,38.98557650073852,121.45981818596117,亿达春田晴湾,73,17141,亿达物业管理有限公司,2.2,辽宁,10,二手房,2010
中山区杏林街66—5号,大连,大连万达房地产开发有限公司,中山,20191007,38.92440845067654,121.66285472444575,明泽苑,11,28479,大连万达物业管理有限公司,1.8,辽宁,0,二手房,1998
高新园区海苑街36号1单元2号公建,大连,大连友谊合升房地产开发有限公司,高新园区,20191007,20.06392317589085,110.32302599457326,壹品漫谷,44,18182,大连富丽华物业管理有限公司,1,辽宁,2,二手房,2006
沙河口区恒利园42号-8,大连,大连三寰房屋开发有限公司,沙河口,20191007,38.93357562498634,121.57914091532649,三寰芳草园,27,16624,大连空港物业管理有限公司,0.4,辽宁,3,二手房,2002
经济技术开发区城润万家4-5号公建,大连,志广房地产有限公司,开发区,20191007,39.05525210261778,121.74865634199398,恒安花园,27,9445,大连志广物业管理有限责任公司,0.9,辽宁,0,二手房,2002
无门店信息,大连,大连航逸房地产开发有限公司,甘井子,20191007,43.873634114640744,81.30301501416476,中航华府,64,15964,中航物业管理有限公司大连分公司,2.5,辽宁,7,二手房,2014
开发区高新里6栋-8,大连,无开发商,开发区,20191007,39.0710895068195,121.82860134358343,高志里小区,45,6951,街道办事处（居委会）代管物业,0.3,辽宁,1,二手房,1993
西岗区长春路334号,大连,无开发商,西岗,20191007,38.89807766522607,121.63221082858387,新石道街,9,11597,大连白云物业管理有限公司,0.5,辽宁,1,二手房,1990
无门店信息,大连,大连金宸集团,金州,20191007,43.873634114640744,81.30301501416476,东才苑,28,7265,街道办事处（居委会）代管物业,0.4,辽宁,3,二手房,1998
开发区黄海西路201号107公建,大连,无开发商,开发区,20191007,39.04942604506828,121.80126318235419,岗松里小区,100,7359,大连经济技术开发区海青物业有限公司,0.5,辽宁,7,二手房,1989
沙河口区富国街34-3,大连,无开发商,沙河口,20191007,38.90160386349964,121.58915317342193,星海街,39,12058,无物业管理服务,-,辽宁,5,二手房,1989
大连市金州新区中长街道碧海尚城5-4号1-2层,大连,大连集品置业有限公司,金州,20191007,39.1001690968934,121.73061017121415,东林世家,43,14936,大连百安物业管理有限公司,1,辽宁,5,二手房,2000
沙河口区西南路161号,大连,无开发商,沙河口,20191007,38.89269676588945,121.56639953951542,西沟小区,45,12789,无物业管理服务,-,辽宁,0,二手房,1980
无门店信息,大连,大连金宸集团,金州,20191007,43.873634114640744,81.30301501416476,金宸联郡,45,8768,大连四通物业管理有限公司,1.4,辽宁,4,二手房,2010
中山区北斗街53号1层1号,大连,无开发商,中山,20191007,38.92727355733075,121.67002970974048,丹东街（二七商圈）,11,13886,无物业管理服务,-,辽宁,0,二手房,1993
甘井子区华北路花锦园28号23-3-1-2建筑物,大连,大连东特房地产开发有限公司,甘井子,20191007,38.951631439880536,121.57401414205216,东特金星公馆,44,16469,大连东特祥禾物业管理有限公司,1.2,辽宁,3,二手房,2009
沙河口区民权街324号,大连,大连天河房地产开发集团有限公司,沙河口,20191007,38.92064616208148,121.59777611850379,民权小区,49,13468,大连福港物业管理有限公司,0.2,辽宁,0,二手房,1990
甘井子区促进路30号2-1-1,大连,大连天河房地产开发集团有限公司,甘井子,20191007,38.954133128707575,121.58355746311207,促进路,11,12606,无物业管理服务,0.1,辽宁,3,二手房,1982
甘井子区佳林北园2-7号,大连,大连耕海置业有限公司,甘井子,20191007,38.96331610956877,121.52802328494242,国民院子,38,22572,大连耕海物业管理有限公司,2,辽宁,3,二手房,2012
中山区爱华街13号,大连,方大集团,中山,20191007,38.92541607518685,121.6535728031028,九中杏林街,8,41219,无物业管理服务,0.6,辽宁,0,二手房,1995
大连经济技术开发区同和里7栋-9号,大连,开发区城建局,开发区,20191007,39.048933782970316,121.78832105502437,东山花园,18,14775,大连戎旅物业管理有限公司,0.8,辽宁,0,二手房,2005
西岗区黄河路90号公建部分,大连,大连鼎森房地产开发有限公司,西岗,20191007,38.92234529815978,121.62829331825485,金宸国际,50,16556,英联华（香港）物业管理顾问有限公司,2.2,辽宁,6,二手房,2004
甘井子区华北路花锦园28号23-3-1-2建筑物,大连,大连东特房地产开发有限公司,甘井子,20191007,38.951631439880536,121.57401414205216,东特星中环,31,16519,大连东特祥禾物业管理有限公司,0.8,辽宁,2,二手房,2003
甘井子区华东路33-5号,大连,大连凯祥房地产开发有限公司,甘井子,20191007,38.97497080220593,121.59479866243332,商城花园,22,13286,大连凯祥物业管理有限公司,0.5,辽宁,2,二手房,2000
开发区金源南里14栋-11号一层部分，14号-12号一层部分,大连,商金源地产,开发区,20191007,39.06148862675436,121.82503941311765,金苑新居,17,8400,嘉兴物业管理有限公司,0.3,辽宁,0,二手房,1998
沙河口区连山街44-2号半地下一层（地上一层部分）,大连,大连宏都房地产开发有限公司,沙河口,20191007,38.89286087451922,121.57324785151994,宏都筑景Ⅰ期,47,23298,大连东方百瑞物业管理有限公司,1.4,辽宁,1,二手房,2008
西岗区绕山路31号公建一层东侧,大连,远洋地产有限公司,沙河口,20191007,38.90257514466717,121.61412736644739,莲花小区,32,12085,无物业管理服务,-,辽宁,1,二手房,1995
西岗区康平街2号（5号楼3-1-3号）,大连,无开发商,西岗,20191007,38.91044414697888,121.61980769264477,教师大厦,18,13022,大连教师大厦物业管理有限公司,0.2,辽宁,6,二手房,1995
沙河口区五四路207-1-9号,大连,无开发商,沙河口,20191007,38.913544290955585,121.59450670056631,五四路,11,12214,无物业管理服务,-,辽宁,0,二手房,1963
沙河口区连山街44-2号半地下一层（地上一层部分）,大连,大连远东房屋开发有限公司,沙河口,20191007,38.89286087451922,121.57324785151994,星海大第,11,23300,大连斌宏物业管理有限公司,1,辽宁,2,二手房,2005
金州区凤翔路220号,大连,大连德泰控股有限公司,金州,20191007,39.08410553937731,121.77700083356399,德泰岭秀逸城,61,11494,大连德泰物业管理有限公司,1.9,辽宁,2,二手房,2007
开发区安盛里5栋-4,大连,大连万晟房地产开发有限公司,开发区,20191007,23.112106678834838,113.27801046214822,宜家大院,21,8911,大连万晟置业有限公司,0.8,辽宁,3,二手房,2001
沙河口区连山街44-2号半地下一层（地上一层部分）,大连,大连宏都房地产开发有限公司,沙河口,20191007,38.89286087451922,121.57324785151994,宏都筑景Ⅱ期,6,26624,东方百瑞物业有限公司,1.8,辽宁,1,二手房,2010
中山区高尚路28-1号,大连,无开发商,中山,20191007,38.892673425111305,121.67148833870213,高家沟,24,10561,大连景山物业管理有限公司,0.5,辽宁,2,二手房,1992
金州区金润小区B区861单元102,大连,大连新型房地产开发有限公司,金州,20191007,39.103153105120306,121.74665495055505,糖果小区,69,8863,大连新兴物业管理有限公司,0.5,辽宁,9,二手房,2000
开发区松苑街23号,大连,大连西太平洋家属楼,开发区,20191007,22.52087435807652,113.40156105086167,松平里,13,13353,街道办事处（居委会）代管物业,0.5,辽宁,2,二手房,1995
西岗区八一路102号,大连,无开发商,西岗,20191007,38.92047268927287,121.61862512554262,杏环街,19,10043,无物业管理服务,-,辽宁,2,二手房,1990
西岗区新田巷27号1-2,大连,无开发商,西岗,20191007,38.893215932589385,121.64103065169111,新河街,15,11313,无物业管理服务,-,辽宁,3,二手房,1990
金州区先进街道陶然居公建2-2号1层,大连,大连金信集团房地产有限公司,金州,20191007,39.08283372756215,121.76170982507143,金信陶然居,79,9732,北京瑞思特物业管理有限公司,0.5,辽宁,5,二手房,1995
金州新区八一路金都嘉园1号楼1号公建,大连,大连市金州区房屋开发公司,金州,20191007,39.05525210261778,121.74865634199398,古城丁区,158,7381,街道办事处（居委会）代管物业,0.1,辽宁,1,二手房,1993
金州区南棉路310号,大连,无开发商,金州,20191007,39.09939229372624,121.72414976100345,胜利小区,103,8239,无物业管理服务,0.5,辽宁,1,二手房,1986
沙河口区五一路110-4号,大连,大连亿达房地产股份有限公司,沙河口,20191007,38.913544290955585,121.59450670056631,兰亭山水,44,21103,亿达物业管理有限公司,0.6,辽宁,2,二手房,2002
无门店信息,大连,大连招源房地产有限公司,甘井子,20191007,43.873634114640744,81.30301501416476,招商海德公园,34,18449,招商局物业管理有限公司大连分公司,2.6,辽宁,3,二手房,2016
甘井子区泉水P3区35-2号,大连,大理耀鹏房地产开发有限责任公司,甘井子,20191007,39.01530162252779,121.63546089163083,泉水P1区,25,11317,大连新跃物业公司,1.2,辽宁,6,二手房,2002
大连市沙河口区西南路875号1层21号,大连,无开发商,沙河口,20191007,38.94485969061231,121.58418648447764,春风巷,8,11400,街道办事处（居委会）代管物业,0.5,辽宁,1,二手房,1992
开发区黄海西路201号107公建,大连,大连开建房地产开发有限公司,开发区,20191007,39.04942604506828,121.80126318235419,芙蓉花园(开发区),47,7049,嘉兴物业管理有限公司,0.4,辽宁,0,二手房,2001
甘井子区汇仁街22号,大连,中铁建（大连）置业有限公司,甘井子,20191007,38.99712640764999,121.58834420439493,动力院景二期汇善南园,30,16040,大连铁龙安居物业管理有限公司,0.7,辽宁,2,二手房,2007
甘井子区华北路花锦园28号23-3-1-2建筑物,大连,大连东特房地产开发有限公司,沙河口,20191007,38.951631439880536,121.57401414205216,东特新居,20,13052,大连东特祥禾物业管理有限公司,0.5,辽宁,1,二手房,1998
沙河口区成仁街91号,大连,无开发商,沙河口,20191007,38.91539947107844,121.59585638842556,西安路公寓,16,13943,大连协和物业管理有限公司,0.5,辽宁,0,二手房,1997
沙河口区黄浦路18号—5号公建,大连,无开发商,高新园区,20191007,38.8771225143479,121.54427480390662,东电小区,17,14074,大连凌电物业管理有限公司,0.3,辽宁,2,二手房,1992
金州区站前街道盛滨花园B区13号楼2号公建,大连,大连阿尔滨集团房地产开发有限公司,金州,20191007,39.09609011892329,121.7335816409767,现代雅筑,57,6916,大连阿尔滨集团物业管理有限公司,0.5,辽宁,0,二手房,2003
中山区益民街16号1层1号,大连,无开发商,中山,20191007,38.93092761298906,121.66470740073377,兴盛里（三八广场）,14,13489,无物业管理服务,-,辽宁,1,二手房,1992
无门店信息,大连,大连新型企业集团,甘井子,20191007,43.873634114640744,81.30301501416476,南岭花园,37,12558,大连新型物业管理有限公司,0.4,辽宁,1,二手房,2006
中山区华乐街71号公建,大连,首开集团,中山,20191007,38.923187679200566,121.6843197903016,首开铂郡,9,25583,北京燕侨物业管理有限公司大连分公司,3.8,辽宁,0,二手房,2016
金州区金润花园B区47号1单元1层1号2号,大连,大连金都地产开发有限公司,金州,20191007,39.10434716151341,121.74517862677146,观山悦,38,9917,街道办事处（居委会）代管物业,1.4,辽宁,3,二手房,2000
中山区高尚路28-1号,大连,无开发商,中山,20191007,38.892673425111305,121.67148833870213,高寿街,22,10366,无物业管理服务,-,辽宁,0,二手房,1991
甘井子区虹港路16号楼1层公建,大连,沈阳军区后勤部,甘井子,20191007,38.9645939333502,121.553851837474,金寓花园二期,9,18489,大连瑞祥物业管理有限公司,1,辽宁,0,二手房,2007
甘井子区柳树南街45-10号,大连,大连顺达房屋开发有限公司,甘井子,20191007,38.92567666296449,121.4841330254372,顺达温泉花园三期,40,11960,大连顺达物业服务有限公司,0.6,辽宁,2,二手房,2005
甘井子区西南路979-7号公建,大连,1,甘井子,20191007,38.96275592929325,121.5958698791777,八十中周家街,80,16953,街道办事处（居委会）代管物业,0.2,辽宁,3,二手房,1980
沙河口区黄埔路427号,大连,大连名仕房地产开发有限公司,高新园区,20191007,38.913544290955585,121.59450670056631,名仕乐居,16,19854,大连万祥物业管理有限公司,1.3,辽宁,1,二手房,2007
甘井子区锦城东园1号3单元1层2号,大连,大连福田房屋开发有限公司,甘井子,20191007,38.952805477462775,121.55656194973994,福典人家,28,19954,大连福田房屋物业管理有限公司,0.6,辽宁,0,二手房,2006
甘井子区促进路30号2-1-1,大连,大连大骏达房地产开发有限公司,甘井子,20191007,38.954133128707575,121.58355746311207,骏达绅士花园,3,18300,大连骏达物业管理有限公司,1.7,辽宁,1,二手房,2012
金州区站前街道盛滨花园B区13号楼2号公建,大连,大连阿尔滨集团房地产开发有限公司,金州,20191007,39.09609011892329,121.7335816409767,盛滨花园B区,57,7854,大连阿尔滨集团物业管理有限公司,0.4,辽宁,1,二手房,2000
开发区黄海西路201号107公建,大连,开发区城建局,开发区,20191007,39.04942604506828,121.80126318235419,东阁里,52,6974,大连经济技术开发区海青物业有限公司,0.4,辽宁,3,二手房,1993
中山区高尚路28-1号,大连,无开发商,中山,20191007,38.892673425111305,121.67148833870213,高尚路,22,10734,无物业管理服务,0.5,辽宁,2,二手房,1993
西岗区绕山路31号公建一层东侧,大连,大连泰安房地产开发有限公司,西岗,20191007,38.90257514466717,121.61412736644739,同香山庄,20,15838,同香物业管理有限公司,0.5,辽宁,1,二手房,1989
开发区黄海西路201号107公建,大连,开发区城建局,开发区,20191007,39.04942604506828,121.80126318235419,开.东山小区,57,7582,大连友谊物业服务有限公司,0.5,辽宁,0,二手房,1990
西岗区八一路196号1-3,大连,无开发商,西岗,20191007,38.92047268927287,121.61862512554262,靠山巷,15,10691,无物业管理服务,-,辽宁,1,二手房,1990
中山区共建巷61号,大连,中信集团大连中信房地产开发公司,中山,20191007,38.91828093658718,121.66259221532148,尚品南山,18,25038,大连中信物业管理有限公司,1.5,辽宁,0,二手房,2007
沙河口区红凌路137号,大连,大连大实企业集团房屋开发有限公司,甘井子,20191007,38.922699288974506,121.54713601744747,泊林阳光B区,12,14256,大连弘实物业管理有限公司,0.6,辽宁,1,二手房,2007
大连市甘井子区七贤路8-3号,大连,大连世诚房地产开发有限公司,高新园区,20191007,38.865466069033424,121.53968356444511,恒大御景湾,54,23591,金碧物业有限公司大连分公司,2.9,辽宁,1,二手房,2011
金州新区先进街道五一路350-1号1-2层,大连,哈尔滨聚鑫投资有限公司,金州,20191007,39.078667146419825,121.77094423323935,聚鑫小区三期,53,7220,大连新生活物业管理有限公司,0.5,辽宁,12,二手房,1999
沙河口区绿波路34号楼5单元1楼3号,大连,"大连汇戎开发有限公司,大连东北房屋开发有限公司",沙河口,20191007,38.940473883711306,121.57312402324945,帝欧花园,42,18382,大连绿波建设发展有限公司,0.6,辽宁,1,二手房,2003
甘井子区榆水街6-9号公建,大连,大连弘润置业有限公司,甘井子,20191007,38.97957540063716,121.52458567456938,万科城市之光,77,21640,大连万科物业服务有限公司,2.8,辽宁,4,二手房,2015
沙河口区锦江园30号1层公建,大连,大连市经济适用房建设发展中心,沙河口,20191007,38.949985113183935,121.56560955976859,锦绣园,35,14233,大连锦绣物业管理有限公司,0.5,辽宁,1,二手房,1999
金州新区八一路金都嘉园1号楼1号公建,大连,大连金园房地产开发有限公司,金州,20191007,39.05525210261778,121.74865634199398,金园名城,17,7638,街道办事处（居委会）代管物业,0.5,辽宁,4,二手房,1999
中山区金城街26号一楼,大连,无开发商,中山,20191007,38.922282529515634,121.65214466263014,九中洛川街,22,34988,无物业管理服务,-,辽宁,1,二手房,1990
大连市沙河口区黄河路729号,大连,大连盛佳房地产开发有限公司,沙河口,20191007,38.91710565765228,121.58954758972729,城市佳园,7,20228,街道办事处（居委会）代管物业,1,辽宁,1,二手房,2004
开发区杏树里10栋-14,大连,大连华宇房地产开发有限公司,开发区,20191007,39.08113818354046,121.78505742127606,华宇凤凰城,81,8472,大连华宇物业管理有限公司,0.5,辽宁,4,二手房,2006
甘井子区金家街17-7号,大连,老房子地产,甘井子,20191007,38.97493697764367,121.60110987128529,金安街,18,20229,无物业管理服务,-,辽宁,0,二手房,1960
金州区站前街道盛滨花园B区13号楼2号公建,大连,大连连铁房地产开发有限公司,金州,20191007,39.09609011892329,121.7335816409767,金舍嘉苑,24,8456,街道办事处（居委会）代管物业,0.5,辽宁,1,二手房,2005
沙河口区星海广场B3区20—3号,大连,大连华奇置业有限公司,沙河口,20191007,38.88821813888643,121.58674530143466,星海旺座,22,14815,大连佳和物业管理有限公司,2.5,辽宁,1,二手房,2004
沙河口区黄河路883号,大连,无开发商,沙河口,20191007,38.919826721475204,121.57749657966676,沙区医院,30,13003,无物业管理服务,-,辽宁,3,二手房,1990
甘井子区甘井子街3号公建,大连,无开发商,甘井子,20191007,38.982086281836246,121.63426694995971,新街,14,9998,无物业管理服务,-,辽宁,3,二手房,1976
西岗区胜利路33号,大连,省一建公司,西岗,20191007,38.91309771954841,121.62500886627636,34中兴民街,16,26025,无物业管理服务,-,辽宁,2,二手房,1970
大连市金州区友谊街道南金华城25号1-2层1号,大连,无开发商,金州,20191007,39.128677228885614,121.71356109978767,金园新村,35,7465,大连金州友谊物业公司,0.5,辽宁,2,二手房,2000
中山区民建街10号1单元1号,大连,无开发商,中山,20191007,38.925444479476894,121.66915026954452,39中学士街,39,19588,无物业管理服务,-,辽宁,0,二手房,1995
无门店信息,大连,大连金地房地产开发有限公司,金州,20191007,43.873634114640744,81.30301501416476,金地新里程,56,7114,大连金铭物业管理有限公司,0.8,辽宁,5,二手房,2008
中山区中南路店212号门头房,大连,峰尚房屋开发有限公司,中山,20191007,38.91149759691359,121.67700561077149,峰尚中南,22,16077,大连银洲物业管理有限公司,2.2,辽宁,1,二手房,2010
沙河口区联合路133号,大连,大连新型房地产开发有限公司,沙河口,20191007,38.91608561262676,121.60480987310456,21中天兴花园一期,42,20060,大连万泰物业管理有限公司,0.5,辽宁,1,二手房,1996
金州区光明街道育才街42-6号1-2层,大连,大连金华房地产开发有限公司,金州,20191007,39.109080894078986,121.7182584929096,金华小区一期,80,7598,大连金华兴物业有限公司,0.4,辽宁,3,二手房,1995
无门店信息,大连,大连龙湖西城置业有限公司,甘井子,20191007,43.873634114640744,81.30301501416476,龙湖滟澜山,76,19476,大连龙湖物业服务有限公司,6.6,辽宁,9,二手房,1999
沙河口区富国街14号1-1-2,大连,无开发商,沙河口,20191007,38.90122538432287,121.59040728337153,星云街,16,11386,无物业管理服务,-,辽宁,2,二手房,1990
甘井子辛吉街150号-7号,大连,大连新星房地产开发有限公司,甘井子,20191007,38.96269175537377,121.52106381995755,新星绿城一期,47,12615,大连生生物业管理有限公司,0.5,辽宁,4,二手房,2002
大连市甘井子区辛如街35号1单元1层1号,大连,大连新星房地产开发有限公司,甘井子,20191007,38.96862607066881,121.52294869064194,苹果公寓（住宅）,47,11253,大连生生物业有限公司,0.8,辽宁,2,二手房,2007
中山区三八广场5号,大连,大连新型房地产开发总公司,中山,20191007,38.92540000551715,121.6642911149562,二七公寓,14,19763,大连新型物业管理有限公司,0.8,辽宁,0,二手房,1999
西岗区香炉礁24号1-1,大连,大连大骏达房地产开发有限公司,西岗,20191007,38.92047268927287,121.61862512554262,骏达阅阳楼,16,12347,街道办事处（居委会）代管物业,1.2,辽宁,2,二手房,2000
开发区红梅小区19栋-2-1-1号,大连,大连东特房地产开发有限公司,开发区,20191007,29.906498897603264,121.5913630631805,东特欣苑,7,14222,大连经济技术开发区聚盛达物业管理有限公司,0.8,辽宁,0,二手房,2002
沙河口区星海广场B3区14-2号1层,大连,大连万达房地产开发有限公司,沙河口,20191007,38.88693148294673,121.58735631267305,大连明珠,74,26728,大连万象美物业管理有限公司,3.5,辽宁,2,二手房,2008
中山区三八广场5号,大连,大连华丽山庄有限公司,中山,20191007,38.92540000551715,121.6642911149562,华丽山庄,16,18667,大连香森物业管理有限公司,1.5,辽宁,0,二手房,1999
大连市甘井子区辛如街35号1单元1层1号,大连,大连新星房地产开发有限公司,甘井子,20191007,38.96862607066881,121.52294869064194,新星绿城六期,41,14934,大连生生物业管理有限公司,1,辽宁,2,二手房,2006
开发区景和园1-7,大连,开发区城建局,开发区,20191007,40.11590553486206,116.40732462645829,小孤山东里,89,6481,大连广谊物业管理有限公司,0.4,辽宁,7,二手房,1996
甘井子区华东路33-5号,大连,上大阳光,甘井子,20191007,38.97497080220593,121.59479866243332,松江路（80中）,28,13226,大连新华物业管理有限公司,-,辽宁,2,二手房,1993
大连市金州区站前街道生辉第一城14-3号1-2层,大连,大连新天润企业集团有限公司,开发区,20191007,39.0569681786798,121.74773530665969,凯旋国际,124,7119,第一东方(大连)物业服务有限公司,2.3,辽宁,3,二手房,2008
中山区同心街72号1楼公建,大连,大连振屹房屋开发有限公司,中山,20191007,38.91979245940674,121.64769198230202,城市广场,28,15271,大连振屹物业有限公司,3.5,辽宁,5,二手房,2004
大连市沙河口区文萃街1号1-2-2；大连市沙河口区由家五小区五号楼1单元2层1,大连,无开发商,高新园区,20191007,38.88596852074166,121.54389553303217,老年公寓,10,19058,无物业管理服务,0.2,辽宁,0,二手房,1995
金州区五一路先进街道 陶然居2-2,大连,大连金开房地产开发有限公司,金州,20191007,39.0830973395057,121.7630113583655,华邦俪城,106,10282,大连华邦物业有限公司,1.3,辽宁,6,二手房,2010
莲花山路89-3号,大连,大连大明房地产控股有限公司,沙河口,20191007,38.902848261803356,121.6041720815823,万科半山半海,21,25489,大连万科物业服务有限公司,3.9,辽宁,1,二手房,2016
金州区凤翔路220号,大连,大连德泰控股有限公司,金州,20191007,39.08410553937731,121.77700083356399,德泰岭秀逸城B区,82,10940,大连德泰物业管理有限公司,1.9,辽宁,2,二手房,2008
大连市甘井子区燕南园50号,大连,大连鑫园房屋开发有限公司,高新园区,20191007,38.90172480153224,121.5363466289672,新新园一期,35,14960,大连理工物业管理中心,0.3,辽宁,1,二手房,2000
西岗区长春路334号,大连,无开发商,西岗,20191007,38.89807766522607,121.63221082858387,纪念街(石道街商圈),11,11299,无物业管理服务,-,辽宁,1,二手房,1980
沙河口区黄浦路18号—5号公建,大连,大连高新技术产业园区建设开发总公司,高新园区,20191007,38.8771225143479,121.54427480390662,学府1+1公寓,9,16196,街道办事处（居委会）代管物业,0.6,辽宁,3,二手房,2005
无门店信息,大连,大连东方置业公司,甘井子,20191007,43.873634114640744,81.30301501416476,盐岛湖,103,10924,无物业管理服务,0.2,辽宁,3,二手房,2000
沙河口区华北路448号楼1-4公建,大连,无开发商,甘井子,20191007,38.903224944733765,121.56809734950556,周山街,18,16314,街道办事处（居委会）代管物业,0.5,辽宁,3,二手房,1985
高新园区敬贤街25-9,大连,中海东丰地产（大连）有限公司,高新园区,20191007,38.86879447142154,121.53007349209936,中海紫御观邸一期,10,25567,大连中海物业管理有限公司,2.6,辽宁,4,二手房,2010
甘井子区华北路花锦园28号23-3-1-2建筑物,大连,大连东特房地产开发有限公司,甘井子,20191007,38.951631439880536,121.57401414205216,星加坡花园,35,18059,大连东特祥禾物业管理有限公司,0.6,辽宁,1,二手房,2003
沙河口区华北路404号,大连,大连元泰房屋开发有限公司,沙河口,20191007,38.8862815932937,121.59082948696123,福居家园,6,15875,渤海吉祥物业管理有限公司,0.5,辽宁,0,二手房,2003
沙河口区黑石礁街3号1层1-1号,大连,大连建隆置业有限公司,沙河口,20191007,38.880058010307856,121.56313403908827,富丽庭,34,19630,达波尔酒店物业管理（大连）有限公司,2.4,辽宁,2,二手房,2006
开发区小孤山西里3栋-11号,大连,大连九龙汇房地产开发有限公司,开发区,20191007,39.02715282297674,121.80682183666346,九龙汇,66,9229,大连宏亮红物业管理有限公司,1.9,辽宁,1,二手房,2007
甘井子金地艺境博艺西园2-1号,大连,大连丰达房地产开发有限公司,甘井子,20191007,39.04402110608829,121.665484498555,益丰乾城,24,13628,大连逸佳物业管理有限公司,1.6,辽宁,0,二手房,2012
沙河口区中山路417A-4号,大连,无开发商,沙河口,20191007,38.906939870156414,121.5941747326634,太原街,8,13171,无物业管理服务,-,辽宁,0,二手房,1959
开发区鹏程家园66#-6、66#-7公建,大连,大连元新房地产开发有限公司,开发区,20191007,39.03523987258615,121.80826248065051,华夏海景,38,9937,大连元新物业管理有限公司,1,辽宁,0,二手房,2003
金州区南棉路310号,大连,大连金连房地产开发有限公司,金州,20191007,39.09939229372624,121.72414976100345,金连福地,32,8349,街道办事处（居委会）代管物业,0.5,辽宁,3,二手房,2001
西岗区黄河路90号公建部分,大连,大连民兴房地产开发有限公司,西岗,20191007,38.92234529815978,121.62829331825485,前城国际一期,26,24013,大连前城花园物业管理有限公司,1,辽宁,0,二手房,2003
甘井子区泉水B2区19-1号,大连,北方沿海房地产开发（大连）有限公司,甘井子,20191007,39.0101309886317,121.60812584213187,沿海鉴筑,23,16661,美佳物业管理（深圳）有限公司大连分公司,1.8,辽宁,0,二手房,2010
沙河口区民权街324号,大连,大连城市建设集团有限公司,沙河口,20191007,38.92064616208148,121.59777611850379,天兴新家园,20,30242,大连天兴物业管理有限公司,0.5,辽宁,1,二手房,1999
甘井子区泉水P3区35-2号,大连,大连鑫成置业有限公司,甘井子,20191007,39.01530162252779,121.63546089163083,欧尚广场,44,17358,大连宏华物业服务有限公司,1.5,辽宁,4,二手房,2009
西岗区八一路102号,大连,无开发商,西岗,20191007,38.92047268927287,121.61862512554262,鸣鹤西巷,10,12049,无物业管理服务,-,辽宁,1,二手房,1995
中山区杏林街66—5号,大连,嘉和房地产集团有限公司,中山,20191007,38.92440845067654,121.66285472444575,嘉和花样年华三期,69,23978,大连嘉和物业管理有限公司,3.5,辽宁,1,二手房,2002
无门店信息,大连,大连世茂嘉年华置业有限公司,金州,20191007,43.873634114640744,81.30301501416476,世茂御龙海湾,338,11225,经纬物业(中国)有限公司,2,辽宁,4,二手房,2010
大连经济技术开发区同和里7栋-9号,大连,无开发商,开发区,20191007,39.048933782970316,121.78832105502437,山水花园小区,5,13207,大连经济技术开发区白石物业管理有限公司,0.5,辽宁,0,二手房,2000
金州区同济路44号,大连,大连金世纪房地产经纪有限公司,金州,20191007,39.10476859984152,121.71234684495865,教师公寓,12,9304,大连恒天物业管理公司,0.8,辽宁,1,二手房,2007
沙河口区长江路738号,大连,大连城市建设集团有限公司,沙河口,20191007,38.913544290955585,121.59450670056631,21中广电中心,23,18872,无物业管理服务,-,辽宁,1,二手房,1990
甘井子区华东路22号公建,大连,无开发商,甘井子,20191007,38.97736184953593,121.5935814234334,华东路（金三角商圈）,10,11914,无物业管理服务,0.5,辽宁,1,二手房,1988
沙河口区星海广场B3区20—3号,大连,无开发商,沙河口,20191007,38.88821813888643,121.58674530143466,星海二街,2,14035,街道办事处（居委会）代管物业,0.5,辽宁,0,二手房,1976
中山区虎滩路176号4-1-2,大连,大连三寰房地产开发有限公司,中山,20191007,38.890884710033156,121.69257379232747,碧涛北园,30,12031,大连虎滩置业物业管理有限公司,0.2,辽宁,2,二手房,1993
沙河口区南沙街36号台二2号1-1-37,大连,大连市中联房地产开发有限公司,沙河口,20191007,38.90741410359388,121.57685699961822,健龙苑,42,22659,大连正源物业服务有限公司,0.5,辽宁,0,二手房,2000
无门店信息,大连,大连亿通置业顾问有限公司,旅顺口,20191007,43.873634114640744,81.30301501416476,翠岫联芳,57,5007,大连亿升通物业管理有限公司,0.9,辽宁,4,二手房,2000
中山区武昌街武昌公寓6号公建,大连,大连海事大学,中山,20191007,38.912280913445784,121.64921130527547,南山西花厅,5,11773,暂无信息,1,辽宁,0,二手房,2002
甘井子区西南路979-7号公建,大连,大连圣元房地产开发有限公司,甘井子,20191007,38.96275592929325,121.5958698791777,亿达梧桐路,21,22055,亿达物业管理有限公司,1.5,辽宁,1,二手房,2010
沙河口区西南路40号楼,大连,亿达房地产开发有限公司,沙河口,20191007,38.94155650404125,121.5861259059117,星浦庄园,30,12801,大连香都物业管理有限公司,0.5,辽宁,1,二手房,1996
无门店信息,大连,大连众仕房地产开发有限公司,开发区,20191007,43.873634114640744,81.30301501416476,山河御景,28,8340,大连山河物业管理有限公司,1.5,辽宁,3,二手房,2010
沙河口区西南路358号1—2号,大连,大连东兴置业有限公司,沙河口,20191007,38.90839654326566,121.56908246905662,西山园中园,37,21798,大连东昌物业管理有限公司,1.2,辽宁,3,二手房,2007
大连市甘井子区椒房街24号楼2-104链家地产,大连,中铁建（大连）置业有限公司,甘井子,20191007,38.985363789837166,121.61034055597686,青秀蓝湾一期,21,21137,中国铁建地产集团物业公司,1.5,辽宁,1,二手房,2015
开发区松苑街23号,大连,大连天安房地产开发有限公司,开发区,20191007,22.52087435807652,113.40156105086167,天安海景花园,22,14057,大连港力物业管理有限公司,1.2,辽宁,2,二手房,1987
沙河口区黄河路535号,大连,大连利源房屋开发有限公司,沙河口,20191007,38.91773777159567,121.60217159922856,79中万岁公寓,22,18081,大连大众物业管理有限公司,0.8,辽宁,1,二手房,1997
甘井子区西南路950—1号1层1号,大连,上大阳光,甘井子,20191007,38.96285151052702,121.5967875880867,八十中东海街,28,15800,街道办事处（居委会）代管物业,0.2,辽宁,4,二手房,1980
开发区兴城路29-81层,大连,中合北大荒（大连）置业有限公司,开发区,20191007,39.05020829677517,121.7578103751747,银帆国际,64,12789,大连中合物业管理有限公司,2,辽宁,2,二手房,2012
中山区中南路店212号门头房,大连,大连鸿业房地产开发有限公司,中山,20191007,38.91149759691359,121.67700561077149,中南风景,15,18729,大连自然物业管理有限公司,0.8,辽宁,0,二手房,2003
无门店信息,大连,大连安邦房地产开发有限公司,甘井子,20191007,43.873634114640744,81.30301501416476,西郊闲庭,24,12775,大连龙城物业服务有限公司,1,辽宁,3,二手房,2010
中山区武昌街武昌公寓6号公建,大连,大连海事大学,中山,20191007,38.912280913445784,121.64921130527547,新兴小区,6,9451,暂无信息,0.5,辽宁,1,二手房,2000
甘井子区华北路花锦园28号23-3-1-2建筑物,大连,无开发商,甘井子,20191007,38.951631439880536,121.57401414205216,迎客石广场（锦绣商圈）,10,14342,街道办事处（居委会）代管物业,0.5,辽宁,2,二手房,1990
沙河口区黄河路883号,大连,大连安邦房地产开发有限公司,沙河口,20191007,38.919826721475204,121.57749657966676,阳光小筑,9,19867,大连远洋基业物业管理有限公司,0.8,辽宁,1,二手房,2007
中山区武昌街武昌公寓6号公建,大连,无开发商,中山,20191007,38.912280913445784,121.64921130527547,绿山俪城,4,15710,无物业管理服务,0.6,辽宁,2,二手房,1995
沙河口区黄浦路18号—5号公建,大连,大连良运房地产开发有限公司,高新园区,20191007,38.8771225143479,121.54427480390662,翰林观海公寓,19,18065,大连良运物业管理有限公司,0.8,辽宁,4,二手房,2003
西岗区八一路196号1-3,大连,无开发商,西岗,20191007,38.92047268927287,121.61862512554262,新泉巷,16,9506,无物业管理服务,-,辽宁,3,二手房,1990
金州新区八一路金都嘉园1号楼1号公建,大连,无开发商,金州,20191007,39.05525210261778,121.74865634199398,古城丙区,73,7625,街道办事处（居委会）代管物业,0.5,辽宁,4,二手房,1997
无门店信息,大连,大连正中房地产开发有限公司,金州,20191007,43.873634114640744,81.30301501416476,德嘉与海,35,7908,大连本来物业管理有限公司,1.9,辽宁,2,二手房,2003
金州区拥政街道733号-8号1-2层,大连,大连千川房地产有限公司,金州,20191007,39.11275710643187,121.7224229797623,湖畔嘉园,15,10804,大连千川物业管理有限公司,1.2,辽宁,3,二手房,2005
开发区黄海西路201号107公建,大连,大连中信海港投资有限公司,开发区,20191007,39.04942604506828,121.80126318235419,润泽园小区,48,9722,大连新华物业管理有限公司,1.2,辽宁,1,二手房,2000
莲花山路89-3号,大连,无开发商,沙河口,20191007,38.902848261803356,121.6041720815823,新华街,17,13404,无物业管理服务,-,辽宁,0,二手房,1999
无门店信息,大连,大连新兴海韵房地产开发有限公司,开发区,20191007,43.873634114640744,81.30301501416476,山海家园,23,15686,大连经济技术开发区通讯物业有限公司,0.5,辽宁,2,二手房,2000
西岗区鞍山路65-5号,大连,大连中盛集团有限公司,沙河口,20191007,38.92701992456326,121.60258216167713,中盛家园,12,20950,大和中盛物业管理有限公司,1.5,辽宁,0,二手房,2002
高新园区硅谷假日小区25号楼地下室,大连,未知,高新园区,20191007,38.865995717263544,121.53771220335938,硅谷假日公寓,17,14848,大连斌弘物业管理有限公司,1.5,辽宁,2,二手房,2004
中山区中青街43号,大连,大连亿达房地产股份有限公司,中山,20191007,38.90150598268117,121.65711014604845,青云映山,18,26099,亿达物业管理有限公司,1.3,辽宁,1,二手房,2005
甘井子区汇达园26号,大连,大连红星美凯龙投资发展有限公司,甘井子,20191007,38.99704654604941,121.59758808878767,红星国际广场,156,14449,红星物业管理有限公司,1.5,辽宁,1,二手房,2012
沙河口区前程街46号4—1—2号,大连,大连欧兰房地产开发有限公司,甘井子,20191007,38.913544290955585,121.59450670056631,耕海山尚,24,17023,大连耕海物业管理有限公司,1.5,辽宁,4,二手房,2010
无门店信息,大连,大连宝泰华置业发展有限公司,金州,20191007,43.873634114640744,81.30301501416476,海天富地,30,11527,大连戴德梁行物业管理有限公司,1.6,辽宁,5,二手房,2012
大连市开发区裕民新苑42-7,大连,无开发商,开发区,20191007,39.070771020021674,121.85093056856022,澳东世纪,34,11541,街道办事处（居委会）代管物业,0.5,辽宁,3,二手房,2012
西岗区长春路334号,大连,大连天源房屋开发有限公司,西岗,20191007,38.89807766522607,121.63221082858387,天源山庄,37,9943,大连弘益达物业管理有限公司,0.2,辽宁,5,二手房,1996
甘井子区汇仁街19号12号楼1单元102室,大连,大连华南房地产开发有限公司,甘井子,20191007,38.99746297497168,121.58917714380617,名贵山庄华秋园,12,13918,大连弘益达物业管理有限公司,0.5,辽宁,0,二手房,2000
大连市沙河口区知邻街50号,大连,无开发商,沙河口,20191007,38.913544290955585,121.59450670056631,玉门街,17,11636,无物业管理服务,-,辽宁,3,二手房,1990
开发区红星海B区212-1,大连,远洋地产有限公司,开发区,20191007,39.01758113129015,121.82062304319655,红星海五期海麓,18,18233,大连远洋基业物业管理有限公司,2.2,辽宁,0,二手房,2012
中山区三八广场5号,大连,无开发商,中山,20191007,38.92540000551715,121.6642911149562,良运四季汇,65,22234,大连良运物业管理有限公司,0.8,辽宁,4,二手房,2008
沙河口区五四路207-1-9号,大连,无开发商,沙河口,20191007,38.913544290955585,121.59450670056631,拥政街,11,13893,无物业管理服务,-,辽宁,0,二手房,1994
中山区高尚路28-1号,大连,无开发商,中山,20191007,38.892673425111305,121.67148833870213,高洁巷,47,11400,街道办事处（居委会）代管物业,0.5,辽宁,3,二手房,1990
中山区益民街16号1层1号,大连,中海地产,中山,20191007,38.93092761298906,121.66470740073377,中海海港城,102,18549,中海物业,4.2,辽宁,4,二手房,2013
沙河口区五一路110-4号,大连,大连大重房屋开发有限公司,沙河口,20191007,38.913544290955585,121.59450670056631,星台花园一期,34,16766,大连大重房屋开发公司物业管理中心,-,辽宁,2,二手房,1995
无门店信息,大连,大连万林房地产开发有限公司,甘井子,20191007,43.873634114640744,81.30301501416476,我爱我家,24,14619,大连溪谷阳光物业服务有限公司,1.3,辽宁,4,二手房,2010
金州区凤翔路220号,大连,大连鸿玮置业有限公司,金州,20191007,39.08410553937731,121.77700083356399,鸿玮澜山一期,41,16178,大连鸿玮物业服务有限公司,1.8,辽宁,0,二手房,2009
无门店信息,大连,金辉地产,开发区,20191007,43.873634114640744,81.30301501416476,十里岗小区,67,6036,大连家欣物业管理有限公司,0.5,辽宁,2,二手房,1993
甘井子区红旗西路104-23,大连,大连安邦房地产开发有限公司,甘井子,20191007,38.94013845868325,121.5282577714263,水畔香谷,22,14943,大连万科绿色家园物业有限公司,1,辽宁,3,二手房,2006
沙河口区五四路207-1-9号,大连,无开发商,沙河口,20191007,38.913544290955585,121.59450670056631,成仁街,16,12256,无物业管理服务,-,辽宁,2,二手房,1992
大连市高新园区七贤中路63号,大连,大连乾丞房地产开发有限公司,高新园区,20191007,38.86053006357667,121.53273606963094,昊宇山海湾,21,22337,大连三和住邦物业管理有限公司,2.6,辽宁,2,二手房,2015
金州区光明街道育才街42-6号1-2层,大连,无开发商,金州,20191007,39.109080894078986,121.7182584929096,光明小区(金州),16,9000,无物业管理服务,0.5,辽宁,1,二手房,1989
开发区黄海西路201号107公建,大连,无开发商,开发区,20191007,39.04942604506828,121.80126318235419,倚平里,56,8289,街道办事处（居委会）代管物业,0.5,辽宁,0,二手房,2000
甘井子区华北路花锦园28号23-3-1-2建筑物,大连,无开发商,甘井子,20191007,38.951631439880536,121.57401414205216,华北路（甘）,30,15930,街道办事处（居委会）代管物业,0.1,辽宁,3,二手房,1980
中山区爱华街13号,大连,大连鸿霖房地产开发有限公司,中山,20191007,38.92541607518685,121.6535728031028,鸿霖大厦,81,9171,大连凯立宏物业管理有限公司,3.2,辽宁,3,二手房,1995
开发区正恒园1-16,大连,大连富华房地产有限公司,开发区,20191007,39.04823944344617,121.76165468797754,正泰园A区,18,12564,嘉泰物业管理有限公司,1.9,辽宁,1,二手房,2012
金州区凤翔路220号,大连,大连经济技术开发区银海开发置业有限公司,金州,20191007,39.08410553937731,121.77700083356399,达赫山庄,18,13184,街道办事处（居委会）代管物业,0.5,辽宁,2,二手房,2006
西岗区胜利路33号,大连,大连渤海红旗集团有限公司,西岗,20191007,38.91309771954841,121.62500886627636,金领公寓,4,25046,大连达冈物业管理有限公司,0.6,辽宁,0,二手房,2002
西岗区鞍山路65-5号,大连,大连恒利房屋开发有限公司,沙河口,20191007,38.92701992456326,121.60258216167713,中长花园,12,13441,大连金星物业管理中心,0.5,辽宁,0,二手房,2000
无门店信息,大连,大连鲁能置业有限公司,金州,20191007,43.873634114640744,81.30301501416476,鲁能胜地琴海园,126,10171,长城物业集团股份有限大连分公司,1.5,辽宁,0,二手房,1997
开发区润海园中区62-9,大连,大连金港集团有限公司,开发区,20191007,39.03913809369363,121.75878503934794,大连海湾城三期,31,12574,大连金广物业服务有限公司,3,辽宁,2,二手房,2015
中山区鲁迅路204号百盛新药特药商店一楼西侧部分,大连,无开发商,中山,20191007,38.9258993614899,121.6768880001226,学士街（寺儿沟商圈）,7,14498,无物业管理服务,1.2,辽宁,0,二手房,1994
沙河口区西南路358号1—2号,大连,大连中城房地产开发有限公司,沙河口,20191007,38.90839654326566,121.56908246905662,中城公园里,16,20369,渤海吉祥物业管理有限公司,1.8,辽宁,1,二手房,2008
甘井子区凌秀路37号-1链家地产,大连,大连恒瑞房地产开发有限公司,高新园区,20191007,38.883794285403965,121.52361997548515,大湖山语,27,20558,大连龙湖物业服务有限公司,2.8,辽宁,5,二手房,2010
无门店信息,大连,大连外贸集团开发公司,中山,20191007,43.873634114640744,81.30301501416476,山岭巷,15,13136,无物业管理服务,-,辽宁,0,二手房,1994
沙河口区西南路40号楼,大连,大连金通房屋开发有限公司,沙河口,20191007,38.94155650404125,121.5861259059117,海韵花园,8,13265,大连金通物业管理有限公司,0.4,辽宁,2,二手房,2000
甘井子区惠泽南园3-4号,大连,大连鑫河房地产开发有限公司,甘井子,20191007,38.93925504875288,121.52339009910513,绿色家园,15,12442,绿色家园物业管理有限公司,0.3,辽宁,0,二手房,2004
甘井子区金家街17-7号,大连,大连衡锐房屋开发有限公司,甘井子,20191007,38.97493697764367,121.60110987128529,衡逸园一期,30,19305,大连衡锐物业管理公司,1,辽宁,2,二手房,2008
金州区光明街道育才街42-6号1-2层,大连,无开发商,金州,20191007,39.109080894078986,121.7182584929096,味食小区,24,8804,大连大众物业管理有限公司,0.5,辽宁,2,二手房,1988
中山区同心街72号1楼公建,大连,无开发商,中山,20191007,38.91979245940674,121.64769198230202,自卫街（昆明街）,6,17639,无物业管理服务,-,辽宁,0,二手房,1991
中山区中南路店212号门头房,大连,无开发商,中山,20191007,38.91149759691359,121.67700561077149,转山小区,20,12933,大连怡和物业服务有限公司,0.3,辽宁,2,二手房,1989
金州区小平岛B组团4号楼3号商铺,大连,大连圣岛房地产开发有限公司,高新园区,20191007,39.05643299166072,121.78943558267059,小平岛揽海名寓,40,19885,大连凯尔富物业管理有限公司,1.7,辽宁,1,二手房,2010
甘井子区红旗西路104-23,大连,大连盛达实业总公司,甘井子,20191007,38.94013845868325,121.5282577714263,盛新园,33,12498,大连盛新物业管理有限公司,0.3,辽宁,4,二手房,2000
中山区华乐街107-115号,大连,大连复城置业有限公司,中山,20191007,38.92093821499401,121.68879267531725,星光耀广场,29,24882,上海复瑞物业管理有限公司大连分公司,4.8,辽宁,0,二手房,2015
中山区同心街72号1楼公建,大连,无开发商,中山,20191007,38.91979245940674,121.64769198230202,昆明街（五卅街）,4,14606,无物业管理服务,-,辽宁,1,二手房,1991
甘井子区泉水P3区35-2号,大连,大连市建设控股有限公司,甘井子,20191007,39.01530162252779,121.63546089163083,泉水P2区,13,11667,大连优豪斯物业服务有限公司,1.2,辽宁,7,二手房,2010
金州区先进街道渤海街1-4号1-2层,大连,无开发商,金州,20191007,39.09512910553563,121.74578812616167,金州东山路小区,30,6818,无物业管理服务,0.1,辽宁,3,二手房,1990
沙河口区鞍山路65号美都园7号1单元1层4号公建,大连,大连正源房地产开发有限公司,沙河口,20191007,38.92755211283745,121.60306664748275,正源小区,18,11981,大连正源物业服务有限公司,0.3,辽宁,1,二手房,1998
开发区高新里6栋-8,大连,无开发商,开发区,20191007,39.0710895068195,121.82860134358343,新港家园,28,8737,龙祥物业管理有限公司,0.3,辽宁,2,二手房,2003
甘井子区哲林北园17-6号,大连,大连亿达美加房地产开发有限公司,甘井子,20191007,38.9600267109581,121.53876726228256,第五郡三号地公寓,32,16020,亿达物业管理有限公司,2.2,辽宁,1,二手房,2012
金州区拥政街道733号-8号1-2层,大连,大连盛铭资产管理有限公司,金州,20191007,39.11275710643187,121.7224229797623,安盛花园（金州）,24,10690,大连经济技术开发区海青物业有限公司,1,辽宁,0,二手房,2000
中山区鲁迅路184号1层B—A,大连,无开发商,中山,20191007,38.92590875965419,121.67594393403164,新柳街,9,14287,无物业管理服务,-,辽宁,0,二手房,1985
大连市沙河口区知邻街50号,大连,大连亿达房地产股份有限公司,沙河口,20191007,38.913544290955585,121.59450670056631,东方圣荷西,45,24741,亿达物业管理有限公司,2.6,辽宁,3,二手房,2006
金州新区八一路金都嘉园1号楼1号公建,大连,大连友谊合升房地产开发有限公司,金州,20191007,39.05525210261778,121.74865634199398,宏意小区,58,7168,大连天河物业管理有限公司,0.4,辽宁,1,二手房,2000
开发区金源南里14栋-11号一层部分，14号-12号一层部分,大连,大连开建房地产开发有限公司,开发区,20191007,39.06148862675436,121.82503941311765,金北花园小区,36,8526,嘉兴物业管理有限公司,0.3,辽宁,1,二手房,1997
甘井子区祥龙街2号楼1单元1楼1号,大连,大连市大钢集团,甘井子,20191007,38.98830160721291,121.60368765236996,华南沃尔玛六一路,30,12207,街道办事处（居委会）代管物业,0.5,辽宁,1,二手房,1990
中山区金城街26号一楼,大连,无开发商,中山,20191007,38.922282529515634,121.65214466263014,九中白兰街,19,35797,无物业管理服务,-,辽宁,1,二手房,1985
西岗区绕山路31号公建一层东侧,大连,无开发商,西岗,20191007,38.90257514466717,121.61412736644739,和云巷,30,9717,无物业管理服务,-,辽宁,4,二手房,1990
西岗区黄河路82号,大连,陕西亿润经贸有限公司,西岗,20191007,38.92243503020161,121.6287927913896,建设街（大菜市商圈）,12,12617,无物业管理服务,26,辽宁,0,二手房,1970
西岗区平等街21号1层2号,大连,辽宁宁安房地产开发有限公司,西岗,20191007,38.92251066253164,121.63236845125735,良玖国际,44,16315,大连良玖物业管理有限责任公司,3.7,辽宁,1,二手房,2004
沙河口区锦霞南园1号1层公建,大连,大连锦绣房地产开发有限公司,沙河口,20191007,38.947367114450536,121.55342584213675,锦虹南园,27,10868,大连锦绣物业管理有限公司,0.3,辽宁,1,二手房,1998
中山区金城街26号一楼,大连,无开发商,中山,20191007,38.922282529515634,121.65214466263014,九中武汉街,8,35306,无物业管理服务,-,辽宁,4,二手房,1986
开发区鹏程家园66#-6、66#-7公建,大连,大连新天润企业集团有限公司,开发区,20191007,39.03523987258615,121.80826248065051,水御兰庭,29,10174,大连港力物业管理有限公司,1.1,辽宁,2,二手房,2006
无门店信息,大连,平谷地产发展（大连）有限公司,金州,20191007,43.873634114640744,81.30301501416476,平谷蓝熙庭,17,8082,平谷物业服务(大连)有限公司,1.8,辽宁,2,二手房,2010
无门店信息,大连,无开发商,西岗,20191007,43.873634114640744,81.30301501416476,双兴财富长街（大菜市商圈）,35,14293,街道办事处（居委会）代管物业,0.5,辽宁,1,二手房,1990
甘井子区迎客路郭东街一品蓝天公建14号,大连,鹏基,甘井子,20191007,38.958456949708726,121.556756277476,军休家园,0,13472,无物业管理服务,1,辽宁,2,二手房,1995
甘井子区甘井子路32号楼1单元1楼9号,大连,无开发商,甘井子,20191007,38.982488275116516,121.63345389253514,杨柳街,18,11149,街道办事处（居委会）代管物业,0.5,辽宁,2,二手房,1990
甘井子区红旗中路143号1层4号,大连,大连红旗兴达房地产开发有限公司,甘井子,20191007,38.93169566676921,121.5426632438217,吉祥街,6,11552,大连金诚物业管理有限公司,0.2,辽宁,1,二手房,1996
沙河口区杨树街4—2号,大连,无开发商,高新园区,20191007,38.88444587249751,121.55130620045541,龙江路（学府商圈）,5,14238,无物业管理服务,-,辽宁,1,二手房,1992
沙河口区五一路110-4号,大连,大连大重房屋开发有限公司,沙河口,20191007,38.913544290955585,121.59450670056631,星台花园二期,35,25247,大连大重房屋开发公司物业管理中心,0.4,辽宁,0,二手房,1995
无门店信息,大连,芙蓉置业有限公司,甘井子,20191007,43.873634114640744,81.30301501416476,芙蓉公寓,20,9340,大连广丰物业管理有限公司,0.5,辽宁,0,二手房,2002
无门店信息,大连,大连航宇房屋开发有限公司,甘井子,20191007,43.873634114640744,81.30301501416476,西郊棠梨园,15,12354,渤海吉祥物业管理有限公司,0.5,辽宁,1,二手房,2005
大连市金州区友谊街道南金华城25号1-2层1号,大连,大连金华房地产开发有限公司,金州,20191007,39.128677228885614,121.71356109978767,金华小区三期,9,9239,大连金华兴物业有限公司,1.2,辽宁,0,二手房,2006
中山区民建街10号1单元1号,大连,无开发商,中山,20191007,38.925444479476894,121.66915026954452,39中民建街,16,20371,无物业管理服务,-,辽宁,0,二手房,1995
沙河口区星海广场B3区14-9,大连,大连友谊合升房地产开发有限公司,沙河口,20191007,38.887408126588866,121.58732762887982,壹品星海二期,21,25904,暂无信息,1.9,辽宁,2,二手房,2007
沙河口区黄河路883号,大连,无开发商,沙河口,20191007,38.919826721475204,121.57749657966676,西南路（辽师商圈）,4,10410,无物业管理服务,-,辽宁,0,二手房,1990
开发区东北三街94号1层,大连,大连同济房地产开发有限公司,开发区,20191007,39.05723508011585,121.80570768630555,新东方公寓三期,92,6739,大连同济物业管理有限公司,1.5,辽宁,4,二手房,2005
沙河口区西南路643号,大连,无开发商,沙河口,20191007,38.943483429804665,121.5833555851182,恒达花园（沙河口）,11,11988,无物业管理服务,-,辽宁,0,二手房,1990
沙河口区连山街10号2-1-2,大连,大连宝嘉房地产有限公司,沙河口,20191007,38.89637522563413,121.57143690983219,星海名庭,8,22847,大连斌宏物业管理有限公司,0.6,辽宁,0,二手房,2005
甘井子区迎客路郭东街一品蓝天公建14号,大连,沈阳军区后勤部,甘井子,20191007,38.958456949708726,121.556756277476,金寓花园三期,8,17883,大连瑞祥物业管理有限公司,1,辽宁,0,二手房,2008
大连市甘井子区银田北园14号,大连,亿达集团大连房地产开发有限公司,甘井子,20191007,38.9742441034389,121.47189841879823,亿达春田银杏园,87,18467,亿达物业管理有限公司,2.2,辽宁,1,二手房,2005
大连市甘井子区张前路620-18号（第19幢1单元1跃2层14号）,大连,无开发商,甘井子,20191007,38.98764207496216,121.52409526893047,嘉安边防家园,13,12655,大连新型物业管理有限公司,1,辽宁,2,二手房,1998
大连市沙河口区黄河路729号,大连,无开发商,沙河口,20191007,38.91710565765228,121.58954758972729,明阳花园小区,15,12090,无物业管理服务,-,辽宁,0,二手房,2000
中山区民建街10号1单元1号,大连,无开发商,中山,20191007,38.925444479476894,121.66915026954452,建华巷（三八广场）,7,14649,无物业管理服务,-,辽宁,3,二手房,1990
大连市甘井子区椒房街24号楼2-104链家地产,大连,大连凯祥房地产开发有限公司,甘井子,20191007,38.985363789837166,121.61034055597686,椒金山庄,28,17039,大连凯祥物业管理有限公司,0.5,辽宁,3,二手房,2000
沙河口区沙能街101号1单元1层1号,大连,大连大力置业有限公司,沙河口,20191007,38.9366316275348,121.59031205759763,机车佳苑,7,15267,大连大力物业管理有限公司,1.5,辽宁,0,二手房,2007
大连经济技术开发区同和里7栋-9号,大连,无开发商,开发区,20191007,39.048933782970316,121.78832105502437,新月里,27,10124,街道办事处（居委会）代管物业,0.5,辽宁,1,二手房,1998
开发区安盛里5栋-4,大连,大连新苑房地产开发有限公司,开发区,20191007,23.112106678834838,113.27801046214822,绿色新苑,15,13198,大连利堃物业管理有限公司,0.8,辽宁,1,二手房,2001
中山区武昌街武昌公寓6号公建,大连,无开发商,中山,20191007,38.912280913445784,121.64921130527547,麒麟东巷,4,11439,无物业管理服务,-,辽宁,2,二手房,1988
中山区南山路59号1层4号,大连,无开发商,中山,20191007,38.91992239075882,121.6479206962747,昆明街（正阳街）,4,16839,无物业管理服务,-,辽宁,0,二手房,1980
甘井子区华龙南园12-4-3-1-3,大连,中信集团大连中信房地产开发公司,甘井子,20191007,38.98528794231248,121.61028969481718,惠丰小区,28,10467,大连中信物业管理有限公司,0.2,辽宁,1,二手房,1989
无门店信息,大连,大连金房置业代理有限公司,旅顺口,20191007,43.873634114640744,81.30301501416476,金川家园,31,11933,大连恒峰皓物业管理有限公司,-,辽宁,0,二手房,1994
中山区爱华街13号,大连,无开发商,中山,20191007,38.92541607518685,121.6535728031028,九中一德街,13,42585,无物业管理服务,-,辽宁,1,二手房,1970
甘井子区华东路33-5号,大连,无,甘井子,20191007,38.97497080220593,121.59479866243332,巾帼小区,30,12322,大连新华物业管理有限公司,-,辽宁,2,二手房,1993
西岗区鞍山路65-5号,大连,大连华阳房地产开发有限公司,沙河口,20191007,38.92701992456326,121.60258216167713,华阳风尚,17,17532,北京凯莱物业管理有限公司大连分公司,1.3,辽宁,1,二手房,2009
大连市金州新区中长街道碧海尚城5-4号1-2层,大连,无开发商,金州,20191007,39.1001690968934,121.73061017121415,于洼小区,69,7306,街道办事处（居委会）代管物业,0.1,辽宁,4,二手房,1985
中山区中南路226号,大连,大连国合嘉汇房地产开发有限公司,中山,20191007,38.90029610333926,121.68178899957817,枫合万嘉,28,23608,大连国合物业管理有限公司,1,辽宁,0,二手房,2005
沙河口区西南路40号楼,大连,大连昊东房地产开发有限公司,沙河口,20191007,38.94155650404125,121.5861259059117,星海国府,13,20863,大连戴德梁行物业管理有限公司,2.5,辽宁,1,二手房,1999
甘井子区锦城西园4#3-1-1,大连,大连锦绣房地产开发有限公司,甘井子,20191007,38.95286223185571,121.55129044777,锦城西园,29,19070,大连锦绣锦城园物业,0.6,辽宁,3,二手房,2006
西岗区八一路102号,大连,无开发商,西岗,20191007,38.92047268927287,121.61862512554262,安泰巷,3,12784,无物业管理服务,-,辽宁,0,二手房,1990
开发区松苑街23号,大连,大连众益神州地产开发有限公司,开发区,20191007,22.52087435807652,113.40156105086167,松海庄园二期,11,13038,大连万达物业管理有限公司,0.5,辽宁,1,二手房,2000
中山区岭前街53-5,大连,大连铭泰房地产开发有限公司,中山,20191007,38.894816075499904,121.65794368822269,锦府桃源,19,23980,大连意美物业服务有限公司,1.2,辽宁,2,二手房,2008
开发区红梅小区19栋-2-1-1号,大连,大连开发区世元房地产开发有限公司,开发区,20191007,29.906498897603264,121.5913630631805,世元国际公寓,34,11509,大连世元物业管理有限公司,2,辽宁,2,二手房,2000
开发区金马路169-2-6号房屋,大连,大连亿锋集团有限公司,开发区,20191007,39.057398235688176,121.78261137849105,铜锣湾,42,10519,亿锋豪景物业管理有限公司,1.2,辽宁,2,二手房,2004
甘井子区西南路芳茗园30号楼,大连,大连泰华房地产开发有限公司,甘井子,20191007,38.961395177040636,121.59546002818708,泰华府邸,22,18679,大连华安物业管理有限公司,1.5,辽宁,2,二手房,2009
甘井子区红旗西路104-23,大连,大连鹏德房屋开发有限公司,甘井子,20191007,38.94013845868325,121.5282577714263,逸林派,29,15258,大连三和住邦物业管理有限公司,1.6,辽宁,0,二手房,2010
莲花山路89-3号,大连,"""浙江富园房地产开发有限公司",沙河口,20191007,38.902848261803356,121.6041720815823,美丽巷,4,13107,大连恒诚物业管理有限公司,-,辽宁,0,二手房,1985
甘井子区山东路137号,大连,无开发商,甘井子,20191007,38.99129404608926,121.59172125999353,天河路,17,12845,街道办事处（居委会）代管物业,0.1,辽宁,1,二手房,1998
中山区金城街26号一楼,大连,辽宁远大房屋开发有限公司,中山,20191007,38.922282529515634,121.65214466263014,远大大厦,45,10356,街道办事处（居委会）代管物业,2.5,辽宁,0,二手房,1997
甘井子区甘井子路32号楼1单元1楼9号,大连,大连和华房地产开发有限公司,甘井子,20191007,38.982488275116516,121.63345389253514,万成御园,16,14582,大连银力物业管理有限公司,1.3,辽宁,3,二手房,2010
中山区东港龙湖水晶郦湾7-102,大连,恒大集团,中山,20191007,38.924700620463895,121.70344398518496,恒大四季上东,12,31546,金碧物业有限公司大连分公司,3.8,辽宁,0,二手房,2015
无门店信息,大连,大连金石文化旅游投资有限公司,金州,20191007,43.873634114640744,81.30301501416476,大连金石天成,56,8660,大连万达物业管理有限公司,1.5,辽宁,0,二手房,2008
金州区五一路先进街道 陶然居2-2,大连,大连昌临房地产开发有限公司,金州,20191007,39.0830973395057,121.7630113583655,昌临家园,22,10537,金碧物业有限公司大连分公司,1.5,辽宁,0,二手房,2008
无门店信息,大连,大连泰达新城建设发展有限公司,甘井子,20191007,43.873634114640744,81.30301501416476,泰达青筑,57,11473,大连三和住邦物业管理有限公司,2.2,辽宁,1,二手房,2012
大连市高新园区七贤中路63号,大连,大连鑫亿房屋开发有限公司,高新园区,20191007,38.86053006357667,121.53273606963094,瑞丰园,12,14994,无物业管理服务,0.8,辽宁,1,二手房,1999
沙河口区杨树街4-4号公建,大连,无开发商,高新园区,20191007,38.88444587249751,121.55130620045541,育明高中,6,18089,无物业管理服务,-,辽宁,1,二手房,1995
甘井子区甘井子路32号楼1单元1楼9号,大连,大连市建设控股有限公司,甘井子,20191007,38.982488275116516,121.63345389253514,胜景家园,16,12664,街道办事处（居委会）代管物业,0.9,辽宁,1,二手房,2008
西岗区中山路158号唐山街市场外14号,大连,"""苍南县中富房地产开发有限公司",西岗,20191007,38.91688106727098,121.63201298398174,34中松花街,16,27229,无物业管理服务,-,辽宁,1,二手房,1980
金州区鹏程家园53#-8,大连,大连软微房地产开发有限公司,开发区,20191007,39.03523987258615,121.80826248065051,深蓝半英里,19,9790,大连豪斯威物业管理有限公司,1.2,辽宁,0,二手房,2007
中山区中南路226号,大连,大连亿泰房屋开发有限公司,中山,20191007,38.90029610333926,121.68178899957817,亿泰庄园,14,14852,大连远洋基业物业管理有限公司,0.7,辽宁,0,二手房,1999
无门店信息,大连,大连祥和房屋开发有限公司,甘井子,20191007,43.873634114640744,81.30301501416476,祥和花园,33,12677,大连市大北物业管理有限公司,0.4,辽宁,0,二手房,1988
沙河口区黑石礁街5号1层1号,大连,大连鹏生房地产开发有限公司,沙河口,20191007,38.879813345473714,121.56313742300513,鹏辉广场,16,18093,大连新兴物业管理有限公司,0.5,辽宁,3,二手房,2000
沙河口区五一路219-1,大连,大连圣北房地产有限公司,沙河口,20191007,38.913544290955585,121.59450670056631,电业花园,7,14354,大连市沙河口房产物业管理有限公司,0.3,辽宁,1,二手房,1999
中山区三八广场5号,大连,无开发商,中山,20191007,38.92540000551715,121.6642911149562,捷胜街,3,14404,无物业管理服务,-,辽宁,0,二手房,1995
沙河口区富静街26号1单元1层5号,大连,大连大重房屋开发有限公司,沙河口,20191007,38.908727606250466,121.58667844684369,星河璞园,4,20716,大连大重房屋开发公司物业管理中心,0.5,辽宁,0,二手房,2002
大连市沙河口区西南路875号1层21号,大连,无开发商,沙河口,20191007,38.94485969061231,121.58418648447764,西南路（春柳商圈）,18,12205,大连三宝物业有限公司,0.5,辽宁,2,二手房,1980
中山区金城街26号一楼,大连,无开发商,中山,20191007,38.922282529515634,121.65214466263014,39中南山街,14,25886,无物业管理服务,-,辽宁,0,二手房,1985
沙河口区中山路417A-4号,大连,大连宝嘉房地产有限公司,沙河口,20191007,38.906939870156414,121.5941747326634,德源,8,27016,大连中和信邦物业管理有限公司,1.9,辽宁,0,二手房,2008
甘井子区海口路77—5号,大连,陕西亿润经贸有限公司,甘井子,20191007,38.960286398428124,121.60305183172997,鹏辉新世纪五期,7,19276,大连鹏辉物业管理有限公司,0.6,辽宁,3,二手房,2009
沙河口区富国街34-3,大连,大连万达房地产开发有限公司,沙河口,20191007,38.90160386349964,121.58915317342193,星海自由港,13,21055,大连万景物业管理有限公司,1.2,辽宁,4,二手房,2002
中山区益民街16号1层1号,大连,无开发商,中山,20191007,38.93092761298906,121.66470740073377,自强街（三八广场）,4,15296,无物业管理服务,-,辽宁,0,二手房,1993
沙河口区知心园10号公建,大连,大连亿达房地产股份有限公司,高新园区,20191007,38.893977135945136,121.55667141994431,亿达康派公寓,26,17359,亿达物业管理有限公司,2.2,辽宁,1,二手房,2005
大连市甘井子区逸林南园1-1号,大连,金州城建局，开发区城建局,甘井子,20191007,38.95800216293212,121.53151895549547,张前路辛寨子基地,4,10973,暂无信息,1.8,辽宁,0,二手房,1995
沙河口区新生路万客园3-7,大连,大连中海兴业房地产开发有限公司,沙河口,20191007,38.94412875710208,121.57006756704837,中海天赋山一期,24,22703,大连中海物业管理有限公司,2.8,辽宁,1,二手房,2015
沙河口区联合路133号,大连,亿达集团大连房地产开发有限公司,沙河口,20191007,38.91608561262676,121.60480987310456,21中亿达广场,2,18809,亿达物业管理有限公司,1.2,辽宁,0,二手房,1999
沙河口区中山路417A-4号,大连,大连新希望家园房地产有限公司,沙河口,20191007,38.906939870156414,121.5941747326634,新希望花园,40,20172,大连乾峰物业管理有限公司,1.3,辽宁,2,二手房,2002
中山区益民街16号1层1号,大连,无开发商,中山,20191007,38.93092761298906,121.66470740073377,丹东街（三八广场）,10,14371,无物业管理服务,-,辽宁,2,二手房,1995
中山区华乐街71号公建,大连,大连振屹房屋开发有限公司,中山,20191007,38.923187679200566,121.6843197903016,春华山小区,22,10396,无物业管理服务,-,辽宁,1,二手房,1985
无门店信息,大连,无开发商,金州,20191007,43.873634114640744,81.30301501416476,香山翌景,27,7377,街道办事处（居委会）代管物业,0.5,辽宁,0,二手房,2000
甘井子区金家街17-7号,大连,大连新型房地产开发有限公司,甘井子,20191007,38.97493697764367,121.60110987128529,翰林苑,7,22679,大连新兴物业管理有限公司,2,辽宁,0,二手房,2014
大连市甘井子区丰收路3-5号,大连,大连亿海房地产开发有限公司,甘井子,20191007,38.965377255081755,121.58288415324094,亿海盛都,25,20715,街道办事处（居委会）代管物业,0.5,辽宁,2,二手房,2002
沙河口区连山街10号2-1-2,大连,大连国合嘉汇房地产开发有限公司,沙河口,20191007,38.89637522563413,121.57143690983219,嘉汇星海,3,19286,大连国合物业管理有限公司,0.5,辽宁,2,二手房,2004
沙河口区新生路万客园3-7,大连,中海地产,沙河口,20191007,38.94412875710208,121.57006756704837,中海天赋山二期,25,20066,大连中海物业管理有限公司,2.8,辽宁,2,二手房,2013
沙河口区鞍山路65号美都园7号1单元1层4号公建,大连,远洋地产有限公司,沙河口,20191007,38.92755211283745,121.60306664748275,绿都园,19,14585,大连峰霖物业管理有限公司,0.6,辽宁,0,二手房,2000
开发区黄海西路201号107公建,大连,无开发商,开发区,20191007,39.04942604506828,121.80126318235419,岗林里,41,6918,大连经济技术开发区海青物业有限公司,0.5,辽宁,0,二手房,1995
无门店信息,大连,大连盈丰置业有限公司,金州,20191007,43.873634114640744,81.30301501416476,尚海华庭,41,9469,大连盈丰置业有限公司,1.3,辽宁,2,二手房,2005
中山区高尚路28-1号,大连,无开发商,中山,20191007,38.892673425111305,121.67148833870213,宪卫里,19,10502,无物业管理服务,0.5,辽宁,0,二手房,1990
大连经济技术开发区时代城4-3号1-2号,大连,重庆汇东房地产开发有限公司,开发区,20191007,39.0992481321252,121.83007860699459,摩宿公寓,81,7341,大连远洋基业物业管理有限公司,1.5,辽宁,1,二手房,2009
沙河口区星海广场B3区14-2号1层,大连,华润置地（大连）有限公司,沙河口,20191007,38.88693148294673,121.58735631267305,星海湾壹号,43,50299,华润物业（大连）有限公司,4.8,辽宁,1,二手房,2006
西岗区八一路196号2-1-12号,大连,大连欧美亚房地产开发有限公司,西岗,20191007,38.92047268927287,121.61862512554262,中华名城,38,19510,大连峰霖物业管理有限公司,1.5,辽宁,1,二手房,2002
"西岗区泰公街20号2层7号 西岗区久寿街22号1层14号""",大连,大连万达房地产开发有限公司,西岗,20191007,38.92600196862723,121.62141976476381,新春小区,5,15116,大连长青物业管理中心,0.2,辽宁,0,二手房,1995
无门店信息,大连,大连明和兆泰置业有限公司,开发区,20191007,43.873634114640744,81.30301501416476,知润山,25,10854,大连华安物业管理有限公司,1,辽宁,2,二手房,2005
大连开发区金马路169-2-8号,大连,大连德泰控股有限公司,开发区,20191007,39.057398235688176,121.78261137849105,德泰时代广场,40,13522,大连德泰物业管理有限公司,0.5,辽宁,7,二手房,2010
甘井子区惠泽南园3-7号,大连,大连利丰房地产开发有限公司,甘井子,20191007,38.93925504875288,121.52339009910513,国安宜居,10,19218,大连易明物业服务有限公司,2,辽宁,0,二手房,2014
高新园区红凌路732-4号,大连,大华集团大连房地产开发有限公司,高新园区,20191007,38.90204708664442,121.53244406374695,大华爱琴湾,59,21431,大连大华物业管理有限公司,1.8,辽宁,0,二手房,2010
金州区同济路44号,大连,大连金州金山房地产开发有限公司,金州,20191007,39.10476859984152,121.71234684495865,金山苑小区,26,9256,大连金山物业管理有限公司,-,辽宁,0,二手房,2000
开发区金马路169-2-6号房屋,大连,无开发商,开发区,20191007,39.057398235688176,121.78261137849105,收获公寓,17,6868,街道办事处（居委会）代管物业,0.5,辽宁,1,二手房,2000
中山区东港龙湖水晶郦湾7-102,大连,大连盈盛房地产开发有限公司,中山,20191007,38.924700620463895,121.70344398518496,保利天禧二期 禧岸1903,38,27842,保利物业服务有限公司,4.8,辽宁,1,二手房,2018
沙河口区南沙街36号台二2号1-1-37,大连,大连三寰房屋开发有限公司,沙河口,20191007,38.90741410359388,121.57685699961822,南平花园,14,18193,大连上达物业管理有限公司,0.3,辽宁,0,二手房,2001
西岗区八一路196号1-3,大连,无开发商,西岗,20191007,38.92047268927287,121.61862512554262,三环街（八一路商圈）,3,11979,无物业管理服务,-,辽宁,0,二手房,1990
中山区民建街10号1单元1号,大连,无开发商,中山,20191007,38.925444479476894,121.66915026954452,39中爱阳街,29,20115,无物业管理服务,-,辽宁,1,二手房,1993
无门店信息,大连,大连永高房屋开发有限公司,西岗,20191007,43.873634114640744,81.30301501416476,北海胜利公社(宁海街),13,13105,大连永高物业管理有限公司,0.8,辽宁,0,二手房,2005
西岗区长春路334号,大连,大连万达房地产开发有限公司,西岗,20191007,38.89807766522607,121.63221082858387,石松小区,15,10906,大连白云物业管理有限公司,0.5,辽宁,1,二手房,1992
西岗区康平街2号（5号楼3-1-3号）,大连,大连振屹房屋开发有限公司,西岗,20191007,38.91044414697888,121.61980769264477,水仙名苑,11,23969,大连广信物业管理有限公司,0.5,辽宁,0,二手房,1997
甘井子区虹港路16号楼1层公建,大连,沈阳军区后勤部,甘井子,20191007,38.9645939333502,121.553851837474,金寓花园四期,10,19206,大连大管家物业管理有限公司,1,辽宁,1,二手房,2000
中山区杏林街66—5号,大连,无开发商,中山,20191007,38.92440845067654,121.66285472444575,39中开源巷,9,29518,街道办事处（居委会）代管物业,0.5,辽宁,0,二手房,1982
沙河口区五四路207-1-9号,大连,无开发商,沙河口,20191007,38.913544290955585,121.59450670056631,集贤北街,5,14302,无物业管理服务,0.5,辽宁,0,二手房,1992
无门店信息,大连,大连康阳房屋开发有限公司,甘井子,20191007,43.873634114640744,81.30301501416476,南岭新城二期,52,15058,大连鸿诚物业管理有限公司,0.4,辽宁,1,二手房,2005
开发区东北三街94号1层,大连,大连同济房地产开发有限公司,开发区,20191007,39.05723508011585,121.80570768630555,新东方公寓二期,55,5767,大连同济物业管理有限公司,1.5,辽宁,2,二手房,2003
西岗区八一路102号,大连,无开发商,西岗,20191007,38.92047268927287,121.61862512554262,智勇西二巷,5,9598,无物业管理服务,-,辽宁,1,二手房,1993
无门店信息,大连,无开发商,西岗,20191007,43.873634114640744,81.30301501416476,华滨街（八一路）,8,12162,无物业管理服务,-,辽宁,1,二手房,1990
甘井子区惠泽南园3-7号,大连,大连长鹭房屋开发有限公司,甘井子,20191007,38.93925504875288,121.52339009910513,长鹭晶品逸林,11,18978,大连旺宇物业有限公司,1.9,辽宁,0,二手房,2016
中山区民运巷 47号1层2号,大连,无开发商,中山,20191007,38.905955122300846,121.64798148011702,民运巷,32,11180,无物业管理服务,-,辽宁,1,二手房,1985
中山区职工街96号1-3层公建,大连,无开发商,中山,20191007,38.92565613737007,121.66193575790903,新乐里（三八广场）,5,14212,无物业管理服务,-,辽宁,0,二手房,1993
西岗区黄河路90号公建部分,大连,万达集团,西岗,20191007,38.92234529815978,121.62829331825485,37中新开路,14,18179,无物业管理服务,-,辽宁,0,二手房,1993
金州区南棉路310号,大连,无开发商,金州,20191007,39.09939229372624,121.72414976100345,金色华庭,28,7429,大连阿尔滨集团物业管理有限公司,-,辽宁,3,二手房,2005
无门店信息,大连,无开发商,西岗,20191007,43.873634114640744,81.30301501416476,先进街（胜利桥北商圈）,20,11373,无物业管理服务,-,辽宁,0,二手房,1990
金州区拥政街道733号-8号1-2层,大连,重庆桥达茂宸房地产开发有限公司,金州,20191007,39.11275710643187,121.7224229797623,中长小区,45,7403,街道办事处（居委会）代管物业,1,辽宁,2,二手房,1981
中山区解放路471-22号,大连,大连青云天下房地产有限公司,中山,20191007,38.901309943567504,121.65419095766659,青云天下,13,25002,大连青云天下物业服务有限公司,4.3,辽宁,1,二手房,2015
中山区武昌街武昌公寓6号公建,大连,无开发商,中山,20191007,38.912280913445784,121.64921130527547,铁山巷,25,12884,无物业管理服务,0.5,辽宁,2,二手房,1990
甘井子区玉丽街2号楼1单元4号公建,大连,大连新型企业集团,甘井子,20191007,38.98705071699301,121.55513043130172,玉山路,25,10736,大连新兴物业管理有限公司,0.5,辽宁,2,二手房,2002
无门店信息,大连,无开发商,西岗,20191007,43.873634114640744,81.30301501416476,连海街（胜利桥北商圈）,5,12323,街道办事处（居委会）代管物业,0.5,辽宁,0,二手房,1984
西岗区胜利路33号,大连,大连新型企业集团,西岗,20191007,38.91309771954841,121.62500886627636,34中新开路,1,34333,无物业管理服务,-,辽宁,2,二手房,1990
中山区共建巷61号,大连,大连恒盛房屋开发有限公司,中山,20191007,38.91828093658718,121.66259221532148,月恒花园,7,27732,大连佳捷物业管理有限公司,0.8,辽宁,0,二手房,1999
沙河口区五四路207-1-9号,大连,大连建兴房屋开发有限公司,沙河口,20191007,38.913544290955585,121.59450670056631,建兴花园小区,11,13133,大连建兴物业管理有限公司,0.4,辽宁,0,二手房,1997
甘井子区促进路30号2-1-1,大连,大连泰安房地产开发有限公司,沙河口,20191007,38.954133128707575,121.58355746311207,春柳园,17,10527,街道办事处（居委会）代管物业,0.5,辽宁,1,二手房,1995
无门店信息,大连,大连长鹭房屋开发有限公司,甘井子,20191007,43.873634114640744,81.30301501416476,晶品森岚,16,16441,大连旺宇物业有限公司,1.3,辽宁,1,二手房,2008
中山区爱华街13号,大连,无开发商,中山,20191007,38.92541607518685,121.6535728031028,修竹街,9,12386,无物业管理服务,-,辽宁,0,二手房,1993
金州新区八一路金都嘉园1号楼1号公建,大连,大连海洋房地产开发有限公司,金州,20191007,39.05525210261778,121.74865634199398,金都嘉园,7,9031,街道办事处（居委会）代管物业,0.5,辽宁,0,二手房,2008
甘井子区汇仁街19号12号楼1单元102室,大连,大连华南房地产开发有限公司,甘井子,20191007,38.99746297497168,121.58917714380617,名贵山庄金盛园,17,15375,大连弘益达物业管理有限公司,0.5,辽宁,2,二手房,2004
中山区爱华街13号,大连,威新房地产开发(大连)有限公司,中山,20191007,38.92541607518685,121.6535728031028,中山九号,41,28576,大连金地物业管理有限公司,3.5,辽宁,0,二手房,2003
沙河口区恒利园42号-8,大连,大连新型房地产开发有限公司,沙河口,20191007,38.93357562498634,121.57914091532649,中铁十三局,15,13902,大连新兴物业管理有限公司,0.3,辽宁,0,二手房,1990
中山区益民街16号1层1号,大连,大连新世界大厦有限公司,中山,20191007,38.93092761298906,121.66470740073377,新世界名泷,44,15341,大连侨乐物业服务有限公司,5.9,辽宁,1,二手房,2014
西岗区平等街21号1层2号,大连,无开发商,西岗,20191007,38.92251066253164,121.63236845125735,连平街（大菜市商圈）,6,13681,街道办事处（居委会）代管物业,0.5,辽宁,0,二手房,1995
沙河口区兰田街33号,大连,大连凭海房地产开发有限公司,沙河口,20191007,38.926138912221084,121.56486022834609,清熙园,4,14875,大连鑫诚物业有限公司,0.5,辽宁,0,二手房,2004
中山区金城街26号一楼,大连,无开发商,中山,20191007,38.922282529515634,121.65214466263014,39中金鼎公寓,5,19042,无物业管理服务,-,辽宁,0,二手房,1999
沙河口区昌黎街22号,大连,大连城市建设集团有限公司,沙河口,20191007,38.91975785098891,121.59109628369768,天兴罗斯福,44,16420,大连天兴物业管理有限公司,1.6,辽宁,2,二手房,2002
中山区共建巷61号,大连,无开发商,中山,20191007,38.91828093658718,121.66259221532148,39中桂林街,15,23903,街道办事处（居委会）代管物业,-,辽宁,0,二手房,1990
无门店信息,大连,大连纳帕溪谷温泉度假有限公司,金州,20191007,43.873634114640744,81.30301501416476,纳帕溪谷御山,47,10244,大连合昌物业服务有限公司,1,辽宁,0,二手房,1997
开发区黄海西路201号107公建,大连,无开发商,开发区,20191007,39.04942604506828,121.80126318235419,新云里,34,8061,街道办事处（居委会）代管物业,0.5,辽宁,0,二手房,1996
西岗区新田巷27号1-2,大连,无开发商,西岗,20191007,38.893215932589385,121.64103065169111,新月街,23,10736,无物业管理服务,-,辽宁,3,二手房,1990
沙河口区星海广场B3区14-9,大连,半岛集团,沙河口,20191007,38.887408126588866,121.58732762887982,半岛听涛,15,22294,大连半岛物业管理有限公司,2.6,辽宁,1,二手房,2007
大连市金州新区中长街道碧海尚城5-4号1-2层,大连,大连市金州区房屋开发公司,金州,20191007,39.1001690968934,121.73061017121415,朝阳小区,43,7025,无物业管理服务,0.5,辽宁,2,二手房,1990
甘井子区泉水B5区27-9,大连,大连康阳房屋开发有限公司,甘井子,20191007,39.014808383172415,121.60978022983026,南岭新城一期,31,12037,大连鸿诚物业管理有限公司,0.4,辽宁,1,二手房,2003
中山区清溪南街11号,大连,无开发商,中山,20191007,38.88919604283904,121.66466481004835,小龙街,14,18233,无物业管理服务,0.5,辽宁,1,二手房,1985
甘井子区华北路花锦园28号23-3-1-2建筑物,大连,大连鼎新恒盛房地产开发有限公司,甘井子,20191007,38.951631439880536,121.57401414205216,鼎新悦府,10,24863,大连万润物业服务有限公司,1.5,辽宁,3,二手房,2004
中山区爱华街13号,大连,无开发商,西岗,20191007,38.92541607518685,121.6535728031028,新生街,13,11279,无物业管理服务,-,辽宁,0,二手房,1990
无门店信息,大连,大连顺浩置业有限公司,开发区,20191007,43.873634114640744,81.30301501416476,上品公馆,42,9870,大连顺浩置业物业有限公司,3.8,辽宁,1,二手房,2010
金州区先进街道渤海街1-4号1-2层,大连,无开发商,金州,20191007,39.09512910553563,121.74578812616167,百畅园,21,7011,街道办事处（居委会）代管物业,0.5,辽宁,0,二手房,1999
大连市高新园区软件园路1A-3号,大连,大连软景房地产开发有限公司,高新园区,20191007,38.894037160822535,121.54670889743173,亿达软景中心,19,22277,亿达物业管理有限公司,3.5,辽宁,1,二手房,2005
无门店信息,大连,合肥万科瑞翔地产有限公司,金州,20191007,43.873634114640744,81.30301501416476,天鸿展视界,42,7280,无物业管理服务,1,辽宁,2,二手房,2008
无门店信息,大连,大连百年港湾商业开发有限公司,西岗,20191007,43.873634114640744,81.30301501416476,百年港湾,68,17831,大连百年港湾万科物业有限公司,3.5,辽宁,2,二手房,2014
甘井子区华东路33-5号,大连,重庆汇东房地产开发有限公司,甘井子,20191007,38.97497080220593,121.59479866243332,小野田,9,12913,大连新华物业管理有限公司,-,辽宁,1,二手房,1992
西岗区华北路100号1层5号,大连,大连双振房屋开发有限公司,沙河口,20191007,38.92047268927287,121.61862512554262,香茗苑,4,16358,大连双振物业有限公司,0.5,辽宁,1,二手房,2002
无门店信息,大连,大连新兴海韵房地产开发有限公司,开发区,20191007,43.873634114640744,81.30301501416476,白石湾小区,22,10071,大连海韵物业管理有限公司,0.8,辽宁,0,二手房,1998
甘井子区金北路17号,大连,安华房地产开发公司,甘井子,20191007,38.97553393692831,121.59969720502335,金荣园,11,22368,业主自筹物业,0.3,辽宁,0,二手房,1996
中山区中南路226号,大连,大连市建设控股有限公司,中山,20191007,38.90029610333926,121.68178899957817,欧洲小镇,15,17959,大连大众物业管理有限公司,0.8,辽宁,2,二手房,2002
无门店信息,大连,中体产业集团大连乐百年置业有限公司,甘井子,20191007,43.873634114640744,81.30301501416476,中体九号院别墅,6,26059,广东中奥物业有限公司大连分公司,4.5,辽宁,0,二手房,2014
中山区中南路226号,大连,大连大业房屋开发有限公司,中山,20191007,38.90029610333926,121.68178899957817,阳光花园一期,6,12643,大连全得利物业管理有限公司,0.5,辽宁,0,二手房,1997
中山区南山路59号1层4号,大连,无开发商,中山,20191007,38.91992239075882,121.6479206962747,麒麟西巷,18,13217,无物业管理服务,-,辽宁,2,二手房,1988
沙河口区长江路738号,大连,大连泰达新城建设发展有限公司,沙河口,20191007,38.913544290955585,121.59450670056631,五一广场长江路北,28,13188,无物业管理服务,-,辽宁,0,二手房,1985
中山区爱华街13号,大连,无开发商,中山,20191007,38.92541607518685,121.6535728031028,建华街,4,12930,无物业管理服务,1,辽宁,0,二手房,1989
无门店信息,大连,大连澳南房屋开发有限公司,中山,20191007,43.873634114640744,81.30301501416476,明秀庄园一期,19,41828,大连澳邦致和物业服务有限公司,3.2,辽宁,0,二手房,2012
西岗区长春路334号,大连,无开发商,西岗,20191007,38.89807766522607,121.63221082858387,新城街（石道街商圈）,10,11382,无物业管理服务,-,辽宁,1,二手房,1989
无门店信息,大连,中体产业集团大连乐百年置业有限公司,甘井子,20191007,43.873634114640744,81.30301501416476,中体玲珑墅,6,29651,大连星海国宝物业管理有限公司,1.9,辽宁,0,二手房,2016
中山区武昌街武昌公寓6号公建,大连,大连宏济开发经济有限公司,中山,20191007,38.912280913445784,121.64921130527547,新兴巷,18,10380,无物业管理服务,-,辽宁,1,二手房,1980
沙河口区西南路161号,大连,无开发商,沙河口,20191007,38.89269676588945,121.56639953951542,大医物业,11,13330,街道办事处（居委会）代管物业,0.5,辽宁,1,二手房,1983
无门店信息,大连,大连卓源智盛地产有限公司,金州,20191007,43.873634114640744,81.30301501416476,金石城,59,12323,大连卓源物业服务有限公司,1.8,辽宁,1,二手房,2008
甘井子区华北路花锦园28号23-3-1-2建筑物,大连,无开发商,甘井子,20191007,38.951631439880536,121.57401414205216,华北路（周水子商圈）,11,15351,无物业管理服务,-,辽宁,1,二手房,1990
开发区大开高吉里33栋6号,大连,无开发商,开发区,20191007,39.07355836059941,121.8280439450145,高安里回迁楼,16,8428,大连华宸物业管理有限公司,0.2,辽宁,1,二手房,1988
金州区南棉路310号,大连,大连阿尔滨集团房地产开发有限公司,金州,20191007,39.09939229372624,121.72414976100345,荣盛小区,9,8882,街道办事处（居委会）代管物业,1,辽宁,1,二手房,1995
