address,city,developer,district,index_date,lat,lng,name,osv,price,property,property_fee,province,tv,type,year
大连经济技术开发区东城天下98-14,大连,大连乾豪集团有限公司,开发区,20190416,39.069195091289004,121.8502099927954,东城天下,304,8568,大连远洋基业物业管理有限公司,0.9,辽宁,42,二手房,2005
沙河口区华新苑10号楼4号公建,大连,大连新型房地产开发有限公司,沙河口,20190416,38.94033750532864,121.58990295130229,侯一小区,137,11189,大连新兴物业管理有限公司,0.3,辽宁,27,二手房,1989
甘井子区玉丽街2号楼1单元4号公建,大连,大连新型房地产开发总公司,甘井子,20190416,38.98705071699301,121.55513043130172,泡崖康顺园,135,10898,大连新兴物业管理有限公司,0.5,辽宁,29,二手房,2007
沙河口区沙能街101号1单元1层1号,大连,大连新型房地产开发有限公司,沙河口,20190416,38.9366316275348,121.59031205759763,侯二小区,179,10974,街道办事处（居委会）代管物业,0.1,辽宁,32,二手房,1985
开发区湾里南12栋-16-17-18号,大连,大连金湾实业有限公司,开发区,20190416,39.070782084451,121.8506739675913,湾里南小区,312,8714,大连金湾物业管理有限公司,0.3,辽宁,31,二手房,2003
甘井子区宜居园10-1号房屋,大连,大连万科房地产开发有限公司,甘井子,20190416,38.99913094587405,121.52084969112292,万科魅力之城,212,14815,大连万科物业服务有限公司,1.5,辽宁,24,二手房,2012
沙河口区昌黎街22号,大连,大连城市建设集团有限公司,沙河口,20190416,38.91975785098891,121.59109628369768,北昌平小区,113,12477,无物业管理服务,-,辽宁,20,二手房,1983
甘井子区榆林街37号-12公建,大连,大连新型房地产开发有限公司,甘井子,20190416,38.980133141940186,121.52779506952932,泡崖美林园,243,11525,大连新型物业管理有限公司,0.6,辽宁,44,二手房,2003
甘井子区玉湖街25号2单元1层3号,大连,大连新型房地产开发有限公司,甘井子,20190416,38.97626265183615,121.54617349027997,泡崖四区,151,10546,大连新型物业管理有限公司,0.5,辽宁,21,二手房,2002
沙河口区数码路北段18—20号,大连,大连软景房地产开发有限公司,高新园区,20190416,38.892000603999115,121.5494486394066,软景E居,81,27298,亿达物业管理有限公司,2.6,辽宁,21,二手房,2011
大连开发区金马路169-2-8号,大连,大连亿锋房地产实业有限公司,开发区,20190416,39.057398235688176,121.78261137849105,亿锋现代城,169,9923,亿锋豪景物业管理有限公司,1.1,辽宁,22,二手房,2006
金州区金润花园B区47号1单元1层1号2号,大连,大连辽大房地产开发有限公司,金州,20190416,39.10434716151341,121.74517862677146,金润小区B区,172,8166,大连新兴物业管理有限公司,0.4,辽宁,22,二手房,2005
甘井子区汇仁街22号,大连,远洋地产有限公司,甘井子,20190416,38.99712640764999,121.58834420439493,远洋广场,173,17705,大连远洋基业物业管理有限公司,1.4,辽宁,22,二手房,2010
大连市金州区站前街道生辉第一城14-3号1-2层,大连,大连新希望家园房地产有限公司,金州,20190416,39.0569681786798,121.74773530665969,新希望家园,172,8663,大连新希望物业服务有限公司,1.2,辽宁,23,二手房,2009
开发区正恒园1-16,大连,大连华宇房地产开发有限公司,开发区,20190416,39.04823944344617,121.76165468797754,左岸经典,229,9064,大连豪之英物业管理有限公司,1.8,辽宁,17,二手房,2009
开发区湾里南12栋-16-17-18号,大连,大连金湾实业有限公司,开发区,20190416,39.070782084451,121.8506739675913,湾里东,186,8174,大连金湾物业管理有限公司,0.5,辽宁,18,二手房,2004
大连市经济技术开发区东城园98-14,大连,大连金湾实业有限公司,开发区,20190416,39.06925526014871,121.8505146710752,裕民新苑,49,8382,大连金湾物业管理有限公司,0.3,辽宁,15,二手房,2006
沙河口区华北路448号楼1-4公建,大连,无开发商,沙河口,20190416,38.903224944733765,121.56809734950556,刘家桥,87,10662,街道办事处（居委会）代管物业,0.1,辽宁,15,二手房,1981
甘井子区玉丽街2号楼1单元4号公建,大连,大连新型房地产开发有限公司,甘井子,20190416,38.98705071699301,121.55513043130172,泡崖七区,113,10696,大连新兴物业管理有限公司,0.3,辽宁,15,二手房,1999
沙河口区马栏北街186号,大连,大连渤海红旗集团有限公司,甘井子,20190416,38.913544290955585,121.59450670056631,马栏北街,36,11409,大连辽南物业管理有限公司,0.2,辽宁,15,二手房,1993
无门店信息,大连,大连金湾实业有限公司,开发区,20190416,34.52713835999158,118.76812980670795,金湾山城,132,9180,大连金湾物业管理有限公司,0.5,辽宁,15,二手房,2009
高新园区火炬路18号,大连,大连海脉房地产开发有限公司,高新园区,20190416,38.937738080520404,117.39340752036043,MINI印象,127,15373,大连豪斯威物业管理有限公司,2.2,辽宁,15,二手房,2012
沙河口区西南路40号楼,大连,无开发商,沙河口,20190416,38.94143337232082,121.58616557598133,星海公园,36,12614,无物业管理服务,0.5,辽宁,16,二手房,1990
无门店信息,大连,无开发商,甘井子,20190416,34.52713835999158,118.76812980670795,石油六闾,68,8917,街道办事处（居委会）代管物业,0.5,辽宁,16,二手房,1989
甘井子区泉水D1区37-7号,大连,大连运腾房地产开发有限公司,甘井子,20190416,39.013992871679214,121.61921940045104,锦泉源D2区,202,13315,大连嘉毅物业管理有限公司,0.5,辽宁,17,二手房,2005
"西岗区泰公街20号2层7号 西岗区久寿街22号1层14号""",大连,无开发商,西岗,20190416,38.92600196862723,121.62141976476381,北京街南,45,14894,大连长青物业管理中心,0.2,辽宁,15,二手房,1975
大连经济技术开发区时代城4-3号1-2号,大连,远洋地产有限公司,开发区,20190416,39.0992481321252,121.83007860699459,远洋时代城一期,164,9002,大连远洋基业物业管理有限公司,1.5,辽宁,19,二手房,2012
开发区东北三街94号1层,大连,大连欣达房地产开发有限公司,开发区,20190416,39.05723508011585,121.80570768630555,倚山里小区,218,7333,大连经济技术开发区聚盛达物业管理有限公司,0.2,辽宁,18,二手房,1996
甘井子区祥溢园4号1单元1层9号公建,大连,大连长鹭房屋开发有限公司,甘井子,20190416,38.92981664067587,121.54940314023253,亲亲家园,61,15145,渤海吉祥物业管理有限公司,0.5,辽宁,20,二手房,2004
沙河口区新生路万客园3-7,大连,大连绿波房屋开发集团有限公司,沙河口,20190416,38.94412875710208,121.57006756704837,绿波小区,139,10694,大连绿波建设发展有限公司,0.2,辽宁,20,二手房,1998
经济技术开发区城润万家62-8公建,大连,大连海汇房地产开发有限公司,开发区,20190416,39.06883436780937,117.72669530355309,城润万家,100,9152,大连正源物业服务有限公司,0.5,辽宁,14,二手房,2007
金州新区先进街道渤海街7-4号1-2层、7-3号1-2层,大连,原金州纺织厂房地产公司,金州,20190416,39.09342713035472,121.74590886291374,金纺小区,160,6849,街道办事处（居委会）代管物业,0.5,辽宁,14,二手房,1985
大连经济技术开发区时代城4-3号1-2号,大连,远洋地产有限公司,开发区,20190416,39.0992481321252,121.83007860699459,远洋时代城三期,83,8715,大连远洋基业物业管理有限公司,1.5,辽宁,14,二手房,2012
沙河口区前程街46号4—1—2号,大连,大连银地置业发展有限公司,沙河口,20190416,38.913544290955585,121.59450670056631,观山满庭芳,87,18079,大连新展物业管理有限公司,1,辽宁,10,二手房,2008
金州区金润小区B区861单元102,大连,大连辽大房地产开发有限公司,金州,20190416,39.10615165380565,121.74639264534615,金润小区A区,140,8471,大连新兴物业管理有限公司,0.4,辽宁,14,二手房,2005
沙河口区富国街14号1-1-2,大连,大连浩江房地产开发有限公司,沙河口,20190416,38.901027106600836,121.59047734850638,和平现代城,93,16541,大连万科物业服务有限公司,1,辽宁,10,二手房,2005
开发区景和园1-7,大连,大连市政府工程建设指挥部,开发区,20190416,30.41892168817929,120.30896459202738,小孤山中里,91,7609,大连广谊物业管理有限公司,0.4,辽宁,10,二手房,1999
无门店信息,大连,大连万德房地产集团有限公司,开发区,20190416,34.52713835999158,118.76812980670795,万德悦城,102,8236,大连万德物业管理有限公司,1.5,辽宁,10,二手房,2010
甘井子区泉水D6区51号,大连,大连锦丰和源祥房地产开发有限公司,甘井子,20190416,39.00897610161069,121.61789300655198,泉水家年华,90,13524,街道办事处（居委会）代管物业,0.9,辽宁,10,二手房,2009
金州区先进街道陶然居公建2-2号1层,大连,大连金信集团房地产有限公司,金州,20190416,39.08283372756215,121.76170982507143,金信陶然居,59,9451,北京瑞思特物业管理有限公司,0.5,辽宁,10,二手房,2007
沙河口区富民路249号,大连,大连文路建设集团有限公司,沙河口,20190416,38.93341510428133,121.5770130002514,阳光月秀,44,15786,大连丰泽物业管理有限公司,0.6,辽宁,10,二手房,2006
甘井子区华北路花锦园28号23-3-1-2建筑物,大连,大连东特房地产开发有限公司,甘井子,20190416,38.951627958411166,121.5739439799003,东特新天地,40,16384,大连瑞祥物业管理有限公司,0.5,辽宁,10,二手房,2003
甘井子区促进路200号,大连,大连航宇房屋开发有限公司,甘井子,20190416,38.95810188892782,121.58530036264898,促进小区,27,11847,大连顺达物业服务有限公司,0.2,辽宁,10,二手房,1997
甘井子区红凌路109号,大连,大连锦联地产集团有限公司,甘井子,20190416,38.923388478439314,121.54860212120927,锦绣暖山,77,14963,大连锦明物业服务有限公司,1.2,辽宁,10,二手房,2007
沙河口区富静街26号1单元1层5号,大连,大连正源房地产开发有限公司,沙河口,20190416,38.908727606250466,121.58667844684369,幸福e家五期,172,38042,大连正源物业服务有限公司,1.8,辽宁,11,二手房,2008
沙河口区锦霞南园13号4单元1层3号,大连,大连锦绣房地产开发有限公司,沙河口,20190416,38.947634390493555,121.5510543155904,锦华中园,43,12191,大连锦绣物业管理有限公司,0.5,辽宁,11,二手房,2001
无门店信息,大连,大连益宁房地产开发有限公司,开发区,20190416,34.52713835999158,118.76812980670795,岭湾峰尚一期,157,8613,大连鸿达物业管理有限公司,1.3,辽宁,11,二手房,2011
西岗区平等街21号1层2号,大连,暂无信息,西岗,20190416,38.92251066253164,121.63236845125735,实验小学英华街,76,21748,无物业管理服务,0.6,辽宁,11,二手房,1989
大连市甘井子区柳林园8-7号,大连,大连万科置业有限公司,甘井子,20190416,38.91290525308349,121.47673750074993,万科溪之谷,191,14591,大连万科物业服务有限公司,0.6,辽宁,12,二手房,2007
沙河口区星海广场B3区20—3号,大连,大连飞通房地产开发有限公司,沙河口,20190416,38.88782715536473,121.5869168319735,东方星海,103,17491,大连兆恒物业管理有限公司,2.9,辽宁,12,二手房,2009
沙河口区富民路120号4-1-1,大连,大连渤海红旗集团有限公司,沙河口,20190416,38.930937859528605,121.5647274237578,马栏小学北,75,10543,街道办事处（居委会）代管物业,0.2,辽宁,12,二手房,1994
开发区安盛里5栋-4,大连,大连开建集团有限公司,开发区,20190416,23.112106678834838,113.27801046214822,开建阳光馨苑,87,9611,大连开利物业管理有限公司,1.2,辽宁,12,二手房,2009
沙河口区敦煌路357号10-11轴公建,大连,无开发商,沙河口,20190416,38.93891619583455,121.59150694046835,车家村,32,10167,街道办事处（居委会）代管物业,0.5,辽宁,12,二手房,1989
大连市甘井子中华路街道汇畅街48号,大连,远洋地产有限公司,甘井子,20190416,39.0059299196697,121.59621871231741,远洋荣域,144,18765,远洋亿家物业服务股份有限公司大连分公司,2.8,辽宁,13,二手房,2016
天河路173-2号 华润考拉22号公建,大连,华润置地（大连）开发有限公司,甘井子,20190416,23.14720645345518,113.3277414923158,华润考拉住区,84,15300,华润物业（大连）有限公司,2.5,辽宁,13,二手房,2015
开发区大开高吉里33栋6号,大连,大连金港集团有限公司,开发区,20190416,39.07355836059941,121.8280439450145,高祥里,58,7878,街道办事处（居委会）代管物业,0.3,辽宁,9,二手房,1992
高新园区聚贤路36号5幢1单元1层1号,大连,大连法马克房地产开发有限公司,高新园区,20190416,32.31472011562832,119.46141263909165,中铁诺德滨海花园,67,19949,大连中铁诺德物业服务有限公司,2.3,辽宁,9,二手房,2012
开发区安盛里5栋-4,大连,大连盛铭资产管理有限公司,开发区,20190416,23.112106678834838,113.27801046214822,安盛花园,81,9259,大连经济技术开发区海青物业有限公司,1.1,辽宁,9,二手房,2003
开发区松苑街23号,大连,大连盛和房地产开发有限公司,开发区,20190416,22.52087435807652,113.40156105086167,北欧假日,113,11811,大连鸿达物业管理有限公司,1.1,辽宁,9,二手房,2005
高新园区硅谷假日小区25号楼地下室,大连,大连鑫亿房屋开发有限公司,高新园区,20190416,38.86467854992112,121.53720784613759,硅谷假日,54,19639,大连斌弘物业管理有限公司,0.8,辽宁,8,二手房,2005
甘井子区芳林街17号1单元1层1号,大连,大连亿达房地产股份有限公司,甘井子,20190416,38.96091976856697,121.58863625429588,唯美品格,84,29553,亿达物业管理有限公司,1.5,辽宁,8,二手房,2009
沙河口区长江路946号-9,大连,大连机车商业城有限公司,沙河口,20190416,38.913544290955585,121.59450670056631,兴工街,74,12605,街道办事处（居委会）代管物业,0.2,辽宁,9,二手房,1985
大连市金州新区中长街道碧海尚城5-4号1-2层,大连,无开发商,金州,20190416,39.100290954587514,121.7304796052032,碧海尚城,107,8056,街道办事处（居委会）代管物业,0.8,辽宁,8,二手房,2007
无门店信息,大连,无开发商,甘井子,20190416,34.52713835999158,118.76812980670795,五二三厂,43,8325,无物业管理服务,0.5,辽宁,8,二手房,1950
开发区杏树里10栋-14,大连,大连名城房地产开发有限公司,开发区,20190416,39.08113818354046,121.78505742127606,名城和顺人家,77,9109,大连君悦天下物业管理中心,0.5,辽宁,9,二手房,2010
无门店信息,大连,无开发商,金州,20190416,34.52713835999158,118.76812980670795,滨海丰园,115,8129,街道办事处（居委会）代管物业,0.5,辽宁,9,二手房,2011
开发区黄海西路54号,大连,开发区城建局,开发区,20190416,39.047714586087785,121.76688238228269,青松北里,50,8230,大连经济技术开发区中强物业管理有限公司,0.2,辽宁,9,二手房,1996
沙河口区西南路643号,大连,大连泰安房地产开发有限公司,沙河口,20190416,38.943483429804665,121.5833555851182,幸福小区(沙河口),35,12348,大连三宝物业发展有限公司,0.3,辽宁,9,二手房,1998
沙河口区锦江园30号1层公建,大连,大连锦绣房地产开发有限公司,沙河口,20190416,38.949985113183935,121.56560955976859,锦江园,93,10299,大连锦绣物业管理有限公司,0.3,辽宁,9,二手房,1983
沙河口区西南路643号,大连,无开发商,沙河口,20190416,38.943483429804665,121.5833555851182,交通大学,70,12654,无物业管理服务,-,辽宁,9,二手房,1955
开发区润海园中区62-9,大连,华润（大连）房地产有限公司,开发区,20190416,39.04047273176333,121.76392358042445,华润海中国四期,128,14204,华润物业（大连）有限公司,3.1,辽宁,9,二手房,2014
甘井子区红旗花园23号楼19-24轴公建,大连,大连红旗兴达房地产开发有限公司,甘井子,20190416,38.93108029984587,121.54902145022133,兴达花园,63,12616,大连万泰物业管理有限公司,0.3,辽宁,9,二手房,2000
开发区安盛里5栋-4,大连,大连汽贸房屋开发有限公司,开发区,20190416,23.112106678834838,113.27801046214822,东北明珠,55,12347,大连汽贸物业管理有限公司,1.5,辽宁,9,二手房,2007
甘井子区静林街34号4单元1层2,大连,大连祥盛房屋开发有限公司,甘井子,20190416,38.98321485010885,121.58185179833856,千山心城,114,14404,大连百特物业管理有限公司,0.5,辽宁,9,二手房,2003
金州新区站前街道生辉第一城5号楼1-2层4号,大连,大连公路工程集团生辉房地产开发有限公司,金州,20190416,39.05819721414208,121.74650438736514,生辉第一城,119,10989,大连生辉物业管理有限公司,1.2,辽宁,9,二手房,2007
甘井子区山东路商业街D区12号公建,大连,无开发商,甘井子,20190416,39.001060021502965,121.58883960371418,兴华路,48,12306,街道办事处（居委会）代管物业,0.5,辽宁,9,二手房,1989
甘井子区虹城路503号1-1号,大连,大连新星房地产开发有限公司,甘井子,20190416,38.981193588625004,121.49964051837122,艾维尼小城,89,15862,大连生生物业有限公司,1.8,辽宁,9,二手房,2010
甘井子区泉水D1区37-7号,大连,大连运腾房地产开发有限公司,甘井子,20190416,39.013992871679214,121.61921940045104,锦泉源D3区,66,12579,大连南虹物业管理有限公司,0.5,辽宁,9,二手房,2007
沙河口区星海广场B3区20—3号,大连,大连亿达房地产股份有限公司,沙河口,20190416,38.88782715536473,121.5869168319735,亿达杰特,106,19520,亿达物业管理有限公司,3.8,辽宁,8,二手房,2005
金州区胜利西小区44号楼,大连,大连金宸集团,金州,20190416,39.10507689383061,121.71536524220103,连大文润金宸一二期,49,10228,大连四通物业管理有限公司,0.9,辽宁,8,二手房,2010
金州区同济路44号,大连,大连阿尔滨中辰置业有限公司,金州,20190416,39.10476859984152,121.71234684495865,瀛海金洲,92,8436,大连阿尔滨汇城物业服务有限公司,0.5,辽宁,8,二手房,2011
中山区解放路471-22号,大连,大连圣北开发有限公司,中山,20190416,38.901309943567504,121.65419095766659,亿达云集,104,20058,亿达物业管理有限公司,1.9,辽宁,7,二手房,2015
金州区小平岛B组团4号楼3号商铺,大连,大连圣岛房地产开发有限公司,高新园区,20190416,39.05643299166072,121.78943558267059,小平岛海悦山,68,19726,大连凯尔富物业管理有限公司,1.3,辽宁,7,二手房,2011
大连市高新园区软件园路1A-3号,大连,亿达房地产开发有限公司,高新园区,20190416,38.89360013642285,121.54653763548625,软件园小区,63,14868,业主自筹物业,0.2,辽宁,7,二手房,1995
开发区润海园中区30-1,大连,华润置地（大连）开发有限公司,开发区,20190416,39.04047273176333,121.76392358042445,华润海中国一期,139,16039,华润物业（大连）有限公司,1.8,辽宁,7,二手房,2009
甘井子区红旗西路104-23,大连,大连万科房地产开发有限公司,甘井子,20190416,38.94013845868325,121.5282577714263,万科假日风景,67,17382,大连万科物业服务有限公司,1,辽宁,7,二手房,2007
甘井子区祥龙街2号楼1单元1楼1号,大连,大连恒新房地产开发有限公司,甘井子,20190416,38.988045874482445,121.60439401971377,华东人家,47,14517,大连福佳物业管理有限公司,1,辽宁,7,二手房,2007
甘井子区泉水H3区15号3单元1层2号,大连,大连新型房地产开发有限公司,甘井子,20190416,39.00158439075201,121.62616882572375,龙畔金泉四期,65,13316,大连新型物业管理有限公司,0.4,辽宁,7,二手房,2005
甘井子区山东路315号14栋1单元1跃2层13号,大连,华润置地（大连）开发有限公司,甘井子,20190416,39.00206212579579,121.59357231641214,华润置地广场一期,51,20696,华润物业（大连）有限公司,2.8,辽宁,7,二手房,2013
沙河口区富民路120号4-1-1,大连,大连渤海红旗集团有限公司,沙河口,20190416,38.930937859528605,121.5647274237578,马栏小学南,57,10989,大连辽南物业管理有限公司,0.2,辽宁,7,二手房,1995
开发区高新里6栋-8,大连,无开发商,开发区,20190416,39.0710895068195,121.82860134358343,怡海花园二期,18,7818,街道办事处（居委会）代管物业,0.2,辽宁,7,二手房,2002
沙河口区五一路326号,大连,大连亿达房地产股份有限公司,高新园区,20190416,38.913544290955585,121.59450670056631,亿达学清园,24,23571,大连软件园物业管理有限公司,0.5,辽宁,7,二手房,2001
甘井子区泉水D6区51号,大连,大连锦丰和源祥房地产开发有限公司,甘井子,20190416,39.00897610161069,121.61789300655198,泉水人家幸福里,119,13857,大连泽霖物业管理有限公司,0.9,辽宁,8,二手房,2009
沙河口区恒利园42号-8,大连,大连新型房地产开发有限公司,沙河口,20190416,38.93357562498634,121.57914091532649,中铁十三局,14,12945,大连新兴物业管理有限公司,0.3,辽宁,7,二手房,1993
金州区站前街道盛滨花园B区13号楼2号公建,大连,大连和嘉房地产开发有限公司,金州,20190416,39.09609011892329,121.7335816409767,和嘉佳园,83,6808,街道办事处（居委会）代管物业,0.5,辽宁,8,二手房,2009
甘井子区红旗中路143号1层4号,大连,大连红旗兴达房地产开发有限公司,甘井子,20190416,38.93169566676921,121.5426632438217,兴达依山居,23,13872,大连金诚物业管理有限公司,0.3,辽宁,8,二手房,2004
金州区先进街道渤海街1-4号1-2层,大连,无开发商,金州,20190416,39.09512910553563,121.74578812616167,金元小区,50,6996,街道办事处（居委会）代管物业,0.1,辽宁,7,二手房,1993
金州区南棉路310号,大连,无开发商,金州,20190416,39.09939229372624,121.72414976100345,劳动局小区,88,7814,无物业管理服务,0.1,辽宁,8,二手房,1990
中山区碧浪园4号-3号,大连,大连三寰房地产开发有限公司,中山,20190416,38.89147289460474,121.69329560326236,碧浪园一期,43,13505,大连峰霖物业管理有限公司,0.3,辽宁,8,二手房,1999
开发区润海园中区30-1,大连,暂无信息,开发区,20190416,39.04047273176333,121.76392358042445,华润海中国七期,67,16507,华润物业（大连）有限公司开发区分公司,3.1,辽宁,8,二手房,-
开发区兴城路29-81层,大连,大连亿锋房地产实业有限公司,开发区,20190416,39.050214252167194,121.75835946441768,亿锋广场一期,96,14672,大连广恒物业管理有限公司,2.5,辽宁,8,二手房,2013
甘井子区华龙南园12-4-3-1-3,大连,大连鹏德房屋开发有限公司,甘井子,20190416,38.98528794231248,121.61028969481718,乐活源,71,12853,大连三和住邦物业管理有限公司,0.5,辽宁,8,二手房,2009
无门店信息,大连,大连乐启房地产开发有限公司,甘井子,20190416,34.52713835999158,118.76812980670795,三寰融创城,98,13056,融创物业,2.2,辽宁,8,二手房,2015
沙河口区兰田街33号,大连,无开发商,沙河口,20190416,38.926138912221084,121.56486022834609,辽师,36,12069,无物业管理服务,-,辽宁,8,二手房,1970
沙河口区新生路万客园3-7,大连,大连鹏生房地产开发有限公司,沙河口,20190416,38.94412875710208,121.57006756704837,枫林绿洲,38,14045,大连鹏辉物业管理有限公司,0.3,辽宁,7,二手房,2008
沙河口区兰田街33号,大连,无开发商,沙河口,20190416,38.926138912221084,121.56486022834609,马栏广场东,14,11256,大连辽南物业管理有限公司,0.2,辽宁,8,二手房,1995
沙河口区五一路177-1-1-1,大连,无开发商,沙河口,20190416,38.913544290955585,121.59450670056631,台山,86,11509,街道办事处（居委会）代管物业,0.5,辽宁,8,二手房,1987
甘井子区新兴路36号3-1-3,大连,大连新型房地产开发有限公司,甘井子,20190416,38.95800216293212,121.53151895549547,泡崖一区,96,10626,大连新兴物业管理有限公司,0.5,辽宁,7,二手房,1992
甘井子金地艺境博艺西园2-1号,大连,大连恒昇房地产开发有限公司,甘井子,20190416,39.04402110608829,121.665484498555,福佳新城一期,52,9245,暂无信息,1.6,辽宁,7,二手房,2010
无门店信息,大连,大连益宁房地产开发有限公司,开发区,20190416,34.52713835999158,118.76812980670795,岭湾峰尚二期,76,10117,大连鸿达物业管理有限公司,0.6,辽宁,7,二手房,2010
开发区红梅小区19栋-2-1-1号,大连,香港北海集团,开发区,20190416,29.906498897603264,121.5913630631805,君悦豪庭,52,11175,街道办事处（居委会）代管物业,1.2,辽宁,7,二手房,2004
大连市开发区湾里东5-6号,大连,大连宏港房地产开发有限公司,开发区,20190416,39.07275772231556,121.85888789351343,都悦里,194,6727,大连宏港物业管理有限公司,0.3,辽宁,7,二手房,1992
甘井子区泡崖六小区6号楼1单元1层2号,大连,大连新型房地产开发有限公司,甘井子,20190416,38.98033159306754,121.55920598894072,泡崖五区,79,11231,大连新兴物业管理有限公司,0.5,辽宁,7,二手房,1990
开发区润海园中区18#2号,大连,大连布鲁科房地产开发有限公司,开发区,20190416,39.04047273176333,121.76392358042445,热岛黄金海岸,174,11063,大连戴德梁行物业管理有限公司,1.6,辽宁,7,二手房,2010
金州区金润花园B区47号1单元1层1号2号,大连,暂无信息,金州,20190416,39.10434716151341,121.74517862677146,民馨小区,63,6918,无物业管理服务,0.5,辽宁,7,二手房,-
大连市开发区左岸经典正恒园1-17,大连,大连众益神州地产开发有限公司,开发区,20190416,39.049057070649155,121.76187404250511,万国宫馆三期,118,14380,大连万佳物业管理有限公司,2,辽宁,7,二手房,2011
沙河口区五一路219-1,大连,大连亿达房地产股份有限公司,沙河口,20190416,38.913544290955585,121.59450670056631,桃山小区,64,9728,街道办事处（居委会）代管物业,0.5,辽宁,7,二手房,1998
无门店信息,大连,大连聚达房地产开发有限公司,旅顺口,20190416,34.52713835999158,118.76812980670795,海尚明珠,148,9990,大连合生物业管理有限公司,1.5,辽宁,7,二手房,2016
甘井子金地艺境博艺西园2-1号,大连,大连天意房地产开发有限公司,甘井子,20190416,39.04402110608829,121.665484498555,金地艺境,155,14699,大连金地物业管理有限公司,0.5,辽宁,7,二手房,2011
开发区鹏程家园66#-6、66#-7公建,大连,大连海富花园开发有限公司,开发区,20190416,37.92440451755906,112.59861436589645,海富经典,113,9907,大连银帆物业管理有限公司,1.2,辽宁,7,二手房,2009
金州新区站前街道生辉第一城5号楼1-2层4号,大连,大连新希望家园房地产有限公司,金州,20190416,39.05819721414208,121.74650438736514,新希望乐城,68,10123,大连新希望物业服务有限公司,1.6,辽宁,7,二手房,2013
开发区杏树里10栋-14,大连,无开发商,开发区,20190416,39.08113818354046,121.78505742127606,松苑山庄,76,5776,大连市金州区先进物业管理中心,0.5,辽宁,7,二手房,1999
大连市开发区左岸经典正恒园1-17,大连,大连神洲众益集团有限公司,开发区,20190416,39.049057070649155,121.76187404250511,万国宫馆一期,127,13403,加拿大高力国际物业服务有限公司,2.4,辽宁,7,二手房,2009
红星海A区126-4,大连,远洋地产有限公司,开发区,20190416,39.027851194371685,121.80327394132297,红星海一期城市别馆,100,13815,大连远洋基业物业管理有限公司,2,辽宁,7,二手房,2010
无门店信息,大连,大连金地房地产开发有限公司,金州,20190416,34.52713835999158,118.76812980670795,金地新里程,41,6805,大连金铭物业管理有限公司,0.8,辽宁,7,二手房,2008
无门店信息,大连,大连中海新城置业有限公司,甘井子,20190416,34.52713835999158,118.76812980670795,中海凤凰熙岸,55,13508,大连中海物业管理有限公司,2.3,辽宁,6,二手房,2016
开发区红星海B区212-1,大连,远洋地产有限公司,开发区,20190416,39.027851194371685,121.80327394132297,红星海五期岚谷,112,14110,大连远洋基业物业管理有限公司,2.2,辽宁,7,二手房,2012
沙河口区五一路270-274号,大连,大连亿达房地产股份有限公司,高新园区,20190416,38.913544290955585,121.59450670056631,city one,18,14355,亿达物业管理有限公司,0.5,辽宁,6,二手房,2006
甘井子区虹港路16号楼1层公建,大连,无开发商,甘井子,20190416,38.9645939333502,121.553851837474,迎客路（机场商圈）,38,11867,街道办事处（居委会）代管物业,0.2,辽宁,6,二手房,1990
甘井子区锦城东园1号3单元1层2号,大连,大连锦绣房地产开发有限公司,沙河口,20190416,38.952805477462775,121.55656194973994,锦城东园,34,17953,大连锦绣物业管理有限公司,0.6,辽宁,6,二手房,2006
无门店信息,大连,大连君悦房地产开发有限公司,甘井子,20190416,34.52713835999158,118.76812980670795,君悦晟景,21,12641,大连弘实物业有限公司,1.2,辽宁,6,二手房,2012
甘井子区泉水B2区19-1号,大连,大连运达房地产集团有限公司,甘井子,20190416,39.0101309886317,121.60812584213187,锦泉源B1区,61,13269,大连佳泰物业管理有限公司,0.5,辽宁,6,二手房,2001
甘井子区千山路26号,大连,大连市大钢集团,甘井子,20190416,38.985697948031984,121.58768860037272,山东路,86,13092,街道办事处（居委会）代管物业,0.2,辽宁,6,二手房,1986
开发区红星海B区212-1,大连,远洋地产有限公司,开发区,20190416,39.027851194371685,121.80327394132297,红星海时光的岸,66,13586,大连远洋基业物业管理有限公司,2.2,辽宁,6,二手房,2015
沙河口区锦石路8号,大连,大连锦绣房地产开发有限公司,沙河口,20190416,38.94771288948481,121.56110903658733,锦泉中园,35,11906,大连锦绣物业管理有限公司,0.3,辽宁,6,二手房,1996
沙河口区富国街34-3,大连,大连万达房地产开发有限公司,沙河口,20190416,38.90159716600704,121.58930603357904,星海人家,53,26949,大连万景物业管理有限公司,1.2,辽宁,6,二手房,2001
甘井子区玉湖街18号1单元1-1,大连,大连新型房地产开发有限公司,甘井子,20190416,38.97554522550266,121.54552721066896,书香府第二期,18,11026,大连新型物业管理有限公司,0.5,辽宁,6,二手房,2002
西岗区香炉礁24号1-1,大连,大连新型房地产开发有限公司,西岗,20190416,38.92047268927287,121.61862512554262,金海花园西园,50,11774,无物业管理服务,0.5,辽宁,6,二手房,2001
高新园区硅谷假日小区25号楼地下室,大连,大连志恒房地产开发有限公司,高新园区,20190416,38.86467854992112,121.53720784613759,菁英汇,60,15919,大连海创物业管理有限公司,1.2,辽宁,6,二手房,2007
大连市开发区左岸经典正恒园1-17,大连,大连神洲众益集团有限公司,开发区,20190416,39.049057070649155,121.76187404250511,万国宫馆二期,115,14172,加拿大高力国际物业服务有限公司,2.4,辽宁,6,二手房,2009
开发区红梅小区19栋-2-1-1号,大连,无开发商,开发区,20190416,29.906498897603264,121.5913630631805,古耕国际酒店公寓,51,10261,街道办事处（居委会）代管物业,3,辽宁,6,二手房,2010
大连市甘井子区七贤路8-3号,大连,大连万达商业地产有限公司,高新园区,20190416,38.86602612116956,121.53842265737707,万达海景公寓,122,13046,大连万达物业管理有限公司,2.9,辽宁,6,二手房,2013
甘井子区金北路17号,大连,暂无信息,甘井子,20190416,38.97553393692831,121.59969720502335,金二小学南,46,20184,无物业管理服务,-,辽宁,6,二手房,1976
沙河口区黄河路883号,大连,大连正源房地产开发有限公司,沙河口,20190416,38.919826721475204,121.57749657966676,幸福e家四期,66,33279,大连正源物业服务有限公司,1.2,辽宁,5,二手房,2007
沙河口区西南路851号3单元1层3号,大连,无开发商,沙河口,20190416,38.94344210837944,121.58246796944378,李家街,23,11490,无物业管理服务,0.1,辽宁,6,二手房,1985
甘井子区惠泽南园3-4号,大连,大连长鹭房屋开发有限公司,甘井子,20190416,38.939326611323615,121.52337842113351,晶品缘林,16,16851,大连三和住邦物业管理有限公司,1,辽宁,5,二手房,2008
开发区兴城路29-81层,大连,大连亿锋房地产实业有限公司,开发区,20190416,39.050214252167194,121.75835946441768,亿锋广场二期,51,14770,大连广恒物业管理有限公司,2.5,辽宁,5,二手房,2015
西岗区香炉礁24号1-1,大连,无开发商,西岗,20190416,38.92047268927287,121.61862512554262,工人村,50,10372,街道办事处（居委会）代管物业,0.5,辽宁,5,二手房,1980
沙河口区西南路643号,大连,无开发商,沙河口,20190416,38.943483429804665,121.5833555851182,恒达花园（沙河口）,12,11854,无物业管理服务,-,辽宁,5,二手房,1990
中山区武昌街武昌公寓6号公建,大连,暂无信息,中山,20190416,38.912280913445784,121.64921130527547,学府林居,21,10542,暂无信息,1,辽宁,5,二手房,2000
沙河口区前程街46号4—1—2号,大连,大连渤海红旗集团有限公司,甘井子,20190416,38.913544290955585,121.59450670056631,前程街,38,11732,渤海吉祥物业管理有限公司,0.4,辽宁,5,二手房,2000
西岗区长红街4号1号公建,大连,无开发商,西岗,20190416,38.91377414665191,121.6302525225721,34中林荫巷,12,26680,无物业管理服务,-,辽宁,5,二手房,1997
西岗区鞍山路29号龙畔锦城东门,大连,无开发商,西岗,20190416,38.92763470697088,121.61498923399098,铁路西站,20,12191,无物业管理服务,-,辽宁,5,二手房,1981
无门店信息,大连,暂无信息,甘井子,20190416,34.52713835999158,118.76812980670795,亿达春田蝶园,59,16890,亿达物业管理有限公司,2.2,辽宁,5,二手房,2014
甘井子区虹港路16号楼1层公建,大连,亿达房地产开发有限公司,甘井子,20190416,38.9645939333502,121.553851837474,虹港路（机场商圈）,35,12067,亿达物业管理有限公司,0.2,辽宁,5,二手房,1996
开发区景和园1-7,大连,无开发商,开发区,20190416,30.41892168817929,120.30896459202738,古耕景和园,32,9262,街道办事处（居委会）代管物业,0.5,辽宁,5,二手房,2008
大连市金州新区中长街道碧海尚城5-4号1-2层,大连,大连集品置业有限公司,金州,20190416,39.100290954587514,121.7304796052032,东林世家,44,15086,大连百安物业管理有限公司,1,辽宁,5,二手房,2008
"西岗区泰公街20号2层7号 西岗区久寿街22号1层14号""",大连,大连万达房地产开发有限公司,西岗,20190416,38.92600196862723,121.62141976476381,万达高层,18,11681,大连白云物业管理公司,0.3,辽宁,5,二手房,1995
甘井子区汇达园26号,大连,北亚实业集团股份有限公司大连开发区分公司,甘井子,20190416,38.99704654604941,121.59758808878767,北府花园,64,16969,大连优豪斯物业管理有限公司,0.5,辽宁,6,二手房,2006
沙河口区锦霞南园13号3-1-1,大连,大连锦绣房地产开发有限公司,沙河口,20190416,38.94761264366187,121.55126272246873,锦霞南园,44,10976,大连锦绣物业管理有限公司,0.3,辽宁,6,二手房,1998
甘井子区锦城西园4#3-1-1,大连,大连锦绣房地产开发有限公司,沙河口,20190416,38.95286223185571,121.55129044777,锦华北园,83,13934,大连锦绣物业管理有限公司,0.6,辽宁,6,二手房,2002
甘井子区柳树南街45-10号,大连,中体产业集团大连乐百年置业有限公司,甘井子,20190416,38.92567666296449,121.4841330254372,中体奥林匹克花园,67,13718,广东中奥物业有限公司大连分公司,1.9,辽宁,6,二手房,2010
中山区益民街16号1层1号,大连,大连恒力德实业开发有限公司,中山,20190416,38.93092761298906,121.66470740073377,港湾壹号,74,14367,大连日航酒店物业管理有限公司,3.8,辽宁,6,二手房,2009
西岗区平等街21号1层2号,大连,无开发商,西岗,20190416,38.92251066253164,121.63236845125735,实验小学同庆街,78,22703,无物业管理服务,-,辽宁,6,二手房,1990
中山区华乐街107-115号1单元1层2号,大连,大连海昌房地产开发有限公司,中山,20190416,38.92093821499401,121.68879267531725,海昌欣城,79,16830,大连海昌欣城物业管理有限公司,1.2,辽宁,6,二手房,2002
沙河口区南沙街36号台二2号1-1-37,大连,无开发商,沙河口,20190416,38.90741410359388,121.57685699961822,南沙,80,11063,无物业管理服务,1,辽宁,6,二手房,1995
沙河口区锦石路8号,大连,大连运腾房地产开发有限公司,沙河口,20190416,38.94771288948481,121.56110903658733,锦云南园,62,9869,大连锦绣物业管理有限公司,0.3,辽宁,5,二手房,1996
甘井子区迎客路郭东街一品蓝天公建14号,大连,大连福田房屋开发有限公司,甘井子,20190416,38.958456949708726,121.556756277476,隽佳欣苑,40,14963,大连安洁物业管理服务有限公司,0.5,辽宁,5,二手房,2007
甘井子区小平岛路66-4号,大连,大连软件园瑞安发展有限公司,高新园区,20190416,38.84623138470555,121.51516818634872,悦丽海湾,55,19732,上海丰城物业管理有限公司,2.8,辽宁,5,二手房,2014
中山区职工街96号1-3层公建,大连,大连泛华房屋开发有限公司,中山,20190416,38.92565613737007,121.66193575790903,泛华领城,27,13642,无物业管理服务,3.2,辽宁,5,二手房,2012
无门店信息,大连,大连航宇房屋开发有限公司,甘井子,20190416,34.52713835999158,118.76812980670795,西郊棠梨园,12,11603,渤海吉祥物业管理有限公司,0.5,辽宁,5,二手房,2007
中山区杏林街66—5号,大连,大连开建集团有限公司,中山,20190416,38.92572771377599,121.66490555592502,花香维也纳,50,24070,大连开利物业管理有限公司,0.5,辽宁,5,二手房,2003
大连市开发区裕民新苑42-7,大连,无开发商,开发区,20190416,39.070771020021674,121.85093056856022,澳东世纪,23,11467,街道办事处（居委会）代管物业,0.5,辽宁,5,二手房,2013
沙河口区锦石园24-7号第A2-13幢1单元1层1号,大连,大连锦绣房地产开发有限公司,沙河口,20190416,38.913544290955585,121.59450670056631,锦城园C区,29,15275,大连锦绣物业管理有限公司,0.6,辽宁,5,二手房,2006
甘井子区华龙南园12-4-3-1-3,大连,大连长鹭房屋开发有限公司,甘井子,20190416,38.98528794231248,121.61028969481718,晶品枫林,57,14026,北京房修一物业管理有限公司,0.5,辽宁,5,二手房,2008
开发区安盛里5栋-4,大连,大连华宇房地产开发有限公司,开发区,20190416,23.112106678834838,113.27801046214822,叠翠花香,30,9191,大连经济技术开发区永嘉物业管理有限公司,0.5,辽宁,5,二手房,2000
中山区职工街96号1-3层公建,大连,大连嘉和房地产开发有限公司,中山,20190416,38.92565613737007,121.66193575790903,嘉和花样年华一期,66,20533,大连嘉和物业管理有限公司,3,辽宁,5,二手房,2003
沙河口区前程街46号4—1—2号,大连,大连台安房屋开发有限公司开发,甘井子,20190416,38.913544290955585,121.59450670056631,彩虹园,32,10935,渤海吉祥物业管理有限公司,0.4,辽宁,5,二手房,2000
中山区岭前街53-5,大连,暂无信息,中山,20190416,38.89487069426055,121.65795959631497,胜鼎桃源,20,20753,暂无信息,1.8,辽宁,5,二手房,2015
甘井子区祥龙街2号楼1单元1楼1号,大连,大连美辰房地产开发有限公司,甘井子,20190416,38.988045874482445,121.60439401971377,美辰香醒,56,15626,大连众和物业管理有限公司,1.4,辽宁,5,二手房,2012
沙河口区知心园10号公建,大连,大连软件园开发有限公司,高新园区,20190416,38.893977135945136,121.55667141994431,亿达国际新城,42,22587,亿达物业管理有限公司,1,辽宁,5,二手房,2004
甘井子区哲林北园17-6号,大连,大连恒德房屋开发有限公司,甘井子,20190416,38.9600267109581,121.53876726228256,恒德橄榄季,60,21762,大连恒德物业服务有限公司,1.4,辽宁,5,二手房,2009
无门店信息,大连,大连环宇置业有限公司,开发区,20190416,34.52713835999158,118.76812980670795,环宇品阁,70,6368,大连环宇物业管理有限公司,1.5,辽宁,5,二手房,2010
中山区碧浪园4号-3号,大连,无开发商,中山,20190416,38.89147289460474,121.69329560326236,碧海园,22,18079,大连远洋基业物业管理有限公司,0.5,辽宁,5,二手房,2000
开发区鹏程家园66#-6、66#-7公建,大连,大连新天润企业集团有限公司,开发区,20190416,37.92440451755906,112.59861436589645,水御兰庭,38,10040,大连港力物业管理有限公司,1.1,辽宁,5,二手房,2007
开发区润海园中区65-7号1-2号,大连,华润（大连）房地产有限公司,开发区,20190416,39.04047273176333,121.76392358042445,华润海中国五期,99,14575,华润物业（大连）有限公司,3.1,辽宁,5,二手房,2015
甘井子区泉水E1区27号-3公建,大连,大连时代房地产开发有限公司,甘井子,20190416,39.002846129004375,121.61312453141336,泉水友好园,39,13368,大连爱静物业服务有限公司,0.5,辽宁,5,二手房,1998
甘井子辛吉街150号-7号,大连,大连新星房地产开发有限公司,甘井子,20190416,38.96368508446978,121.52671221254214,新星帕尔美娜,36,15304,大连生生物业有限公司,1,辽宁,5,二手房,2009
甘井子区泉水D6区51号,大连,大连金广集团,甘井子,20190416,39.00897610161069,121.61789300655198,枫丹丽城,88,15748,大连金广物业有限公司,1.5,辽宁,5,二手房,2012
无门店信息,大连,大连乾豪集团有限公司,开发区,20190416,34.52713835999158,118.76812980670795,格林小镇,157,8114,沈阳瑞码阁物业管理有限公司大连分公司,0.6,辽宁,5,二手房,2002
沙河口区绿清街12号,大连,大连绿波房屋开发集团有限公司,沙河口,20190416,38.93851335419565,121.57334844377094,绿波花园,19,13490,大连绿波建设发展有限公司,0.6,辽宁,5,二手房,2001
沙河口区绿清街12号,大连,大连中海新城置业有限公司,沙河口,20190416,38.93851335419565,121.57334844377094,中海英伦观邸,55,23122,大连中海物业管理有限公司,1.8,辽宁,5,二手房,2009
中山区秀月街37号1层2号,大连,无开发商,西岗,20190416,38.88757907576307,121.66311065527876,桃源小学,25,14952,无物业管理服务,-,辽宁,5,二手房,1990
高新园敬贤街23-11号,大连,大连晟远房地产开发有限公司,高新园区,20190416,38.869456648212356,121.53023725049893,恒瑞坦城,68,17699,大连恒德物业服务有限公司,2.4,辽宁,5,二手房,2015
甘井子区红南东街7-7号,大连,大连大实企业集团房屋开发有限公司,甘井子,20190416,38.92880462247992,121.54144910207062,泊林和山,27,11561,大连弘实物业管理有限公司,0.6,辽宁,5,二手房,2007
无门店信息,大连,大连世茂嘉年华置业有限公司,金州,20190416,34.52713835999158,118.76812980670795,世茂御龙海湾,184,11373,经纬物业(中国)有限公司,2,辽宁,5,二手房,2014
中山区共建巷61号,大连,无开发商,中山,20190416,38.91828093658718,121.66259221532148,39中共建巷,30,27081,街道办事处（居委会）代管物业,0.5,辽宁,5,二手房,1990
大连市沙河口区黄河路729号,大连,无开发商,沙河口,20190416,38.91710565765228,121.58954758972729,南昌平小区,58,12617,街道办事处（居委会）代管物业,0.8,辽宁,5,二手房,1986
开发区黄海西路54号,大连,大连凯伦房地产开发股份有限公司,开发区,20190416,39.047714586087785,121.76688238228269,凯伦凯悦,102,8591,大连凯悦物业管理有限公司,3.1,辽宁,5,二手房,2008
甘井子区虹韵路114号,大连,大连亿达美加房地产开发有限公司,甘井子,20190416,38.95653310483457,121.5329869995972,第五郡五号地,79,28101,亿达物业管理有限公司,2,辽宁,5,二手房,2009
金州区金润小区B区861单元102,大连,大连中连房地产开发有限公司,金州,20190416,39.10615165380565,121.74639264534615,自然天城B区,66,7232,大连新生活物业管理有限公司,0.4,辽宁,5,二手房,2010
大连市甘井子区丰收路3-5号,大连,无开发商,甘井子,20190416,38.965377255081755,121.58288415324094,王家桥,67,15418,大连铁路物业管理有限公司,0.1,辽宁,5,二手房,1989
中山区碧浪园4号-3号,大连,大连万达房地产开发有限公司,中山,20190416,38.89147289460474,121.69329560326236,虎滩路,44,12766,大连虎滩置业物业管理有限公司,0.2,辽宁,5,二手房,1999
高新园区黄浦路901S号1单元1层3号,大连,大连金真源集团房地产开发有限公司,高新园区,20190416,38.85845801548294,121.51687109601923,山海一家三期,13,18203,大连龙海物业管理有限公司,1.2,辽宁,5,二手房,2010
沙河口区华北路448号楼1-4公建,大连,无开发商,甘井子,20190416,38.903224944733765,121.56809734950556,周山街,17,15940,街道办事处（居委会）代管物业,0.5,辽宁,5,二手房,1989
开发区润海园中区18#2号,大连,华润（大连）房地产有限公司,开发区,20190416,39.04047273176333,121.76392358042445,华润海中国六期,50,14478,华润物业（大连）有限公司,3.1,辽宁,5,二手房,2016
金州区站前街道盛滨花园B区13号楼2号公建,大连,大连建兴房屋开发有限公司,金州,20190416,39.09609011892329,121.7335816409767,建兴花园,38,7365,街道办事处（居委会）代管物业,0.5,辽宁,5,二手房,1999
甘井子区虹城路503号1-1号,大连,大连易和房地产集团有限公司,甘井子,20190416,38.981193588625004,121.49964051837122,岭秀滨城悦和中园,32,16057,大连易兴物业服务有限公司,1.3,辽宁,4,二手房,2009
开发区金源南里14栋-11号一层部分，14号-12号一层部分,大连,无开发商,开发区,20190416,39.06148862675436,121.82503941311765,金源南里,75,8581,嘉兴物业管理有限公司,0.3,辽宁,4,二手房,2001
大连市甘井子区泉水N2区3-13号,大连,暂无信息,甘井子,20190416,39.021116079001885,121.64659997607325,泉水N2区,45,10905,无物业管理服务,0.7,辽宁,4,二手房,2009
沙河口区黄河路562号,大连,大连新型房地产开发有限公司,沙河口,20190416,38.9167961764482,121.60352063132478,79中科学家公寓,50,22269,大连新兴物业管理有限公司,0.8,辽宁,4,二手房,1995
高新园区黄浦路901S号1单元1层3号,大连,大连海创房地产开发有限公司,高新园区,20190416,38.85845801548294,121.51687109601923,谷歌里,47,14871,大连海创物业管理有限公司,1.2,辽宁,4,二手房,2009
西岗区平等街21号1层2号,大连,无开发商,西岗,20190416,38.92251066253164,121.63236845125735,香榭里,38,9941,大连金地物业管理有限公司,3.6,辽宁,4,二手房,2010
中山区爱华街13号,大连,无开发商,中山,20190416,38.92541607518685,121.6535728031028,九中一德街,13,41001,无物业管理服务,-,辽宁,4,二手房,1984
沙河口区黑石礁街3号1层1-1号,大连,大连辰熙房地产开发有限公司,沙河口,20190416,38.880058010307856,121.56313403908827,辰熙星海国际,19,15889,大连世邦友好物业管理有限公司,2.2,辽宁,4,二手房,2006
中山区金城街26号一楼,大连,无开发商,中山,20190416,38.922282529515634,121.65214466263014,九中洛川街,18,34184,无物业管理服务,-,辽宁,4,二手房,1995
甘井子区凌秀路37号-1链家地产,大连,大连九九集团有限公司,高新园区,20190416,38.883794285403965,121.52361997548515,文荟小区,5,12216,大连理工物业管理中心,0.5,辽宁,4,二手房,1994
甘井子区虹港路391号第五幢1单元1跃2层3号,大连,大连加尔伦房地产开发有限公司,甘井子,20190416,38.96606635942528,121.53201387432493,万科金域华府,28,23079,大连万科物业服务有限公司,3,辽宁,4,二手房,2016
高新园区书香街1A#1-1-2,大连,大连金弘基房地产开发有限公司,高新园区,20190416,38.880372108393104,121.55218773010999,弘基三期,45,20253,大连金弘基物业管理有限公司,0.5,辽宁,4,二手房,2005
甘井子区红旗花园23号楼19-24轴公建,大连,大连科宏房屋开发有限公司,甘井子,20190416,38.93108029984587,121.54902145022133,海港楼,17,8781,大连科海物业有限公司,0.2,辽宁,4,二手房,1996
沙河口区前程街46号4—1—2号,大连,大连渤海红旗集团有限公司,甘井子,20190416,38.913544290955585,121.59450670056631,里程巷,17,8986,大连台安物业管理中心,0.4,辽宁,4,二手房,1990
甘井子辛吉街150号-7号,大连,大连金马房屋开发有限公司,甘井子,20190416,38.96368508446978,121.52671221254214,金马圣隆,27,13038,大连金马圣隆物业管理有限公司,0.5,辽宁,4,二手房,2006
甘井子区华东路33-5号,大连,暂无信息,甘井子,20190416,38.97497080220593,121.59479866243332,松江路（80中）,29,12880,大连新华物业管理有限公司,-,辽宁,4,二手房,1993
中山区中青街87号一单元107,大连,大连亿达房地产股份有限公司,中山,20190416,38.90213494248529,121.65806522267005,青云林海,44,20699,亿达物业管理有限公司,1,辽宁,4,二手房,2001
中山区南山路59号1层4号,大连,大连铁路房地产开发有限责任公司,中山,20190416,38.91992239075882,121.6479206962747,延安小区,18,22098,大连铁路物业管理有限公司,0.5,辽宁,4,二手房,1995
甘井子区惠泽南园3-4号,大连,大连全统房地产开发有限公司,甘井子,20190416,38.939326611323615,121.52337842113351,全统西山丽水,15,14609,大连新华物业管理有限公司,0.5,辽宁,4,二手房,2008
开发区高新里6栋-8,大连,无开发商,开发区,20190416,39.0710895068195,121.82860134358343,高志里小区,38,6453,街道办事处（居委会）代管物业,0.3,辽宁,4,二手房,1993
沙河口区南沙街36号台二2号1-1-37,大连,大连康加立置业有限公司,沙河口,20190416,38.90741410359388,121.57685699961822,台四小区,38,13048,大连弘达物业管理有限公司,-,辽宁,4,二手房,1996
大连市甘井子区融田西园52-11,大连,大连圣安房地产开发有限公司,甘井子,20190416,38.95800216293212,121.53151895549547,亿达春田晴湾,74,17200,亿达物业管理有限公司,2.2,辽宁,4,二手房,2013
甘井子区圣林南园3-3号,大连,大连广泰房屋开发有限公司,甘井子,20190416,38.95191781681833,121.54394961192217,美树日记,65,22130,大连华安物业管理有限公司,1.6,辽宁,4,二手房,2009
中山区民建街10号1单元1号,大连,无开发商,中山,20190416,38.925444479476894,121.66915026954452,39中顺阳街,35,20770,无物业管理服务,-,辽宁,4,二手房,1995
甘井子区金家街17-7号,大连,暂无信息,甘井子,20190416,38.97493697764367,121.60110987128529,金四街,49,19926,无物业管理服务,-,辽宁,4,二手房,1960
开发区黄海西路201号107公建,大连,大连中信海港投资有限公司,开发区,20190416,39.04942604506828,121.80126318235419,润泽园小区,52,9693,大连新华物业管理有限公司,1.9,辽宁,4,二手房,2010
甘井子区华北路花锦园28号23-3-1-2建筑物,大连,大连市中联房地产开发有限公司,甘井子,20190416,38.951627958411166,121.5739439799003,香周路（甘）,23,16265,街道办事处（居委会）代管物业,0.1,辽宁,4,二手房,1987
大连市甘井子区辛如街35号1单元1层1号,大连,大连新星房地产开发有限公司,甘井子,20190416,38.96862607066881,121.52294869064194,新星绿城六期,37,14658,大连生生物业管理有限公司,1,辽宁,4,二手房,2008
甘井子区泉水H3区15号3单元1层2号,大连,大连新型房地产开发有限公司,甘井子,20190416,39.00158439075201,121.62616882572375,龙畔金泉二期,84,12806,大连新型物业管理有限公司,0.5,辽宁,4,二手房,2004
沙河口区联合路133号,大连,大连万达房地产开发有限公司,沙河口,20190416,38.91608561262676,121.60480987310456,79中万泰花园,31,26542,大连万泰物业管理有限公司,0.8,辽宁,4,二手房,1998
沙河口区黑石礁街5号1层1号,大连,无开发商,沙河口,20190416,38.879813345473714,121.56313742300513,黑石礁广场,27,13623,无物业管理服务,-,辽宁,4,二手房,1992
大连市甘井子区张前路620-18号（第19幢1单元1跃2层14号）,大连,无开发商,甘井子,20190416,38.98764207496216,121.52409526893047,嘉安边防家园,16,12079,大连新型物业管理有限公司,1,辽宁,4,二手房,2009
大连市高新园区七贤中路63号,大连,大连宏都房地产开发有限公司,高新园区,20190416,38.86053006357667,121.53273606963094,宏都峰景,28,20525,大连东方百瑞物业管理有限公司,1.9,辽宁,4,二手房,2012
西岗区黄河路90号公建部分,大连,大连鼎森房地产开发有限公司,西岗,20190416,38.92234529815978,121.62829331825485,金宸国际,40,15936,英联华（香港）物业管理顾问有限公司,2.2,辽宁,4,二手房,2004
沙河口区红凌路137号,大连,大连大实企业集团房屋开发有限公司,甘井子,20190416,38.922699288974506,121.54713601744747,叠翠山庄,38,10921,大连弘实物业管理有限公司,0.4,辽宁,4,二手房,2000
甘井子金地艺境博艺西园2-1号,大连,暂无信息,甘井子,20190416,39.04402110608829,121.665484498555,欣家园一期,24,9217,街道办事处（居委会）代管物业,-,辽宁,4,二手房,-
开发区润海园中区30-1,大连,华润（大连）房地产有限公司,开发区,20190416,39.04047273176333,121.76392358042445,华润海中国三期,166,14565,华润物业（大连）有限公司,3.1,辽宁,4,二手房,2013
高新园区敬贤街25-9,大连,大连东盛房地产开发有限公司,高新园区,20190416,38.86879447142154,121.53007349209936,东盛启城,29,17493,大连东盛物业管理有限公司,2.3,辽宁,4,二手房,2012
甘井子区玉丽街2号楼1单元4号公建,大连,大连新型房地产开发有限公司,甘井子,20190416,38.98705071699301,121.55513043130172,泡崖康馨园,31,10286,大连新兴物业管理有限公司,0.2,辽宁,4,二手房,2004
沙河口区西南路643号,大连,无开发商,沙河口,20190416,38.943483429804665,121.5833555851182,西关街,39,11112,无物业管理服务,-,辽宁,4,二手房,1995
甘井子区华龙南园12-4-3-1-3,大连,大连瑞祥房地产开发有限公司,甘井子,20190416,38.98528794231248,121.61028969481718,今都小区,53,12146,大连泰安物业管理有限公司,0.2,辽宁,4,二手房,1996
金州区同济路44号,大连,大连金开信都房地产开发有限公司,金州,20190416,39.10476859984152,121.71234684495865,海天新界,42,8289,大连西海岸物业管理有限公司,1,辽宁,4,二手房,2011
甘井子区柳树南街45-11号,大连,大连顺达房屋开发有限公司,甘井子,20190416,38.92567666296449,121.4841330254372,顺达温泉花园二期,23,11496,大连顺达物业服务有限公司,0.6,辽宁,4,二手房,2004
大连市甘井子区丰收路3-5号,大连,大连铁路房地产开发有限责任公司,甘井子,20190416,38.965377255081755,121.58288415324094,王家桥小区,22,12477,大连铁路物业管理有限公司,0.1,辽宁,4,二手房,1989
甘井子区虹城路503号1-1号,大连,大连易和房地产集团有限公司,甘井子,20190416,38.981193588625004,121.49964051837122,岭秀滨城悦和东园,67,15238,大连易兴物业服务有限公司,1.3,辽宁,4,二手房,2010
中山区鲁迅路204号百盛新药特药商店一楼西侧部分,大连,无开发商,中山,20190416,38.9258993614899,121.6768880001226,鲁迅路（寺儿沟商圈）,10,11988,无物业管理服务,-,辽宁,4,二手房,1990
沙河口区红旗东路18-22号2单元1楼3号,大连,大连益嘉房屋开发有限公司,沙河口,20190416,38.913544290955585,121.59450670056631,益嘉广场,42,16891,大连益嘉物业管理有限公司,1.8,辽宁,4,二手房,2012
大连经济技术开发区时代城4-3号1-2号,大连,远洋地产有限公司,开发区,20190416,39.0992481321252,121.83007860699459,远洋时代城四期,58,9016,大连远洋基业物业管理有限公司,1.5,辽宁,4,二手房,2012
沙河口区富国街34-3,大连,无开发商,沙河口,20190416,38.90159716600704,121.58930603357904,星海街,29,11909,无物业管理服务,-,辽宁,4,二手房,1990
沙河口区西南路161号,大连,无开发商,沙河口,20190416,38.89269676588945,121.56639953951542,孙家沟,67,12224,无物业管理服务,-,辽宁,4,二手房,1990
中山区清溪南街11号,大连,大连锦绣房地产开发有限公司,中山,20190416,38.88919604283904,121.66466481004835,秀月广场,25,12064,无物业管理服务,0.5,辽宁,4,二手房,1994
甘井子区玉丽街2号楼1单元4号公建,大连,暂无信息,甘井子,20190416,38.98705071699301,121.55513043130172,玉山路,33,10256,大连新兴物业管理有限公司,0.5,辽宁,4,二手房,2002
大连市甘井子区钻石湾和信园13-5,大连,远洋地产有限公司,甘井子,20190416,38.958699272665584,121.61903564217761,远洋钻石湾一期,95,23223,大连远洋基业物业管理有限公司,2.7,辽宁,4,二手房,2014
无门店信息,大连,大连安邦房地产开发有限公司,甘井子,20190416,34.52713835999158,118.76812980670795,安邦阳光润城,32,13150,无物业管理服务,-,辽宁,4,二手房,2011
无门店信息,大连,大连亚联房地产开发有限公司,甘井子,20190416,34.52713835999158,118.76812980670795,翡翠春城,78,14741,大连亚联物业管理有限公司,1.6,辽宁,4,二手房,2012
沙河口区星海广场B3区14-9,大连,大连友谊合升房地产开发有限公司,沙河口,20190416,38.88708614275256,121.58732027085938,壹品星海三期,48,24222,大连友谊物业服务有限公司,1.9,辽宁,4,二手房,2007
甘井子区甘井子路32号楼1单元1楼9号,大连,无开发商,甘井子,20190416,38.982488275116516,121.63345389253514,松江小区,36,10457,街道办事处（居委会）代管物业,0.5,辽宁,4,二手房,1995
中山区秀月街37号1层2号,大连,无开发商,中山,20190416,38.88757907576307,121.66311065527876,秀月小区,36,17307,无物业管理服务,0.5,辽宁,4,二手房,1982
中山区民建街10号1单元1号,大连,无开发商,中山,20190416,38.925444479476894,121.66915026954452,39中鲁迅路（三八广场）,1,20009,无物业管理服务,-,辽宁,3,二手房,1995
沙河口区前程街46号4—1—2号,大连,大连渤海红旗集团有限公司,甘井子,20190416,38.913544290955585,121.59450670056631,彩霞园,13,11733,渤海吉祥物业管理有限公司,0.4,辽宁,4,二手房,2000
金州区南棉路310号,大连,无开发商,金州,20190416,39.09939229372624,121.72414976100345,南棉小区,151,7059,街道办事处（居委会）代管物业,0.5,辽宁,4,二手房,1990
甘井子区华龙南园34-5号34-库4号34-5号,大连,大连钧卫达房地产开发有限公司,甘井子,20190416,38.98270467597865,121.6117222765123,亲亲美境,25,12026,大连三和住邦物业管理有限公司,0.9,辽宁,4,二手房,2008
甘井子区惠泽南园3-4号,大连,大连鹏德房屋开发有限公司,甘井子,20190416,38.939326611323615,121.52337842113351,西山阳光水岸,50,16985,大连三和住邦物业管理有限公司,1,辽宁,4,二手房,2007
甘井子区绿洲园60号,大连,大连新华房屋开发有限公司,甘井子,20190416,38.95390300214936,121.59409785747448,新华绿洲,84,18344,大连新华物业管理有限公司,0.6,辽宁,4,二手房,2003
西岗区长春路334号,大连,大连新型房地产开发总公司,西岗,20190416,38.89807766522607,121.63221082858387,林茂小区,31,10197,大连新型物业管理有限公司,0.2,辽宁,4,二手房,1995
甘井子区亿家缘虹韵路205,大连,大连亿达美加房地产开发有限公司,甘井子,20190416,38.95647848453699,121.53130152244339,第五郡四号地,45,27909,亿达物业管理有限公司,2,辽宁,4,二手房,2010
甘井子区西南路979-7号公建,大连,暂无信息,甘井子,20190416,38.96275592929325,121.5958698791777,八十中红咀街,121,15699,街道办事处（居委会）代管物业,0.2,辽宁,4,二手房,1988
中山区东港龙湖水晶郦湾7-102,大连,大连金广地产集团有限公司,中山,20190416,38.924700620463895,121.70344398518496,金广东海岸,77,23684,大连金广物业有限公司,2.2,辽宁,4,二手房,2009
甘井子区红旗中路143号1层4号,大连,大连保利红旗房地产开发有限公司,甘井子,20190416,38.93169566676921,121.5426632438217,保利西山林语,71,20002,保利物业服务有限公司,1.5,辽宁,4,二手房,2014
无门店信息,大连,开发区城建局,开发区,20190416,34.52713835999158,118.76812980670795,东居里,130,6895,大连经济技术开发区海青物业有限公司,0.2,辽宁,4,二手房,1996
高新园区红凌路732-4号,大连,大华集团大连置业有限公司,高新园区,20190416,38.90204708664442,121.53244406374695,大华锦绣华城二期,41,25872,大连大华物业管理有限公司,2.5,辽宁,4,二手房,2013
开发区黄海西路201号107公建,大连,无开发商,开发区,20190416,39.04942604506828,121.80126318235419,岗盛里小区,108,6716,街道办事处（居委会）代管物业,0.5,辽宁,4,二手房,1995
沙河口区锦霞南园1号1层公建,大连,大连锦绣房地产开发有限公司,沙河口,20190416,38.947367114450536,121.55342584213675,锦虹北园,20,11509,大连锦绣物业管理有限公司,0.3,辽宁,4,二手房,1998
金州新区润海园中区18#2号,大连,华润置地（大连）有限公司,开发区,20190416,39.04047273176333,121.76392358042445,华润海中国二期,143,14431,华润物业（大连）有限公司,2.8,辽宁,4,二手房,2011
沙河口区黑石礁街3号1层1-1号,大连,大连建隆置业有限公司,沙河口,20190416,38.880058010307856,121.56313403908827,富丽庭,19,19246,达波尔酒店物业管理（大连）有限公司,2.4,辽宁,4,二手房,2010
甘井子区红旗西路104-23,大连,大连鹏德房屋开发有限公司,甘井子,20190416,38.94013845868325,121.5282577714263,逸林派,29,14844,大连三和住邦物业管理有限公司,1.6,辽宁,4,二手房,2011
甘井子区红旗花园23号楼19-24轴公建,大连,大连银泰房地产有限公司,甘井子,20190416,38.93108029984587,121.54902145022133,祥和园,25,14542,无物业管理服务,0.5,辽宁,4,二手房,2002
无门店信息,大连,大连亿达房地产股份有限公司,高新园区,20190416,34.52713835999158,118.76812980670795,亿达悦龙居,18,15014,亿达物业管理有限公司,2.8,辽宁,3,二手房,2015
无门店信息,大连,大连航逸房地产开发有限公司,甘井子,20190416,34.52713835999158,118.76812980670795,中航华府,46,14475,中航物业管理有限公司大连分公司,2.5,辽宁,3,二手房,2016
甘井子区汇仁街22号,大连,中铁建（大连）置业有限公司,甘井子,20190416,38.99712640764999,121.58834420439493,动力院景三期汇善园,41,15509,大连铁龙安居物业管理有限公司,0.9,辽宁,3,二手房,2007
甘井子区华龙南园12-4-3-1-3,大连,大连融汇置业有限公司,甘井子,20190416,38.98528794231248,121.61028969481718,格林翠庭,13,14893,北京房修一物业管理有限公司,1.3,辽宁,3,二手房,2009
无门店信息,大连,大连宏鼎房地产开发有限公司,旅顺口,20190416,34.52713835999158,118.76812980670795,国宝星月湾,51,11695,大连星海国宝物业管理有限公司,2.5,辽宁,3,二手房,2015
沙河口区展望街29,大连,大连嘉源置业发展有限公司,沙河口,20190416,38.93473052900021,121.57390298303343,御园,46,18180,大连御博物业,2,辽宁,3,二手房,2015
中山区民运巷 47号1层2号,大连,无开发商,中山,20190416,38.905955122300846,121.64798148011702,民运巷,18,10620,无物业管理服务,-,辽宁,3,二手房,1996
沙河口区华北路404号,大连,无开发商,沙河口,20190416,38.8862815932937,121.59082948696123,华北路（春柳商圈）,7,10254,街道办事处（居委会）代管物业,0.1,辽宁,3,二手房,1981
高新园区黄浦路901S号1单元1层3号,大连,大连金真源集团房地产开发有限公司,高新园区,20190416,38.85845801548294,121.51687109601923,山海一家二期,21,13738,大连龙海物业管理有限公司,0.8,辽宁,3,二手房,2005
金州区小平岛B组团4号楼3号商铺,大连,大连圣岛房地产开发有限公司,高新园区,20190416,39.05643299166072,121.78943558267059,小平岛邻海园,26,17339,大连凯尔富物业管理有限公司,1.3,辽宁,3,二手房,2007
沙河口区红旗东路18-22号2单元1楼3号,大连,无开发商,甘井子,20190416,38.913544290955585,121.59450670056631,天泉山庄,14,12893,大连铁龙安居物业管理有限公司,0.5,辽宁,3,二手房,2000
西岗区康平街2号（5号楼3-1-3号）,大连,大连北洋房屋开发公司,西岗,20190416,38.91044414697888,121.61980769264477,胜利花园,20,15389,大连宏成物业管理有限公司,0.5,辽宁,3,二手房,1997
开发区松苑街23号,大连,大连泰乐房地产开发有限公司,开发区,20190416,22.52087435807652,113.40156105086167,碧海华庭,47,6821,大连海滨物业管理有限公司,0.5,辽宁,3,二手房,2005
经济技术开发区城润万家4-5号公建,大连,无开发商,开发区,20190416,39.05716325096989,121.75946281983826,西山小区,6,7789,街道办事处（居委会）代管物业,0.5,辽宁,3,二手房,1996
莲花山路89-3号,大连,大连胜利路拓宽改造工程建设有限公司,沙河口,20190416,38.902848261803356,121.6041720815823,星海融汇,99,21977,大连星海湾商务区物业管理有限公司,1.5,辽宁,3,二手房,2014
金州区光明街道育才街42-6号1-2层,大连,大连市金州区育才房地产开发有限公司,金州,20190416,39.109080894078986,121.7182584929096,职高小区,39,8651,大连金州育才物业管理有限公司,0.5,辽宁,3,二手房,1996
红星海A区126-4,大连,远洋地产有限公司,开发区,20190416,39.027851194371685,121.80327394132297,红星海四期城市别馆二号,72,13107,大连远洋基业物业管理有限公司,2.2,辽宁,3,二手房,2012
高新园区火炬路18号,大连,大连海创房地产开发有限公司,高新园区,20190416,38.937738080520404,117.39340752036043,芝麻街,52,14192,大连海创物业管理有限公司,2.4,辽宁,3,二手房,2010
甘井子区祥龙街2号楼1单元1楼1号,大连,大连宏孚房屋开发有限公司,甘井子,20190416,38.988045874482445,121.60439401971377,宏孚小区,34,10604,无物业管理服务,-,辽宁,3,二手房,1995
甘井子区红旗西路104-7,大连,大连盛达基业房地产开发有限公司,甘井子,20190416,38.940335495502666,121.52722586363274,依山云水,23,14736,大连盛新物业管理有限公司,0.4,辽宁,3,二手房,2004
沙河口区连山街44-2号半地下一层（地上一层部分）,大连,大连亿达房地产股份有限公司,沙河口,20190416,38.892991456958086,121.57299542767161,星海小区,23,11613,无物业管理服务,-,辽宁,3,二手房,1996
西岗区鞍山路65-5号,大连,大连恒利房屋开发有限公司,沙河口,20190416,38.926971569913064,121.60260230348328,中长花园,10,12801,大连金星物业管理中心,0.5,辽宁,3,二手房,2000
大连经济技术开发区时代城4-3号1-2号,大连,暂无信息,开发区,20190416,39.0992481321252,121.83007860699459,摩宿公寓,47,7721,大连远洋基业物业管理有限公司,1.5,辽宁,3,二手房,2012
甘井子区辛寨子街道中冶蓝城辛虹园39-7号公建,大连,大连中冶京诚置业有限公司,甘井子,20190416,38.98155611421408,121.49259383356096,中冶蓝城D区,39,15881,大连添翼物业服务有限公司,2,辽宁,3,二手房,2011
沙河口区星海广场B3区14-2号1层,大连,大连友谊合升房地产开发有限公司,沙河口,20190416,38.88693148294673,121.58735631267305,壹品星海公寓,31,17799,大连富丽华物业管理有限公司,1.5,辽宁,3,二手房,2003
西岗区八一路196号2-1-12号,大连,无开发商,西岗,20190416,38.92047268927287,121.61862512554262,八一路（八一路商圈）,15,10589,无物业管理服务,-,辽宁,3,二手房,1990
无门店信息,大连,大连融昇房地产开发有限公司,甘井子,20190416,34.52713835999158,118.76812980670795,鹿港小镇,10,10959,大连三和住邦物业管理有限公司,1.3,辽宁,3,二手房,2015
西岗区八一路102号,大连,无开发商,西岗,20190416,38.92047268927287,121.61862512554262,杏环街,15,9862,无物业管理服务,-,辽宁,3,二手房,1994
中山区三八广场5号,大连,无开发商,中山,20190416,38.92540000551715,121.6642911149562,良运四季汇,58,22460,大连良运物业管理有限公司,0.8,辽宁,3,二手房,2010
高新园敬贤街23-11号,大连,暂无信息,高新园区,20190416,38.869456648212356,121.53023725049893,中海紫御观邸二期,24,21895,大连中海物业管理有限公司,2.6,辽宁,3,二手房,2013
沙河口区长江路738号,大连,勋业（大连）置业有限公司,西岗,20190416,38.913544290955585,121.59450670056631,远洋风景,51,24270,大连远洋风景物业服务中心,1.9,辽宁,3,二手房,2007
开发区黄海西路201号107公建,大连,中信开发商,开发区,20190416,39.04942604506828,121.80126318235419,金海里,56,6956,大连中信物业管理有限公司,0.1,辽宁,3,二手房,2000
高新园区海苑街36号1单元2号公建,大连,大连鸿越房地产开发有限公司,高新园区,20190416,20.06392317589085,110.32302599457326,康桥小镇,21,20313,大连长青物业管理中心,1.3,辽宁,3,二手房,2010
中山区解放路604号,大连,大连雅风房屋开发有限公司,中山,20190416,38.89026319122045,121.66407876092346,秀月风景,3,17733,大连风景物业管理有限公司,1,辽宁,3,二手房,1996
中山区山屏街116号1-1,大连,无开发商,中山,20190416,38.90729438486833,121.68598159980013,山屏东街,17,11501,无物业管理服务,-,辽宁,3,二手房,1990
沙河口区长江路738号,大连,大连大世界房地产开发有限公司,西岗,20190416,38.913544290955585,121.59450670056631,第九频道,40,25973,大世界商业联合机构,3.6,辽宁,3,二手房,2014
开发区正恒园1-16,大连,暂无信息,开发区,20190416,39.04823944344617,121.76165468797754,正泰园B区,34,12199,无物业管理服务,-,辽宁,3,二手房,2000
无门店信息,大连,暂无信息,旅顺口,20190416,34.52713835999158,118.76812980670795,熙龙山庄,79,8328,大连市辰馨物业服务有限公司,1,辽宁,3,二手房,2005
高新园区红凌路732-4号,大连,大华集团大连置业有限公司,高新园区,20190416,38.90204708664442,121.53244406374695,大华锦绣华城一期,47,25496,大连大华物业管理有限公司,2.5,辽宁,3,二手房,2010
西岗区鞍山路29号龙畔锦城东门,大连,大连凯润房屋开发有限公司,西岗,20190416,38.92763470697088,121.61498923399098,景润二期,17,12200,大连凯润物业管理有限公司,0.3,辽宁,3,二手房,2000
中山区安居巷7号,大连,大连锦联地产集团有限公司,中山,20190416,38.92451111549568,121.65154739366945,经典生活,24,8320,大连锦联物业管理有限公司,2.2,辽宁,3,二手房,2003
无门店信息,大连,大连中瀛房地产开发有限公司,旅顺口,20190416,34.52713835999158,118.76812980670795,中瀛臻堡,54,9612,大连中瀛物业管理服务有限公司,1,辽宁,3,二手房,2010
大连市高新园区七贤中路63号,大连,大连全统房地产开发有限公司,高新园区,20190416,38.86053006357667,121.53273606963094,君海阁,19,18679,大连城建开发集团物业管理有限公司,2.2,辽宁,3,二手房,2013
沙河口区绿波路34号楼5单元1楼3号,大连,大连东北房屋开发有限公司,沙河口,20190416,38.94049893962156,121.57316620632874,帝欧花园,36,17434,大连绿波建设发展有限公司,0.6,辽宁,3,二手房,2005
中山区益民街16号1层1号,大连,无开发商,中山,20190416,38.93092761298906,121.66470740073377,兴盛里（三八广场）,11,13298,无物业管理服务,-,辽宁,3,二手房,1993
无门店信息,大连,大连天启房地产开发有限公司,高新园区,20190416,34.52713835999158,118.76812980670795,百合IT家园,40,12775,大连亮泰安邦物业有限公司,0.6,辽宁,3,二手房,2008
甘井子区甘井子路32号楼1单元1楼9号,大连,无开发商,甘井子,20190416,38.982488275116516,121.63345389253514,杨柳街,12,10558,街道办事处（居委会）代管物业,0.5,辽宁,3,二手房,1998
沙河口区绿清街12号,大连,无开发商,沙河口,20190416,38.93851335419565,121.57334844377094,绿波B区,19,9273,街道办事处（居委会）代管物业,0.1,辽宁,3,二手房,1992
无门店信息,大连,大连亿达房地产股份有限公司,旅顺口,20190416,34.52713835999158,118.76812980670795,亿达玉龙湾,60,9427,亿达物业管理有限公司,1.5,辽宁,3,二手房,2013
金州区金湾路132-2号,大连,大连金新房地产开发有限公司,金州,20190416,39.10269111644727,121.72221060686516,金州福佳新天地广场,80,8450,大连福佳物业管理有限公司,1.8,辽宁,3,二手房,2011
开发区大开高吉里33栋6号,大连,大连开建集团有限公司,开发区,20190416,39.07355836059941,121.8280439450145,高城花园,31,7911,嘉兴物业管理有限公司,0.2,辽宁,3,二手房,2002
甘井子区山东路398号,大连,大连盛铭资产管理有限公司,甘井子,20190416,38.99821826443242,121.59274974973462,亿合城,60,18366,大连盛安物业管理有限公司,1.5,辽宁,3,二手房,2013
中山区爱华街13号,大连,无开发商,中山,20190416,38.92541607518685,121.6535728031028,39中安阳街,33,26334,无物业管理服务,-,辽宁,3,二手房,1993
无门店信息,大连,大连软件园瑞安发展有限公司,高新园区,20190416,34.52713835999158,118.76812980670795,大连天地悦翠台,91,15548,大连万科物业服务有限公司,1,辽宁,3,二手房,2013
大连市甘井子区泉水R2区33-4号第8幢1单元1跃2层9号,大连,大连天意房地产开发有限公司,甘井子,20190416,39.00961080610692,121.63892035059047,金地檀溪,83,18421,大连金地物业管理有限公司,2.8,辽宁,3,二手房,2014
甘井子区汇仁街22号,大连,大连铁龙房地产开发有限公司,甘井子,20190416,38.99712640764999,121.58834420439493,动力院景一期汇仁南园,14,15763,大连铁龙安居物业管理有限公司,0.7,辽宁,3,二手房,2006
金州新区八一路金都嘉园1号楼1号公建,大连,大连锦阳房地产开发有限公司,金州,20190416,39.05525210261778,121.74865634199398,古城天下,10,7248,大连锦阳房地产开发有限公司,1,辽宁,3,二手房,2004
甘井子区玉云路27-3-1-3,大连,暂无信息,甘井子,20190416,38.97896234099927,121.55865563488358,泡崖新六区,34,10673,大连新型物业管理有限公司,0.3,辽宁,3,二手房,2003
甘井子区美域盛景A2区10-6,大连,大连泉水园房屋开发有限公司,甘井子,20190416,39.006221362805846,121.61022278003976,骏腾名苑,76,13622,大连衡德物业管理有限公司,0.5,辽宁,3,二手房,2006
沙河口区黑石礁街3号1层1-1号,大连,无开发商,沙河口,20190416,38.880058010307856,121.56313403908827,浪花街,35,11250,无物业管理服务,-,辽宁,3,二手房,1991
甘井子区泉水K4区1号2单元1层1号,大连,暂无信息,甘井子,20190416,39.01482019232349,121.63242049308988,龙畔金泉五期K3区,45,13752,大连新兴物业管理有限公司,0.5,辽宁,3,二手房,2008
甘井子区海口路77—5号,大连,暂无信息,甘井子,20190416,38.960286398428124,121.60305183172997,鹏辉新世纪四期,56,17585,大连鹏辉物业管理有限公司,0.6,辽宁,3,二手房,2003
无门店信息,大连,大连中连房地产开发有限公司,金州,20190416,34.52713835999158,118.76812980670795,憬园河畔,66,7797,大连新生活物业管理有限公司,0.5,辽宁,3,二手房,2000
中山区高尚路28-1号,大连,无开发商,中山,20190416,38.892673425111305,121.67148833870213,高原街,24,10300,街道办事处（居委会）代管物业,0.5,辽宁,3,二手房,1996
中山区中南路店212号门头房,大连,无开发商,中山,20190416,38.91149759691359,121.67700561077149,转山小区,16,13816,大连怡和物业服务有限公司,0.3,辽宁,3,二手房,1990
金州区鹏程家园53#-8,大连,大连软微房地产开发有限公司,开发区,20190416,39.03523987258615,121.80826248065051,深蓝半英里,20,9953,大连豪斯威物业管理有限公司,1.2,辽宁,3,二手房,2007
西岗区鞍山路29号龙畔锦城东门,大连,大连凯润房屋开发有限公司,西岗,20190416,38.92763470697088,121.61498923399098,景润一期,33,11764,无物业管理服务,-,辽宁,3,二手房,2000
沙河口区富国街14号1-1-2,大连,无开发商,沙河口,20190416,38.901027106600836,121.59047734850638,星云街,18,11421,无物业管理服务,-,辽宁,3,二手房,1995
高新园区海苑街30号1单元1号公建,大连,大连大有文园房屋开发有限公司,高新园区,20190416,20.06392317589085,110.32302599457326,大有文园,63,17591,大连大有恬园物业管理有限公司,2,辽宁,3,二手房,2012
开发区兴城路29-81层,大连,大连亿锋集团有限公司,开发区,20190416,39.050214252167194,121.75835946441768,亿锋广场三期,51,15122,大连广恒物业管理有限公司,2.8,辽宁,3,二手房,2015
无门店信息,大连,大连顺迈房地产开发有限公司,沙河口,20190416,34.52713835999158,118.76812980670795,星海国宝,50,20197,长城物业集团股份有限大连分公司,3,辽宁,3,二手房,2003
甘井子区红旗西路104-7,大连,大连盛达实业总公司,甘井子,20190416,38.940335495502666,121.52722586363274,盛新园,34,11993,大连盛新物业管理有限公司,0.3,辽宁,3,二手房,2000
甘井子区中华路泉水A1区86号4单元1层1号,大连,大连运泽房地产开发有限公司,甘井子,20190416,39.0040531092963,121.60742125620513,润泽园,101,16627,大连城建开发集团物业管理有限公司,1.4,辽宁,3,二手房,2012
无门店信息,大连,大连新兴海韵房地产开发有限公司,开发区,20190416,34.52713835999158,118.76812980670795,山海家园,17,13787,大连经济技术开发区通讯物业有限公司,0.5,辽宁,3,二手房,2004
高新园区红凌路732-4号,大连,大连亿达房地产股份有限公司,高新园区,20190416,38.90204708664442,121.53244406374695,亿达峦翠园,35,20286,亿达物业管理有限公司,1.3,辽宁,3,二手房,2009
沙河口区前程街46号4—1—2号,大连,大连渤海红旗集团有限公司,甘井子,20190416,38.913544290955585,121.59450670056631,兰丰巷,17,10527,大连辽南物业管理有限公司,0.2,辽宁,3,二手房,1992
甘井子区山东路127-2号,大连,大连市大钢集团,甘井子,20190416,38.99065559549029,121.59126483545545,苍山路,39,12432,街道办事处（居委会）代管物业,0.4,辽宁,3,二手房,1989
沙河口区长江路738号,大连,大连大和中盛房地产有限公司,西岗,20190416,38.913544290955585,121.59450670056631,颐和香榭,42,29464,大连颐和物业管理有限公司,2.5,辽宁,3,二手房,2008
甘井子区泉水B2区19-1号,大连,大连金广集团,甘井子,20190416,39.0101309886317,121.60812584213187,金色阳光家园,51,14199,大连金广物业服务有限公司,0.5,辽宁,3,二手房,2002
沙河口区绿清街12号,大连,大连绿波房屋开发集团有限公司,沙河口,20190416,38.93851335419565,121.57334844377094,绿香花园,17,13152,大连大伟物业管理有限公司,0.4,辽宁,3,二手房,2001
大连市金州新区中长街道碧海尚城5-4号1-2层,大连,无开发商,金州,20190416,39.100290954587514,121.7304796052032,于洼小区,57,7277,街道办事处（居委会）代管物业,0.1,辽宁,3,二手房,1990
开发区黄海西路54号,大连,无开发商,开发区,20190416,39.047714586087785,121.76688238228269,翠南隆达院,24,8048,嘉兴物业管理有限公司,0.5,辽宁,3,二手房,1998
无门店信息,大连,大连铁龙房地产开发有限公司,甘井子,20190416,34.52713835999158,118.76812980670795,连海金源,28,14148,大连铁龙安居物业管理有限公司,1.3,辽宁,3,二手房,2012
金州新区先进街道五一路350-1号1-2层,大连,暂无信息,金州,20190416,39.078667146419825,121.77094423323935,聚鑫小区一期,53,7245,大连新生活物业管理有限公司,0.5,辽宁,3,二手房,1993
金州区南棉路310号,大连,无开发商,金州,20190416,39.09939229372624,121.72414976100345,胜利小区,76,7967,无物业管理服务,0.5,辽宁,3,二手房,1986
中山区共建巷61号,大连,无开发商,中山,20190416,38.91828093658718,121.66259221532148,39中中化街,2,25706,街道办事处（居委会）代管物业,0.5,辽宁,2,二手房,1995
沙河口区锦江园30号1层公建,大连,暂无信息,沙河口,20190416,38.949985113183935,121.56560955976859,锦江园南松路,3,11194,绿城物业服务集团有限公司大连分公司,-,辽宁,2,二手房,-
大连市沙河口区西南路875号1层21号,大连,无开发商,沙河口,20190416,38.94485969061231,121.58418648447764,春风巷,5,11797,街道办事处（居委会）代管物业,0.5,辽宁,2,二手房,1993
西岗区鞍山路65-5号,大连,大连晟大房地产开发有限公司,沙河口,20190416,38.926971569913064,121.60260230348328,亿鑫大厦,6,13471,大连德一物业管理有限公司,1,辽宁,2,二手房,2003
金州新区八一路金都嘉园1号楼1号公建,大连,大连天程置业有限公司,金州,20190416,39.05525210261778,121.74865634199398,御河壹號,10,9599,大连天程置业有限公司,1.2,辽宁,2,二手房,2015
大连市沙河口区西南路875号1层21号,大连,暂无信息,沙河口,20190416,38.94485969061231,121.58418648447764,凌云街,3,10920,无物业管理服务,-,辽宁,2,二手房,1999
沙河口区西南路851号3单元1层3号,大连,暂无信息,沙河口,20190416,38.94344210837944,121.58246796944378,学工街,2,9395,大连新兴物业管理有限公司,0.3,辽宁,2,二手房,1993
甘井子区华北路花锦园28号23-3-1-2建筑物,大连,暂无信息,甘井子,20190416,38.951627958411166,121.5739439799003,周水子广场,2,14824,无物业管理服务,0.5,辽宁,2,二手房,1990
无门店信息,大连,无开发商,金州,20190416,34.52713835999158,118.76812980670795,金山名苑,16,9779,大连金山物业管理有限公司,0.5,辽宁,2,二手房,2009
西岗区新田巷11号三单元103,大连,无开发商,西岗,20190416,38.89276612016956,121.64190731791966,新源巷,9,9840,无物业管理服务,-,辽宁,2,二手房,1990
沙河口区黄河路883号,大连,无开发商,沙河口,20190416,38.919826721475204,121.57749657966676,黄河路（辽师商圈）,1,11812,大连辽南物业管理有限公司,0.5,辽宁,2,二手房,1970
莲花山路89-3号,大连,大连建兴房屋开发有限公司,沙河口,20190416,38.902848261803356,121.6041720815823,府佳家园,2,17215,大连富佳物业管理有限公司,0.6,辽宁,2,二手房,2002
无门店信息,大连,大连新跃房地产开发有限公司,金州,20190416,34.52713835999158,118.76812980670795,金海国际花园,222,7928,盘锦瀚新物业管理有限公司,1,辽宁,3,二手房,2010
沙河口区黑石礁街3号1层1-1号,大连,无开发商,沙河口,20190416,38.880058010307856,121.56313403908827,西村街,0,12089,无物业管理服务,-,辽宁,2,二手房,1990
中山区山屏街116号1-1,大连,大连中信海港投资有限公司,中山,20190416,38.90729438486833,121.68598159980013,山屏街,35,11847,暂无信息,-,辽宁,3,二手房,1988
大连市甘井子区泉水N2区3-13号,大连,暂无信息,甘井子,20190416,39.021116079001885,121.64659997607325,泉水N1区,99,9875,无物业管理服务,0.7,辽宁,3,二手房,2008
开发区东北三街94号1层,大连,大连万瑞达房地产投资有限公司,开发区,20190416,39.05723508011585,121.80570768630555,万瑞达国际公馆,17,7929,大连万瑞达物业管理公司,1.2,辽宁,3,二手房,2012
开发区大开高吉里33栋6号,大连,大连开建集团有限公司,开发区,20190416,39.07355836059941,121.8280439450145,高城北花园,34,8725,大连经济技术开发区聚盛达物业管理有限公司,0.2,辽宁,3,二手房,1998
大连市开发区抚顺街30号,大连,无开发商,开发区,20190416,38.92272284555705,121.5977239817503,翠南管委会院,17,9667,街道办事处（居委会）代管物业,0.5,辽宁,3,二手房,1998
甘井子区华北路花锦园28号23-3-1-2建筑物,大连,大连鼎新恒盛房地产开发有限公司,甘井子,20190416,38.951627958411166,121.5739439799003,鼎新悦府,7,23099,大连万润物业服务有限公司,1.5,辽宁,3,二手房,2012
甘井子区西南路979-7号公建,大连,大连祥盛房屋开发有限公司,甘井子,20190416,38.96275592929325,121.5958698791777,金盛家园,50,17660,大连宏华物业管理有限公司,0.5,辽宁,3,二手房,2001
甘井子区金北路17号,大连,暂无信息,甘井子,20190416,38.97553393692831,121.59969720502335,76中学桥南,79,16253,大连新华物业管理有限公司,0.2,辽宁,3,二手房,1970
西岗区八一路196号1-3,大连,大连三环置业有限公司,西岗,20190416,38.92047268927287,121.61862512554262,桃花源小区,46,10129,大连三寰物业管理有限公司,0.5,辽宁,3,二手房,1996
甘井子区西南路979-7号公建,大连,暂无信息,甘井子,20190416,38.96275592929325,121.5958698791777,八十中周家街,71,17164,街道办事处（居委会）代管物业,0.2,辽宁,3,二手房,1990
金州区同济路44号,大连,大连金宸集团,金州,20190416,39.10476859984152,121.71234684495865,连大文润金宸三期,61,11039,大连四通物业管理有限公司,1,辽宁,3,二手房,2010
甘井子区海口路77-4号公建,大连,大连圣韬房地产开发有限公司,甘井子,20190416,38.960286398428124,121.60305183172997,万福居,50,18603,大连圣韬物业管理有限公司,0.5,辽宁,3,二手房,2006
甘井子区芳韵街31号,大连,亿达集团大连房地产开发有限公司,甘井子,20190416,38.95628814568166,121.59125586946814,亿达世纪城,52,24363,亿达物业管理有限公司,0.9,辽宁,3,二手房,2002
西岗区绕山路31号公建一层东侧,大连,无开发商,西岗,20190416,38.90257514466717,121.61412736644739,康庄街,2,9508,无物业管理服务,-,辽宁,2,二手房,1991
高新园敬贤街23-11号,大连,中海东丰地产（大连）有限公司,高新园区,20190416,38.869456648212356,121.53023725049893,中海紫御观邸三期,34,21221,大连中海物业管理有限公司,2.6,辽宁,2,二手房,2014
沙河口区五一路110-4号,大连,大连大重房屋开发有限公司,沙河口,20190416,38.913544290955585,121.59450670056631,星台花园二期,32,26246,大连大重房屋开发公司物业管理中心,0.4,辽宁,2,二手房,1995
西岗区八一路102号,大连,无开发商,西岗,20190416,38.92047268927287,121.61862512554262,安泰巷,5,13387,无物业管理服务,-,辽宁,2,二手房,1990
甘井子区海口路77-4号公建,大连,暂无信息,甘井子,20190416,38.960286398428124,121.60305183172997,鹏辉新世纪一期,11,17332,大连鹏辉物业管理有限公司,0.6,辽宁,2,二手房,2003
西岗区长春路334号,大连,无开发商,西岗,20190416,38.89807766522607,121.63221082858387,石峰街,14,11280,大连大众物业管理有限公司,0.3,辽宁,2,二手房,1995
西岗区八一路196号1-3,大连,无开发商,西岗,20190416,38.92047268927287,121.61862512554262,新泉巷,19,9489,无物业管理服务,-,辽宁,2,二手房,1990
高新园区黄浦路600-602号,大连,大连鑫亿房屋开发有限公司,高新园区,20190416,38.86342472318123,121.53493189660259,新科花园,27,18187,大连鑫晟物业管理有限公司,0.6,辽宁,2,二手房,2003
岭前街53-5,大连,大连铭泰房地产开发有限公司,中山,20190416,38.89487069426055,121.65795959631497,锦府桃源,12,23520,大连豪之英物业管理有限公司,1.2,辽宁,2,二手房,2009
开发区安盛里5栋-4,大连,大连万晟房地产开发有限公司,开发区,20190416,23.112106678834838,113.27801046214822,宜家大院,18,8646,大连万晟置业有限公司,0.8,辽宁,2,二手房,2002
中山区中青街87号一单元107,大连,无开发商,中山,20190416,38.90213494248529,121.65806522267005,葵园巷,11,12382,无物业管理服务,-,辽宁,2,二手房,1996
中山区中青街87号一单元107,大连,无开发商,中山,20190416,38.90213494248529,121.65806522267005,文明巷,3,11490,无物业管理服务,-,辽宁,2,二手房,1990
甘井子区祥龙街2号楼1单元1楼1号,大连,大连源隆房地产开发有限公司,甘井子,20190416,38.988045874482445,121.60439401971377,鑫汇茗苑,9,16785,大连佳和物业管理有限公司,1.6,辽宁,2,二手房,2011
甘井子区鹏辉新世纪1幢1单元1-3号房屋（海口路99号）,大连,暂无信息,甘井子,20190416,38.96077365187575,121.60514653016222,鹏辉新世纪三期北园,25,16717,大连鹏辉物业管理有限公司,0.6,辽宁,2,二手房,2003
中山区高尚路28-1号,大连,无开发商,中山,20190416,38.892673425111305,121.67148833870213,高家沟,23,10327,大连景山物业管理有限公司,0.5,辽宁,2,二手房,1996
中山区中南路店212号门头房,大连,大连鸿业房地产开发有限公司,中山,20190416,38.91149759691359,121.67700561077149,中南风景,15,17895,大连自然物业管理有限公司,0.8,辽宁,2,二手房,2004
沙河口区黄河路535号,大连,大连城市建设集团有限公司,沙河口,20190416,38.91773777159567,121.60217159922856,79中金光小区,42,26171,无物业管理服务,-,辽宁,2,二手房,1993
中山区民建街10号1单元1号,大连,大连港连房地产开发有限公司,中山,20190416,38.925444479476894,121.66915026954452,海港公寓（三八广场）,28,21787,大连海港物业管理有限公司,0.2,辽宁,2,二手房,1996
金州区同济路44号,大连,大连金州金山房地产开发有限公司,金州,20190416,39.10476859984152,121.71234684495865,金山小区,87,7137,大连金山物业管理有限公司,-,辽宁,2,二手房,1999
甘井子区玉丽街39号楼3号公建,大连,大连润置房地产有限公司,甘井子,20190416,38.98706755029984,121.55605471197089,华润二十四城,11,18005,华润物业（大连）有限公司,3.1,辽宁,2,二手房,2018
甘井子区鹏辉新世纪1幢1单元1-3号房屋（海口路99号）,大连,暂无信息,甘井子,20190416,38.96077365187575,121.60514653016222,鹏辉新世纪三期,27,17028,大连鹏辉物业管理有限公司,0.6,辽宁,2,二手房,2003
开发区红星海-B区89-1号,大连,远洋地产有限公司,开发区,20190416,39.027851194371685,121.80327394132297,红星海五期鼎墅,26,26176,大连远洋基业物业管理有限公司,4.8,辽宁,2,二手房,2012
高新园区红凌路732-4号,大连,大华集团大连房地产开发有限公司,高新园区,20190416,38.90204708664442,121.53244406374695,大华爱琴湾,41,21144,大连大华物业管理有限公司,1.8,辽宁,2,二手房,2010
沙河口区知心园10号公建,大连,暂无信息,高新园区,20190416,38.893977135945136,121.55667141994431,亿达康派公寓,26,17718,亿达物业管理有限公司,2.2,辽宁,2,二手房,2006
开发区高新里6栋-8,大连,无开发商,开发区,20190416,39.0710895068195,121.82860134358343,怡海花园一期,20,7452,街道办事处（居委会）代管物业,0.2,辽宁,2,二手房,2001
沙河口区成仁街91号,大连,无开发商,沙河口,20190416,38.91539947107844,121.59585638842556,西安路公寓,18,13076,大连协和物业管理有限公司,0.5,辽宁,2,二手房,2000
沙河口区昌黎街77号楼第1层公建,大连,大连城市建设集团有限公司,沙河口,20190416,38.91974518366595,121.5902918379551,79中君安公寓,9,17526,大连广安物业有限公司,1.2,辽宁,2,二手房,1998
中山区爱华街13号,大连,无开发商,中山,20190416,38.92541607518685,121.6535728031028,九中安民街,27,38782,无物业管理服务,-,辽宁,2,二手房,1995
沙河口区锦霞南园13号3-1-1,大连,大连锦绣房地产开发有限公司,沙河口,20190416,38.94761264366187,121.55126272246873,锦华南园,20,10605,大连锦绣物业管理有限公司,0.3,辽宁,2,二手房,2002
金州区小平岛B组团4号楼3号商铺,大连,安达圣岛开发有限公司,高新园区,20190416,39.05643299166072,121.78943558267059,小平岛亲海园,54,17374,大连凯尔富物业管理有限公司,1.3,辽宁,2,二手房,2007
西岗区绕山路31号公建一层东侧,大连,远洋地产有限公司,沙河口,20190416,38.90257514466717,121.61412736644739,莲花小区,23,11452,无物业管理服务,-,辽宁,2,二手房,1996
沙河口区连山街10号2-1-2,大连,无开发商,沙河口,20190416,38.89637522563413,121.57143690983219,连山街,14,12330,街道办事处（居委会）代管物业,0.5,辽宁,2,二手房,1993
开发区鹏程家园66#-6、66#-7公建,大连,大连神洲众益集团有限公司,开发区,20190416,37.92440451755906,112.59861436589645,众益阳光海岸,85,10511,大连万佳物业管理有限公司,1.2,辽宁,2,二手房,2005
经济技术开发区城润万家4-5号公建,大连,诠盛置业（大连）有限公司,开发区,20190416,39.05716325096989,121.75946281983826,清都记忆,36,12011,金科物业服务集团有限公司,0.5,辽宁,2,二手房,2013
高新园区书香街1A#1-1-2,大连,大连金弘基房地产开发有限公司,高新园区,20190416,38.880372108393104,121.55218773010999,弘基一期,18,20768,大连金弘基物业管理有限公司,0.6,辽宁,2,二手房,2001
甘井子区华北路花锦园28号23-3-1-2建筑物,大连,大连谷和房屋开发有限公司,甘井子,20190416,38.951627958411166,121.5739439799003,大连门小区,23,16404,大连谷和物业管理有限公司,0.3,辽宁,2,二手房,2000
甘井子区华北路花锦园28号23-3-1-2建筑物,大连,无开发商,甘井子,20190416,38.951627958411166,121.5739439799003,华北路（周水子商圈）,9,15693,无物业管理服务,-,辽宁,2,二手房,1995
中山区益民街16号1层1号,大连,无开发商,中山,20190416,38.93092761298906,121.66470740073377,永胜街（三八广场）,12,13916,无物业管理服务,-,辽宁,2,二手房,1993
莲花山路89-3号,大连,大连铁路房地产开发有限责任公司,西岗,20190416,38.902848261803356,121.6041720815823,新华小区(西岗),11,12954,大连铁路物业管理有限公司,0.3,辽宁,2,二手房,1998
开发区鹏程家园66#-6、66#-7公建,大连,大连元新房地产开发有限公司,开发区,20190416,37.92440451755906,112.59861436589645,华夏海景,26,9615,大连元新物业管理有限公司,1,辽宁,2,二手房,2003
沙河口区昌黎街77号楼第1层公建,大连,清远君行房地产有限公司,沙河口,20190416,38.91974518366595,121.5902918379551,君安国际,1,8338,街道办事处（居委会）代管物业,11,辽宁,2,二手房,2010
开发区东北三街94号1层,大连,宏基公司,开发区,20190416,39.05723508011585,121.80570768630555,新领地公寓,37,6215,街道办事处（居委会）代管物业,1.3,辽宁,2,二手房,2010
西岗区八一路102号,大连,无开发商,西岗,20190416,38.92047268927287,121.61862512554262,智勇西二巷,8,9570,无物业管理服务,-,辽宁,2,二手房,1993
沙河口区西南路358号1—2号,大连,大连三寰房地产开发有限公司,沙河口,20190416,38.90839654326566,121.56908246905662,市场公寓,9,14036,大连上达物业管理有限公司,0.4,辽宁,2,二手房,1999
沙河口区黄河路535号,大连,大连城市建设集团有限公司,沙河口,20190416,38.91773777159567,121.60217159922856,79中至诚小区,41,27661,大连天河物业管理有限公司,0.1,辽宁,2,二手房,1958
沙河口区五四路207-1-9号,大连,无开发商,沙河口,20190416,38.913544290955585,121.59450670056631,五四路,12,12183,无物业管理服务,-,辽宁,2,二手房,1992
甘井子区知音园20号3单元1层1号,大连,大连诚信万奕房地产开发有限公司,高新园区,20190416,38.95800216293212,121.53151895549547,万奕学院派,22,26980,大连空港物业管理有限公司,1.2,辽宁,2,二手房,2010
大连市甘井子区银田北园14号,大连,暂无信息,甘井子,20190416,38.9742441034389,121.47189841879823,亿达春田银杏园,61,18869,亿达物业管理有限公司,2.2,辽宁,2,二手房,2011
中山区解放路471-22号,大连,无开发商,中山,20190416,38.901309943567504,121.65419095766659,解放路（青云街商圈）,8,11902,街道办事处（居委会）代管物业,0.6,辽宁,2,二手房,1997
大连市甘井子区辛如街35号1单元1层1号,大连,暂无信息,甘井子,20190416,38.96862607066881,121.52294869064194,苹果公寓（住宅）,48,11455,大连生生物业有限公司,0.8,辽宁,2,二手房,2009
西岗区新田巷27号1-2,大连,无开发商,西岗,20190416,38.893215932589385,121.64103065169111,新昌街,13,10244,无物业管理服务,-,辽宁,2,二手房,1996
经济技术开发区红星海-A区81-2号1层,大连,无开发商,开发区,20190416,39.027851194371685,121.80327394132297,西雅图,32,10231,大连维泰物业管理有限公司,0.8,辽宁,2,二手房,2004
中山区职工街96号1-3层公建,大连,大连名仕房地产开发有限公司,中山,20190416,38.92565613737007,121.66193575790903,名仕国际公寓,17,10642,大连名流物业有限公司,3.8,辽宁,2,二手房,2004
中山区山屏街116号1-1,大连,无开发商,中山,20190416,38.90729438486833,121.68598159980013,怡梦园,6,15057,无物业管理服务,-,辽宁,2,二手房,1900
开发区安盛里5栋-4,大连,中房集团大连房地产有限公司,开发区,20190416,23.112106678834838,113.27801046214822,盛德嘉洲,11,14355,大连中鸣物业服务有限公司,1.8,辽宁,2,二手房,2009
甘井子区红韵路114号,大连,大连亿达美加房地产开发有限公司,甘井子,20190416,38.95800216293212,121.53151895549547,第五郡六号地,43,31695,亿达物业管理有限公司,3,辽宁,2,二手房,2009
甘井子区海口路77—5号,大连,暂无信息,甘井子,20190416,38.960286398428124,121.60305183172997,鹏辉新世纪二期,16,17353,大连鹏辉物业管理有限公司,0.6,辽宁,2,二手房,2003
开发区小孤山西里3栋-11号,大连,大连广隆房地产开发有限公司,开发区,20190416,39.02715282297674,121.80682183666346,文华园,37,10255,大连广隆物业管理有限公司,1.1,辽宁,2,二手房,2007
沙河口区昌黎街77号楼第1层公建,大连,大连高新园区建设开发总公司,沙河口,20190416,38.91974518366595,121.5902918379551,79中昌隆大厦,13,18553,无物业管理服务,-,辽宁,2,二手房,1998
甘井子区玉丽街39号楼3号公建,大连,大连新型房地产开发有限公司,甘井子,20190416,38.98706755029984,121.55605471197089,玉浓街,51,10064,大连新兴物业管理有限公司,0.2,辽宁,2,二手房,2002
沙河口区联合路133号,大连,大连新型房地产开发有限公司,沙河口,20190416,38.91608561262676,121.60480987310456,21中天兴花园一期,26,18956,大连万泰物业管理有限公司,0.5,辽宁,2,二手房,1998
金州区鹏程家园53#-8,大连,大连海富花园开发有限公司,开发区,20190416,39.03523987258615,121.80826248065051,鹏程家园（开发区）,11,7741,广宜物业有限公司,1.2,辽宁,2,二手房,2006
中山区中南路226号,大连,大连亿泰房屋开发有限公司,中山,20190416,38.90029610333926,121.68178899957817,亿泰庄园,12,13504,大连远洋基业物业管理有限公司,0.7,辽宁,2,二手房,1999
开发区黄海西路54号,大连,开发区城建局,开发区,20190416,39.047714586087785,121.76688238228269,青松南里,89,7925,大连经济技术开发区中强物业管理有限公司,0.5,辽宁,2,二手房,2003
西岗区绕山路31号公建一层东侧,大连,无开发商,西岗,20190416,38.90257514466717,121.61412736644739,和云巷,18,10097,无物业管理服务,-,辽宁,2,二手房,1990
大连市甘井子区软件园路122号,大连,大连理工科技城建设开发有限公司,高新园区,20190416,38.89286578891647,121.53266600180116,理工园,12,14087,街道办事处（居委会）代管物业,1,辽宁,2,二手房,2000
甘井子区虹城路503号1-1号,大连,大连易和房地产集团有限公司,甘井子,20190416,38.981193588625004,121.49964051837122,岭秀滨城悦和西园,28,14510,大连易兴物业服务有限公司,1.3,辽宁,2,二手房,2009
开发区黄海西路201号107公建,大连,开发区城建局,开发区,20190416,39.04942604506828,121.80126318235419,金湖里,54,6851,大连中信物业管理有限公司,0.1,辽宁,2,二手房,1998
开发区湾里南12栋-16-17-18号,大连,开发区城建局,开发区,20190416,39.070782084451,121.8506739675913,宜宁里,44,5639,大连宏港物业管理有限公司,0.2,辽宁,2,二手房,1992
甘井子区山东路137号,大连,大连华南房地产开发有限公司,甘井子,20190416,38.99129404608926,121.59172125999353,名贵山庄青年公寓,10,14700,大连弘益达物业管理有限公司,0.5,辽宁,2,二手房,2004
甘井子区汇仁街19号12号楼1单元102室,大连,大连凯祥房地产开发有限公司,甘井子,20190416,38.99746297497168,121.58917714380617,名贵山庄亲情园,26,14755,大连弘益达物业管理有限公司,0.5,辽宁,2,二手房,2002
大连市甘井子区椒房街24号楼2-104链家地产,大连,中铁建（大连）置业有限公司,甘井子,20190416,38.985363789837166,121.61034055597686,青秀蓝湾一期,37,20453,中国铁建地产集团物业公司,1.5,辽宁,2,二手房,2016
西岗区新田巷27号1-2,大连,无开发商,西岗,20190416,38.893215932589385,121.64103065169111,新河街,13,10662,无物业管理服务,-,辽宁,2,二手房,1995
甘井子区凌秀路37号-1链家地产,大连,大连恒瑞房地产开发有限公司,高新园区,20190416,38.883794285403965,121.52361997548515,大湖山语,30,20407,大连龙湖物业服务有限公司,2.8,辽宁,2,二手房,2015
大连市金州区站前街道生辉第一城14-3号1-2层,大连,大连新天润企业集团有限公司,开发区,20190416,39.0569681786798,121.74773530665969,凯旋国际,114,7004,第一东方(大连)物业服务有限公司,2.3,辽宁,2,二手房,2008
中山区武昌街武昌公寓6号公建,大连,无开发商,中山,20190416,38.912280913445784,121.64921130527547,武昌街,21,12311,大连经济技术开发区永嘉物业管理有限公司,0.3,辽宁,2,二手房,1990
甘井子区辛寨子街道中冶蓝城辛虹园39-7号公建,大连,大连中冶京诚置业有限公司,甘井子,20190416,38.98155611421408,121.49259383356096,中冶蓝城E区,37,15115,大连添翼物业服务有限公司,2,辽宁,2,二手房,2010
金州区凤祥路236-2,大连,大连鸿玮置业有限公司,金州,20190416,39.084027010847905,121.76984765822874,鸿玮澜山二期,43,14094,大连鸿玮物业服务有限公司,1.8,辽宁,2,二手房,2015
无门店信息,大连,大连安邦房地产开发有限公司,甘井子,20190416,34.52713835999158,118.76812980670795,西郊闲庭,20,12521,大连龙城物业服务有限公司,1,辽宁,2,二手房,2010
无门店信息,大连,大连顺浩置业有限公司,开发区,20190416,34.52713835999158,118.76812980670795,上品公馆,28,8744,大连顺浩置业物业有限公司,3.8,辽宁,2,二手房,2013
无门店信息,大连,大连长鹭房屋开发有限公司,甘井子,20190416,34.52713835999158,118.76812980670795,晶品森岚,15,15713,大连旺宇物业有限公司,1.3,辽宁,2,二手房,2009
甘井子区华东路33-5号,大连,暂无信息,甘井子,20190416,38.97497080220593,121.59479866243332,小野田,9,12378,大连新华物业管理有限公司,-,辽宁,2,二手房,1993
甘井子区凌秀路37号-1链家地产,大连,无开发商,高新园区,20190416,38.883794285403965,121.52361997548515,海事附小,13,13994,街道办事处（居委会）代管物业,0.5,辽宁,2,二手房,1990
天河路173-2号 华润考拉22号公建,大连,无开发商,甘井子,20190416,23.14720645345518,113.3277414923158,七江路,23,12084,街道办事处（居委会）代管物业,0.2,辽宁,2,二手房,1995
开发区东北三街94号1层,大连,大连同济房地产开发有限公司,开发区,20190416,39.05723508011585,121.80570768630555,新东方公寓二期,47,5707,大连同济物业管理有限公司,1.5,辽宁,2,二手房,2007
沙河口区兰田街33号,大连,大连万合房地产开发有限公司,沙河口,20190416,38.926138912221084,121.56486022834609,万合新家园,7,17658,大连佳宜物业管理有限公司,0.6,辽宁,2,二手房,2004
中山区鲁迅路204号百盛新药特药商店一楼西侧部分,大连,无开发商,中山,20190416,38.9258993614899,121.6768880001226,春港街,3,12148,无物业管理服务,-,辽宁,2,二手房,1999
金州区先进街道渤海街1-4号1-2层,大连,无开发商,金州,20190416,39.09512910553563,121.74578812616167,百畅园,21,6808,街道办事处（居委会）代管物业,0.5,辽宁,2,二手房,2000
甘井子区促进路30号2-1-1,大连,中信集团大连中信房地产开发公司,甘井子,20190416,38.954133128707575,121.58355746311207,和兴家园,13,16190,大连中信物业管理有限公司,0.5,辽宁,2,二手房,2003
沙河口区星海广场B3区20—3号,大连,金世纪房地产,沙河口,20190416,38.88782715536473,121.5869168319735,金玉星海,18,14246,大连吉田物业管理有限公司,1.3,辽宁,2,二手房,2005
沙河口区沙能街101号1单元1层1号,大连,大连政府城区改造办公室,沙河口,20190416,38.9366316275348,121.59031205759763,新居佳园,3,12872,大连大力物业管理有限公司,1.5,辽宁,2,二手房,2012
甘井子区金北街17号,大连,暂无信息,甘井子,20190416,38.95800216293212,121.53151895549547,山宝花园,23,20925,无物业管理服务,-,辽宁,2,二手房,1970
西岗区大同街125号,大连,大连新型房地产开发有限公司,西岗,20190416,38.920458602340894,121.61445835429899,银寰花园,31,11205,街道办事处（居委会）代管物业,0.3,辽宁,2,二手房,1995
开发区大开高吉里33栋6号,大连,无开发商,开发区,20190416,39.07355836059941,121.8280439450145,高吉里,26,6613,广宜物业有限公司,0.2,辽宁,2,二手房,2002
大连市高新园区七贤中路63号,大连,大连招宇房地产有限公司,高新园区,20190416,38.86053006357667,121.53273606963094,招商兰溪谷,28,22076,招商局物业管理有限公司大连分公司,2.6,辽宁,2,二手房,2015
中山区高尚路28-1号,大连,大连锦绣房地产开发有限公司,中山,20190416,38.892673425111305,121.67148833870213,高云街,19,8961,街道办事处（居委会）代管物业,0.3,辽宁,2,二手房,1994
中山区鲁迅路184号1层B—A,大连,大连绿地新城置业有限公司,中山,20190416,38.92590875965419,121.67594393403164,大连绿地中心,14,19609,上海科瑞物业管理发展有限公司大连第二分公司,4.2,辽宁,2,二手房,2015
无门店信息,大连,大连祥和房屋开发有限公司,甘井子,20190416,34.52713835999158,118.76812980670795,祥和花园,49,12100,大连市大北物业管理有限公司,0.4,辽宁,2,二手房,2007
沙河口区红凌路137号,大连,大连大实企业集团房屋开发有限公司,甘井子,20190416,38.922699288974506,121.54713601744747,泊林阳光B区,7,14136,大连弘实物业管理有限公司,0.6,辽宁,2,二手房,2007
开发区东北三街94号1层,大连,鑫鸿房地产开发公司,开发区,20190416,39.05723508011585,121.80570768630555,雍景国际,39,6484,街道办事处（居委会）代管物业,1.2,辽宁,2,二手房,2002
开发区松苑街23号,大连,大连天安房地产开发有限公司,开发区,20190416,22.52087435807652,113.40156105086167,天安海景花园,14,12759,大连港力物业管理有限公司,1.2,辽宁,2,二手房,2006
无门店信息,大连,大连乾豪集团有限公司,开发区,20190416,34.52713835999158,118.76812980670795,乾豪新界,70,11291,大连乾豪物业管理有限公司,1.7,辽宁,2,二手房,2015
沙河口区连山街10号2-1-2,大连,大连国合嘉汇房地产开发有限公司,沙河口,20190416,38.89637522563413,121.57143690983219,心宁苑,4,16815,大连国合物业管理有限公司,0.6,辽宁,2,二手房,2001
沙河口区西南路96号1层2号,大连,无开发商,沙河口,20190416,38.890863095482466,121.56788114713203,西沟小区,29,12187,无物业管理服务,-,辽宁,2,二手房,1990
沙河口区西南路40号楼,大连,亿达房地产开发有限公司,沙河口,20190416,38.94143337232082,121.58616557598133,星浦庄园,18,12201,大连香都物业管理有限公司,0.5,辽宁,2,二手房,1997
金州区小平岛B组团4号楼3号商铺,大连,大连安达房地产开发有限公司,高新园区,20190416,39.05643299166072,121.78943558267059,小平岛E东组团,35,21057,大连凯尔富物业管理有限公司,1.3,辽宁,2,二手房,2007
开发区金源南里14栋-11号一层部分，14号-12号一层部分,大连,大连经济技术开发区金源实业有限公司,开发区,20190416,39.06148862675436,121.82503941311765,金源名府,24,10532,街道办事处（居委会）代管物业,1,辽宁,2,二手房,2009
中山区秀月街37号1层2号,大连,大连澳南房屋开发有限公司,中山,20190416,38.88757907576307,121.66311065527876,明秀山庄B区,26,35125,绿城物业服务集团有限公司大连分公司,1.9,辽宁,2,二手房,2008
开发区大开高吉里33栋6号,大连,大连联富地产有限公司,开发区,20190416,39.07355836059941,121.8280439450145,城宁家园,4,9621,大连联富物业有限公司,1.5,辽宁,2,二手房,2015
西岗区康平街2号（5号楼3-1-3号）,大连,无开发商,西岗,20190416,38.91044414697888,121.61980769264477,长太巷,8,11385,无物业管理服务,-,辽宁,2,二手房,1990
沙河口区恒利园42号-8,大连,大连天河房地产开发集团有限公司,沙河口,20190416,38.93357562498634,121.57914091532649,天河新苑,33,12859,大连天河物业管理有限公司,0.4,辽宁,2,二手房,2000
开发区红星海-B区89-1号,大连,远洋地产有限公司,开发区,20190416,39.027851194371685,121.80327394132297,红星海三期郡墅,34,21903,大连远洋基业物业管理有限公司,2.2,辽宁,2,二手房,2010
沙河口区敦煌路357号10-11轴公建,大连,大连银泰房地产有限公司,沙河口,20190416,38.93891619583455,121.59150694046835,敦煌大厦,8,9512,大连银泰物业管理有限公司,0.5,辽宁,2,二手房,1999
西岗区平等街21号1层2号,大连,辽宁宁安房地产开发有限公司,西岗,20190416,38.92251066253164,121.63236845125735,良玖国际,30,16002,大连良玖物业管理有限责任公司,3.7,辽宁,2,二手房,2005
中山区职工街96号1-3层公建,大连,大连嘉和房地产集团有限公司,中山,20190416,38.92565613737007,121.66193575790903,嘉和广场,77,20228,大连华安物业管理有限公司,3.8,辽宁,2,二手房,2014
甘井子区泉水K2区1号-7,大连,暂无信息,甘井子,20190416,39.01148211821007,121.63131997900962,龙畔金泉五期K2区,53,12845,大连新兴物业管理有限公司,0.5,辽宁,2,二手房,2008
大连市甘井子区燕南园50号,大连,大连软件园发展有限公司,高新园区,20190416,38.90172480153224,121.5363466289672,东方圣克拉二期,52,27765,亿达物业管理有限公司,2.6,辽宁,2,二手房,2011
大连市经济技术开发区东城园98-14,大连,大连聚美房地产开发有限公司,开发区,20190416,39.06925526014871,121.8505146710752,聚美东湾,55,12128,大连聚美房地产开发有限公司,1.6,辽宁,2,二手房,2016
沙河口区西南路40号楼,大连,无开发商,沙河口,20190416,38.94143337232082,121.58616557598133,杭州街,19,11979,无物业管理服务,-,辽宁,2,二手房,1990
西岗区三元街73号3单元1层2,大连,暂无信息,西岗,20190416,38.91459734722941,121.63112153703432,34中三元街,40,27623,无物业管理服务,-,辽宁,2,二手房,1990
大连市甘井子区七贤路8-3号,大连,大连树源世嘉房地产开发有限公司,高新园区,20190416,38.86602612116956,121.53842265737707,国滨馆,13,24449,大连树源物业管理有限公司,3.5,辽宁,2,二手房,2015
西岗区八一路196号2-1-12号,大连,大连欧美亚房地产开发有限公司,西岗,20190416,38.92047268927287,121.61862512554262,名城国际公馆,11,16038,无物业管理服务,-,辽宁,2,二手房,2007
甘井子区华北路花锦园28号23-3-1-2建筑物,大连,大连东特房地产开发有限公司,沙河口,20190416,38.951627958411166,121.5739439799003,东特新居,17,13002,大连东特祥禾物业管理有限公司,0.5,辽宁,2,二手房,2000
甘井子区金家街17-7号,大连,大连嘉兴房地产开发有限公司,甘井子,20190416,38.97493697764367,121.60110987128529,青林美地,36,20978,大连嘉盛物业管理有限公司,0.5,辽宁,2,二手房,2003
甘井子区泉水D1区10-2#1-1-7,大连,大连运达房地产集团有限公司,甘井子,20190416,39.01504676175047,121.61751269364314,锦泉源B4区,45,11837,大连佳泰物业管理有限公司,0.5,辽宁,2,二手房,2002
沙河口区连山街10号2-1-2,大连,无开发商,沙河口,20190416,38.89637522563413,121.57143690983219,桃山电业楼,3,13042,无物业管理服务,-,辽宁,2,二手房,1998
开发区杏树里10栋-14,大连,大连经济技术开发区城市建设开发有限公司,开发区,20190416,39.08113818354046,121.78505742127606,颐馨园,11,8949,大连经济技术开发区杏林物业管理有限公司,0.8,辽宁,2,二手房,2005
甘井子区金北街17号,大连,大连恒新房地产开发有限公司,甘井子,20190416,38.95800216293212,121.53151895549547,福佳绿都,35,26981,大连福佳物业管理有限公司,1.3,辽宁,2,二手房,2008
大连市甘井子区丰收路3-5号,大连,大连万鼎置业有限公司,甘井子,20190416,38.965377255081755,121.58288415324094,万科蓝山,29,26958,大连万科物业服务有限公司,2.9,辽宁,2,二手房,2015
沙河口区黄河路535号,大连,大连首星房地产开发有限公司,沙河口,20190416,38.91773777159567,121.60217159922856,金色年华公馆,45,26113,大连首星物业管理有限公司,2.8,辽宁,2,二手房,2011
中山区民建街10号1单元1号,大连,无开发商,中山,20190416,38.925444479476894,121.66915026954452,39中金域朝阳,4,18245,无物业管理服务,-,辽宁,2,二手房,2000
无门店信息,大连,昕德（大连）房地产开发有限公司,金州,20190416,34.52713835999158,118.76812980670795,伟桥金北嘉园,55,7407,街道办事处（居委会）代管物业,0.5,辽宁,2,二手房,2012
开发区润海园中区62-9,大连,大连金广嘉亿置地有限公司,开发区,20190416,39.04047273176333,121.76392358042445,大连海湾城一期,107,12463,大连金广物业服务有限公司,2.6,辽宁,2,二手房,2012
西岗区绕山路31号公建一层东侧,大连,大连胜利路拓宽改造工程建设有限公司,西岗,20190416,38.90257514466717,121.61412736644739,星海绿山城D区,13,21691,无物业管理服务,1.5,辽宁,2,二手房,2016
甘井子区汇仁街19号12号楼1单元102室,大连,大连华南房地产开发有限公司,甘井子,20190416,38.99746297497168,121.58917714380617,名贵山庄华彩园,8,12924,大连弘益达物业管理有限公司,0.5,辽宁,2,二手房,2004
大连市金州区友谊街道南金华城25号1-2层1号,大连,大连金华房地产开发有限公司,金州,20190416,39.128677228885614,121.71356109978767,金华小区二期,34,7880,大连金华兴物业有限公司,0.5,辽宁,2,二手房,2006
中山区高尚路28-1号,大连,大连家园建设集团有限公司,中山,20190416,38.892673425111305,121.67148833870213,卡纳意乡,38,21461,大连四季物业服务有限公司,1.8,辽宁,2,二手房,2008
西岗区康平街2号（5号楼3-1-3号）,大连,无开发商,西岗,20190416,38.91044414697888,121.61980769264477,教师大厦,21,13172,大连教师大厦物业管理有限公司,0.2,辽宁,2,二手房,1995
无门店信息,大连,暂无信息,旅顺口,20190416,34.52713835999158,118.76812980670795,龙王塘一号,52,8879,街道办事处（居委会）代管物业,1.2,辽宁,2,二手房,-
无门店信息,大连,大连鹏玥房地产开发有限公司,开发区,20190416,34.52713835999158,118.76812980670795,中环城市广场,19,9272,大连鹏玥物业公司,1.5,辽宁,2,二手房,2015
甘井子区新兴路36号3-1-3,大连,大连新型房地产开发有限公司,甘井子,20190416,38.95800216293212,121.53151895549547,泡崖二区,85,10385,大连新兴物业管理有限公司,0.5,辽宁,2,二手房,1997
沙河口区连山街44-2号半地下一层（地上一层部分）,大连,大连大和中盛房地产有限公司,沙河口,20190416,38.892991456958086,121.57299542767161,颐和星海,84,24380,大连颐和物业管理有限公司,2.5,辽宁,2,二手房,2013
金州区拥政街道733号-8号1-2层,大连,大连市金州区房屋开发公司,金州,20190416,39.11690610445662,121.73030803603723,桂林小区,69,7058,街道办事处（居委会）代管物业,0.5,辽宁,2,二手房,1993
无门店信息,大连,无开发商,西岗,20190416,34.52713835999158,118.76812980670795,付家庄街,17,11278,无物业管理服务,-,辽宁,2,二手房,1990
大连市甘井子区椒房街24号楼2-104链家地产,大连,大连圣韬房地产开发有限公司,甘井子,20190416,38.985363789837166,121.61034055597686,万福山庄,15,14619,大连海旭物业管理有限公司,0.5,辽宁,2,二手房,2005
沙河口区黄河路535号,大连,大连民兴房地产开发有限公司,沙河口,20190416,38.91773777159567,121.60217159922856,79中民兴花园二期,28,26934,大连衡德物业管理有限公司,1.2,辽宁,2,二手房,2003
大连市沙河口区西南路875号1层21号,大连,无开发商,沙河口,20190416,38.94485969061231,121.58418648447764,西南路（春柳商圈）,10,10648,大连三宝物业有限公司,0.5,辽宁,2,二手房,1990
沙河口区黄河路883号,大连,无开发商,沙河口,20190416,38.919826721475204,121.57749657966676,沙区医院,25,12172,无物业管理服务,-,辽宁,2,二手房,1990
金州区凤祥路236-2,大连,大连德泰控股有限公司,金州,20190416,39.084027010847905,121.76984765822874,德泰岭秀逸城,66,11282,大连德泰物业管理有限公司,1.9,辽宁,2,二手房,2013
中山区中青街43号,大连,大连亿达房地产股份有限公司,中山,20190416,38.90150598268117,121.65711014604845,青云映山,19,28578,亿达物业管理有限公司,1.3,辽宁,2,二手房,2005
金州区同济路44号,大连,大连峰景房地产开发有限公司,金州,20190416,39.10476859984152,121.71234684495865,峰景西海岸,52,9052,大连峰景物业有限公司,0.8,辽宁,2,二手房,2009
甘井子区山东路398号,大连,华润置地（大连）开发有限公司,甘井子,20190416,38.99821826443242,121.59274974973462,华润置地广场三期,52,22741,华润物业（大连）有限公司,2.9,辽宁,2,二手房,2016
沙河口区富民路120号4-1-1,大连,大连银地置业发展有限公司,沙河口,20190416,38.930937859528605,121.5647274237578,观山蝶恋花,35,15083,大连新展物业管理有限公司,1,辽宁,2,二手房,2011
甘井子区佳林北园2-7号,大连,大连瑞泰祥房地产开发有限公司,甘井子,20190416,38.96331610956877,121.52802328494242,缇香漫城,48,20540,大连瑞泰祥物业服务有限公司,2,辽宁,2,二手房,2013
沙河口区南沙街36号台二2号1-1-37,大连,大连鹏生房地产开发有限公司,沙河口,20190416,38.90741410359388,121.57685699961822,鹏顺园,50,25230,大连新型物业管理有限公司,0.5,辽宁,2,二手房,2001
甘井子区西南路950—1号1层1号,大连,暂无信息,甘井子,20190416,38.96304110156522,121.59665499819343,八十中东海街,34,16194,街道办事处（居委会）代管物业,0.2,辽宁,2,二手房,1980
开发区东北三街94号1层,大连,开发区城建局,开发区,20190416,39.05723508011585,121.80570768630555,倚园里小区,56,7482,大连佳兴物业管理有限公司,0.3,辽宁,2,二手房,1999
沙河口区杨树街4-4号公建,大连,大连金弘基房地产开发有限公司,高新园区,20190416,38.88444587249751,121.55130620045541,弘基二期,30,22501,大连金弘基物业管理有限公司,0.6,辽宁,2,二手房,2003
甘井子区金家街17-7号,大连,无开发商,甘井子,20190416,38.97493697764367,121.60110987128529,金二小学北,17,20797,无物业管理服务,-,辽宁,2,二手房,1970
沙河口区民权街324号,大连,大连天河房地产开发集团有限公司,沙河口,20190416,38.92064616208148,121.59777611850379,民权小区,43,12729,大连福港物业管理有限公司,0.2,辽宁,2,二手房,1992
大连市甘井子中华路街道汇畅街48号,大连,远洋地产有限公司,甘井子,20190416,39.0059299196697,121.59621871231741,远洋自然,61,17924,大连远洋基业物业管理有限公司,1.3,辽宁,2,二手房,2010
开发区小孤山西里3栋-11号,大连,大连开建房地产开发有限公司,开发区,20190416,39.02715282297674,121.80682183666346,瑞仕尚城,49,11237,大连阿尔滨汇城物业服务有限公司,1.1,辽宁,2,二手房,2008
西岗区鞍山路29号龙畔锦城东门,大连,大连铁路房地产开发有限责任公司,西岗,20190416,38.92763470697088,121.61498923399098,龙畔锦城,46,20078,大连亚航物业管理有限公司,1.2,辽宁,2,二手房,2009
沙河口区连山街10号2-1-2,大连,大连城市建设集团有限公司,沙河口,20190416,38.89637522563413,121.57143690983219,莱州街,19,10796,无物业管理服务,-,辽宁,2,二手房,1990
甘井子区红南东街7-7号,大连,大连良运房地产开发有限公司,甘井子,20190416,38.92880462247992,121.54144910207062,山居笔记,17,16323,大连良运物业管理有限公司,1.5,辽宁,2,二手房,2009
西岗区中山路158号唐山街市场外14号,大连,大连胜利路拓宽改造工程建设有限公司,西岗,20190416,38.91688106727098,121.63201298398174,星海绿山城,36,30221,无物业管理服务,1.5,辽宁,2,二手房,2015
沙河口区五一路110-4号,大连,大连亿达房地产股份有限公司,沙河口,20190416,38.913544290955585,121.59450670056631,兰亭山水,32,21091,亿达物业管理有限公司,0.6,辽宁,2,二手房,2003
天河路173-2号 华润考拉22号公建,大连,大连世隆房地产开发有限公司,甘井子,20190416,23.14720645345518,113.3277414923158,桑尼小镇,20,15511,大连大家物业管理有限公司,1.9,辽宁,2,二手房,2014
西岗区八一路102号,大连,无开发商,西岗,20190416,38.92047268927287,121.61862512554262,河沿巷,16,12427,无物业管理服务,-,辽宁,2,二手房,1996
西岗区胜利路33号,大连,暂无信息,西岗,20190416,38.91309771954841,121.62500886627636,34中胜利路,22,27395,无物业管理服务,0.5,辽宁,2,二手房,1985
大连市高新园区软件园路1A-3号,大连,大连软景房地产开发有限公司,高新园区,20190416,38.89360013642285,121.54653763548625,亿达软景中心,19,23526,亿达物业管理有限公司,3.5,辽宁,2,二手房,2014
大连市甘井子区融田西园52-11,大连,亿达集团大连科技城发展有限公司,甘井子,20190416,38.95800216293212,121.53151895549547,亿达春田馥园,59,20084,亿达物业管理有限公司,1.5,辽宁,2,二手房,2011
金州区小平岛B组团4号楼3号商铺,大连,大连安达房地产开发有限公司,高新园区,20190416,39.05643299166072,121.78943558267059,小平岛亲海园A2组团,44,20870,大连凯尔富物业管理有限公司,1.7,辽宁,2,二手房,2007
无门店信息,大连,暂无信息,旅顺口,20190416,34.52713835999158,118.76812980670795,金川家园,12,11544,暂无信息,-,辽宁,2,二手房,-
中山区北斗街53号1层1号,大连,大连万众房屋开发有限公司,中山,20190416,38.92727355733075,121.67002970974048,清华园(中山),20,18618,大连万众物业有限公司,1.7,辽宁,2,二手房,2003
沙河口区五一路177-1-1-1,大连,大华集团大连房地产开发有限公司,沙河口,20190416,38.913544290955585,121.59450670056631,大华御庭,49,22439,大连乐尔居物业服务有限公司,1.4,辽宁,2,二手房,2009
甘井子区虹港路16号楼1层公建,大连,大连建园房地产开发有限公司,甘井子,20190416,38.9645939333502,121.553851837474,城市印象,55,15992,大连天兴物业管理有限公司,1.8,辽宁,2,二手房,2011
中山区爱华街13号,大连,暂无信息,中山,20190416,38.92541607518685,121.6535728031028,向前街（中山友好商圈）,0,13028,暂无信息,-,辽宁,1,二手房,-
沙河口区五四路207-1-9号,大连,无开发商,沙河口,20190416,38.913544290955585,121.59450670056631,动力花园,0,20818,无物业管理服务,-,辽宁,1,二手房,2004
中山区解放路471-22号,大连,暂无信息,中山,20190416,38.901309943567504,121.65419095766659,青云街,0,11215,无物业管理服务,-,辽宁,1,二手房,1995
西岗区绕山路31号公建一层东侧,大连,无开发商,西岗,20190416,38.90257514466717,121.61412736644739,山庄北一街,0,9154,无物业管理服务,-,辽宁,1,二手房,1990
西岗区八一路196号1-3,大连,无开发商,西岗,20190416,38.92047268927287,121.61862512554262,靠山北巷（青云街商圈）,0,10208,无物业管理服务,-,辽宁,1,二手房,1993
中山区安居巷7号,大连,无开发商,中山,20190416,38.92451111549568,121.65154739366945,宏孚大厦,0,5718,街道办事处（居委会）代管物业,2,辽宁,1,二手房,2008
西岗区平等街21号1层2号,大连,暂无信息,西岗,20190416,38.92251066253164,121.63236845125735,建振巷（大菜市商圈）,0,11308,无物业管理服务,-,辽宁,1,二手房,-
沙河口区前程街15号1层E-C轴36-44轴公建,大连,无开发商,甘井子,20190416,38.91588050824643,121.60099647548584,顺河巷,0,12508,无物业管理服务,-,辽宁,1,二手房,1989
中山区爱华街13号,大连,无开发商,中山,20190416,38.92541607518685,121.6535728031028,绥德街,0,11932,无物业管理服务,-,辽宁,1,二手房,1990
甘井子区海口路77—5号,大连,暂无信息,甘井子,20190416,38.960286398428124,121.60305183172997,理想居,0,17945,大连伟恒物业服务有限公司,1.2,辽宁,1,二手房,2011
中山区岭前街53-5,大连,无开发商,西岗,20190416,38.89487069426055,121.65795959631497,光风街,0,10453,无物业管理服务,-,辽宁,1,二手房,1993
中山区职工街96号1-3层公建,大连,暂无信息,中山,20190416,38.92565613737007,121.66193575790903,39中五五路,0,14536,无物业管理服务,-,辽宁,1,二手房,1995
甘井子区泉水D6区51号,大连,大连时代房地产开发有限公司,甘井子,20190416,39.00897610161069,121.61789300655198,富士庄园,58,15884,大连佳泰物业管理有限公司,1.2,辽宁,2,二手房,2006
西岗区八一路102号,大连,无开发商,西岗,20190416,38.92047268927287,121.61862512554262,双全街,0,11145,无物业管理服务,-,辽宁,1,二手房,1995
中山区南山路59号1层4号,大连,无开发商,中山,20190416,38.91992239075882,121.6479206962747,南山路（昆明街商圈）,1,17400,无物业管理服务,-,辽宁,1,二手房,1982
无门店信息,大连,大连新型企业集团,甘井子,20190416,34.52713835999158,118.76812980670795,南岭花园,30,12111,大连新型物业管理有限公司,0.4,辽宁,2,二手房,2008
金州新区八一路金都嘉园1号楼1号公建,大连,大连市金州区房屋开发公司,金州,20190416,39.05525210261778,121.74865634199398,古城丁区,151,7396,街道办事处（居委会）代管物业,0.1,辽宁,2,二手房,1993
中山区南山路59号1层4号,大连,大连恒一嘉元置业有限公司,中山,20190416,38.91992239075882,121.6479206962747,南山首府,3,33527,大连恒信物业服务有限公司,4,辽宁,1,二手房,2015
中山区安居巷7号,大连,无开发商,中山,20190416,38.92451111549568,121.65154739366945,德光巷,1,10013,无物业管理服务,-,辽宁,1,二手房,1990
西岗区黄河路90号公建部分,大连,大连兴昌房屋开发有限公司,西岗,20190416,38.92234529815978,121.62829331825485,兴昌都市首府,6,32038,大连戴德梁行物业管理有限公司,1.5,辽宁,1,二手房,2005
中山区安居巷7号,大连,无开发商,西岗,20190416,38.92451111549568,121.65154739366945,兆麟街（胜利桥北商圈）,3,11287,无物业管理服务,-,辽宁,1,二手房,1996
沙河口区西南路851号3单元1层3号,大连,暂无信息,沙河口,20190416,38.94344210837944,121.58246796944378,凌山四街,2,11917,暂无信息,-,辽宁,1,二手房,-
西岗区康平街2号（5号楼3-1-3号）,大连,暂无信息,西岗,20190416,38.91044414697888,121.61980769264477,34中水仙街,3,30229,无物业管理服务,-,辽宁,1,二手房,1995
沙河口区联合路133号,大连,暂无信息,西岗,20190416,38.91608561262676,121.60480987310456,拥政北街,2,15601,无物业管理服务,-,辽宁,1,二手房,1992
莲花山路89-3号,大连,无开发商,沙河口,20190416,38.902848261803356,121.6041720815823,美春巷,1,11585,无物业管理服务,-,辽宁,1,二手房,1995
中山区南山路59号1层4号,大连,暂无信息,中山,20190416,38.91992239075882,121.6479206962747,平阳街（昆明街）,1,15161,无物业管理服务,-,辽宁,1,二手房,1988
中山区安居巷7号,大连,暂无信息,中山,20190416,38.92451111549568,121.65154739366945,开明巷,1,12256,暂无信息,-,辽宁,1,二手房,-
中山区解放路604号,大连,无开发商,西岗,20190416,38.89026319122045,121.66407876092346,于家巷,1,13601,街道办事处（居委会）代管物业,0.5,辽宁,1,二手房,1998
沙河口区富国街14号1-1-2,大连,暂无信息,沙河口,20190416,38.901027106600836,121.59047734850638,中山路,1,12155,无物业管理服务,-,辽宁,1,二手房,2000
西岗区康平街2号（5号楼3-1-3号）,大连,大连新型房地产开发有限公司,西岗,20190416,38.91044414697888,121.61980769264477,新华公寓,2,16679,大连新型物业管理有限公司,0.5,辽宁,1,二手房,1997
中山区民建街10号1单元1号,大连,暂无信息,中山,20190416,38.925444479476894,121.66915026954452,39中港湾街,2,21050,无物业管理服务,-,辽宁,1,二手房,1995
中山区职工街96号1-3层公建,大连,无开发商,中山,20190416,38.92565613737007,121.66193575790903,明泽街（三八广场）,1,13491,无物业管理服务,-,辽宁,1,二手房,1993
甘井子区祥溢园4号1单元1层9号公建,大连,暂无信息,甘井子,20190416,38.92981664067587,121.54940314023253,千叶美居,0,11219,街道办事处（居委会）代管物业,0.5,辽宁,1,二手房,2004
甘井子区促进路30号2-1-1,大连,大连大骏达房地产开发有限公司,甘井子,20190416,38.954133128707575,121.58355746311207,骏达绅士花园,2,17604,大连骏达物业管理有限公司,1.7,辽宁,1,二手房,2012
西岗区八一路196号1-3,大连,无开发商,西岗,20190416,38.92047268927287,121.61862512554262,三环街（八一路商圈）,4,11833,无物业管理服务,-,辽宁,1,二手房,1990
大连市金州新区友谊街道和平路59-10号1-2层公建,大连,大连金华房地产开发有限公司,金州,20190416,39.112168401852266,121.72006917947859,金爵世家,9,7851,大连金华兴物业有限公司,0.9,辽宁,1,二手房,2000
沙河口区南沙街36号台二2号1-1-37,大连,大连三寰房屋开发有限公司,沙河口,20190416,38.90741410359388,121.57685699961822,南平花园,4,19243,大连上达物业管理有限公司,0.3,辽宁,1,二手房,2001
甘井子区金家街17-7号,大连,暂无信息,甘井子,20190416,38.97493697764367,121.60110987128529,金源花园,7,18555,无物业管理服务,-,辽宁,1,二手房,2000
沙河口区兰田街33号,大连,无开发商,沙河口,20190416,38.926138912221084,121.56486022834609,西苑新区,4,14410,街道办事处（居委会）代管物业,0.3,辽宁,1,二手房,2000
大连经济技术开发区同和里7栋-9号,大连,无开发商,开发区,20190416,39.04901984220615,121.7885236929847,山水花园小区,3,12647,大连经济技术开发区白石物业管理有限公司,0.5,辽宁,1,二手房,2000
无门店信息,大连,暂无信息,高新园区,20190416,34.52713835999158,118.76812980670795,小平岛圣汐湾,1,22586,大连凯尔物业管理有限责任公司,1.3,辽宁,1,二手房,2000
西岗区康平街2号（5号楼3-1-3号）,大连,无开发商,西岗,20190416,38.91044414697888,121.61980769264477,康平街,3,12238,无物业管理服务,-,辽宁,1,二手房,1995
西岗区康平街2号（5号楼3-1-3号）,大连,无开发商,西岗,20190416,38.91044414697888,121.61980769264477,纪念东巷,2,11300,无物业管理服务,-,辽宁,1,二手房,1997
中山区爱华街13号,大连,暂无信息,中山,20190416,38.92541607518685,121.6535728031028,九中杏林街,2,40735,无物业管理服务,6,辽宁,1,二手房,2000
沙河口区华新苑10号楼4号公建,大连,大连新型房地产开发有限公司,沙河口,20190416,38.94033750532864,121.58990295130229,华新苑,7,13067,大连新型物业管理有限公司,0.5,辽宁,1,二手房,2003
大连市沙河口区黄河路729号,大连,大连天河房地产开发集团有限公司,沙河口,20190416,38.91710565765228,121.58954758972729,天河100,2,19876,大连天河物业管理有限公司,0.8,辽宁,1,二手房,2004
中山区杏林街66—5号,大连,无开发商,中山,20190416,38.92572771377599,121.66490555592502,39中丰阳巷,5,25964,街道办事处（居委会）代管物业,0.5,辽宁,1,二手房,1995
沙河口区星海广场B3区14-9,大连,大连科宏房屋开发有限公司,沙河口,20190416,38.88708614275256,121.58732027085938,科宏花园,7,15231,无物业管理服务,-,辽宁,1,二手房,2000
沙河口区前程街46号4—1—2号,大连,大连渤海红旗集团有限公司,甘井子,20190416,38.913544290955585,121.59450670056631,前景街,1,11199,渤海吉祥物业管理有限公司,0.4,辽宁,1,二手房,1999
中山区安居巷7号,大连,无开发商,中山,20190416,38.92451111549568,121.65154739366945,建华街,3,14161,无物业管理服务,1,辽宁,1,二手房,1995
中山区安居巷7号,大连,无开发商,中山,20190416,38.92451111549568,121.65154739366945,宏爱巷,8,12079,无物业管理服务,-,辽宁,1,二手房,1998
中山区北斗街53号1层1号,大连,暂无信息,中山,20190416,38.92727355733075,121.67002970974048,太阳街（二七广场）,3,13888,暂无信息,-,辽宁,1,二手房,1996
金州区先进街道渤海街1-4号1-2层,大连,暂无信息,金州,20190416,39.09512910553563,121.74578812616167,书香苑小区,4,9132,暂无信息,0.5,辽宁,1,二手房,2006
开发区红梅小区19栋-2-1-1号,大连,大连东特房地产开发有限公司,开发区,20190416,29.906498897603264,121.5913630631805,东特欣苑,3,14415,大连经济技术开发区聚盛达物业管理有限公司,0.8,辽宁,1,二手房,2002
中山区武昌街武昌公寓6号公建,大连,无开发商,中山,20190416,38.912280913445784,121.64921130527547,铁山巷（南山商圈）,1,13629,街道办事处（居委会）代管物业,1,辽宁,1,二手房,1990
无门店信息,大连,暂无信息,西岗,20190416,34.52713835999158,118.76812980670795,民航大连疗养院,2,15548,无物业管理服务,-,辽宁,1,二手房,1990
西岗区八一路196号2-1-12号,大连,暂无信息,西岗,20190416,38.92047268927287,121.61862512554262,八一路（新起屯商圈）,1,11570,无物业管理服务,-,辽宁,1,二手房,1995
高新园敬贤街23-11号,大连,暂无信息,高新园区,20190416,38.869456648212356,121.53023725049893,中海紫御观邸四期,6,20383,大连中海物业管理有限公司,2.6,辽宁,1,二手房,2013
开发区高新里6栋-8,大连,无开发商,开发区,20190416,39.0710895068195,121.82860134358343,幸福人家,4,9521,街道办事处（居委会）代管物业,-,辽宁,1,二手房,2000
沙河口区中山路417A-4号,大连,无开发商,沙河口,20190416,38.90740323140171,121.59484801084653,太原街,4,12682,无物业管理服务,-,辽宁,1,二手房,1992
无门店信息,大连,大连奥泰房地产开发有限公司,金州,20190416,34.52713835999158,118.76812980670795,亿达蓝筹海,23,7812,大连奥泰物业服务有限公司,1.6,辽宁,1,二手房,2009
沙河口区连山街10号2-1-2,大连,大连国合嘉汇房地产开发有限公司,沙河口,20190416,38.89637522563413,121.57143690983219,嘉汇星海,4,18642,大连国合物业管理有限公司,0.5,辽宁,1,二手房,2004
沙河口区锦石园24-7号第A2-13幢1单元1层1号,大连,大连锦绣房地产开发有限公司,沙河口,20190416,38.913544290955585,121.59450670056631,锦绣燕居沙河口区一期,6,18727,大连锦绣物业管理有限公司,1.2,辽宁,1,二手房,2012
无门店信息,大连,暂无信息,金州,20190416,34.52713835999158,118.76812980670795,东方百合海韵生活馆,10,8963,无物业管理服务,-,辽宁,1,二手房,2000
沙河口区联合路133号,大连,大连五环房屋开发有限公司,沙河口,20190416,38.91608561262676,121.60480987310456,汇利嘉园,7,23323,大连银力物业管理有限公司,0.5,辽宁,1,二手房,2003
甘井子区芳林街17号1单元1层1号,大连,大连万亿房地产开发有限公司,甘井子,20190416,38.96091976856697,121.58863625429588,万亿香橙,6,22458,街道办事处（居委会）代管物业,0.5,辽宁,1,二手房,2011
金州新区八一路金都嘉园1号楼1号公建,大连,大连海洋房地产开发有限公司,金州,20190416,39.05525210261778,121.74865634199398,金都嘉园,8,9033,街道办事处（居委会）代管物业,0.5,辽宁,1,二手房,2009
中山区中南路226号,大连,大连永薪房屋开发有限公司,中山,20190416,38.90029610333926,121.68178899957817,海神花园,2,14194,大连永佳物业管理有限公司,1,辽宁,1,二手房,1999
甘井子区锦城西园4#3-1-1,大连,沈阳军区后勤部,甘井子,20190416,38.95286223185571,121.55129044777,金寓花园一期,3,15654,大连瑞祥物业管理有限公司,0.5,辽宁,1,二手房,2003
中山区山屏街116号1-1,大连,暂无信息,中山,20190416,38.90729438486833,121.68598159980013,山屏美境,8,17800,无物业管理服务,3.5,辽宁,1,二手房,2009
中山区南山路59号1层4号,大连,深圳市东山开发有限公司,中山,20190416,38.91992239075882,121.6479206962747,昆明花园,5,20944,深圳市东山物业管理有限公司,0.5,辽宁,1,二手房,2000
西岗区康平街2号（5号楼3-1-3号）,大连,暂无信息,西岗,20190416,38.91044414697888,121.61980769264477,纪念街(唐山街商圈),3,11148,无物业管理服务,-,辽宁,1,二手房,1990
西岗区八一路196号1-3,大连,暂无信息,西岗,20190416,38.92047268927287,121.61862512554262,晴明街,2,13350,暂无信息,-,辽宁,1,二手房,-
中山区华乐街71号公建,大连,无开发商,中山,20190416,38.923187679200566,121.6843197903016,港院街,2,9712,无物业管理服务,-,辽宁,1,二手房,1992
西岗区九三街64号,大连,暂无信息,西岗,20190416,38.92047268927287,121.61862512554262,珠江国际大厦,2,6553,街道办事处（居委会）代管物业,20,辽宁,1,二手房,2004
中山区北斗街53号1层1号,大连,无开发商,中山,20190416,38.92727355733075,121.67002970974048,北斗街（二七商圈）,2,14848,无物业管理服务,-,辽宁,1,二手房,1999
沙河口区西南路643号,大连,大连澳南房屋开发公司,沙河口,20190416,38.943483429804665,121.5833555851182,金福小区,10,11356,无物业管理服务,-,辽宁,1,二手房,2000
甘井子区华东路22号公建,大连,无开发商,甘井子,20190416,38.97736184953593,121.5935814234334,经二街,5,11962,街道办事处（居委会）代管物业,0.5,辽宁,1,二手房,1993
中山区碧浪园4号-3号,大连,大连铁路房地产开发有限责任公司,中山,20190416,38.89147289460474,121.69329560326236,山水家园二期,2,19719,大连铁道物业管理有限责任公司,0.5,辽宁,1,二手房,2003
沙河口区黄河路883号,大连,无开发商,沙河口,20190416,38.919826721475204,121.57749657966676,西南路（辽师商圈）,4,11366,无物业管理服务,-,辽宁,1,二手房,1991
沙河口区华北路404号,大连,无开发商,沙河口,20190416,38.8862815932937,121.59082948696123,园丁巷,7,10595,街道办事处（居委会）代管物业,0.3,辽宁,1,二手房,1990
中山区高尚路28-1号,大连,无开发商,中山,20190416,38.892673425111305,121.67148833870213,高寿街,13,10041,无物业管理服务,-,辽宁,1,二手房,1991
金州区先进街道渤海街1-4号1-2层,大连,大连市金州区房屋开发公司,金州,20190416,39.09512910553563,121.74578812616167,鑫海阳光,9,8745,金州区物业管理有限公司,0.5,辽宁,1,二手房,2010
大连市开发区抚顺街30号,大连,无开发商,开发区,20190416,38.92272284555705,121.5977239817503,东方花园,3,14823,大连合昌物业服务有限公司,0.5,辽宁,1,二手房,2006
甘井子区金北路17号,大连,安华房地产开发公司,甘井子,20190416,38.97553393692831,121.59969720502335,金荣园,11,21234,业主自筹物业,0.3,辽宁,1,二手房,1996
甘井子区玉湖街25号2单元1层3号,大连,大连恒峰房地产开发有限公司,甘井子,20190416,38.97626265183615,121.54617349027997,恒峰天泉小镇,13,18404,大连恒新物业管理有限公司,2,辽宁,1,二手房,2017
无门店信息,大连,大连海昌置地红酒庄园有限公司,金州,20190416,34.52713835999158,118.76812980670795,碧桂园海昌波尔多庄园,9,13987,广东碧桂园物业服务有限公司大连分公司,0.1,辽宁,1,二手房,2010
西岗区胜利路33号,大连,暂无信息,西岗,20190416,38.91309771954841,121.62500886627636,34中果林巷,18,25673,无物业管理服务,-,辽宁,1,二手房,1990
沙河口区锦石路8号,大连,大连锦绣房地产开发有限公司,沙河口,20190416,38.94771288948481,121.56110903658733,锦绣小高层,9,12659,大连锦绣物业管理有限公司,0.6,辽宁,1,二手房,2000
甘井子区锦城东园1号3单元1层2号,大连,大连易合房地产开发有限公司,甘井子,20190416,38.952805477462775,121.55656194973994,易和紫园,8,25259,大连易兴物业服务有限公司,0.9,辽宁,1,二手房,2009
西岗区新田巷11号三单元103,大连,无开发商,西岗,20190416,38.89276612016956,121.64190731791966,新水巷,1,12157,无物业管理服务,-,辽宁,1,二手房,1990
金州区拥政街道733号-8号1-2层,大连,大连千川房地产有限公司,金州,20190416,39.11690610445662,121.73030803603723,湖畔嘉园,14,10299,大连千川物业管理有限公司,3.8,辽宁,1,二手房,2007
中山区武昌街武昌公寓6号公建,大连,大连大重房屋开发有限公司,中山,20190416,38.912280913445784,121.64921130527547,武昌北巷,4,13953,无物业管理服务,-,辽宁,1,二手房,2000
中山区华乐街71号公建,大连,大连众和房地产开发有限公司,中山,20190416,38.923187679200566,121.6843197903016,东港印象C区,10,23315,大连众和物业管理有限公司,1.2,辽宁,1,二手房,2008
西岗区平等街21号1层2号,大连,暂无信息,西岗,20190416,38.92251066253164,121.63236845125735,岐山街（大菜市商圈）,1,11428,无物业管理服务,-,辽宁,1,二手房,-
沙河口区黄河路883号,大连,大连安邦房地产开发有限公司,沙河口,20190416,38.919826721475204,121.57749657966676,阳光小筑,8,19444,大连远洋基业物业管理有限公司,0.8,辽宁,1,二手房,2007
沙河口区星海广场B3区20—3号,大连,营口大光房地产开发有限公司,沙河口,20190416,38.88782715536473,121.5869168319735,星海花园,7,12046,大连金海岸物业管理中心,1.5,辽宁,1,二手房,1998
中山区安居巷7号,大连,大连恒锐房地产开发有限公司,中山,20190416,38.92451111549568,121.65154739366945,悦泰街里,4,19653,大连百安物业管理有限公司,3,辽宁,1,二手房,2012
大连市高新园区七贤中路63号,大连,无开发商,高新园区,20190416,38.86053006357667,121.53273606963094,学府士家,15,15483,无物业管理服务,-,辽宁,1,二手房,2000
中山区解放路471-22号,大连,大连长策房屋开发有限公司,中山,20190416,38.901309943567504,121.65419095766659,捷山街（青云街商圈）,4,12057,无物业管理服务,0.5,辽宁,1,二手房,1992
中山区安居巷7号,大连,大连北方工业房屋开发公司,西岗,20190416,38.92451111549568,121.65154739366945,温馨花园（胜利桥北商圈）,6,10873,北方物业开发有限公司,0.5,辽宁,1,二手房,2000
岭前街53-5,大连,无开发商,西岗,20190416,38.89487069426055,121.65795959631497,卧龙双厦,9,13607,街道办事处（居委会）代管物业,0.4,辽宁,1,二手房,1997
高新园区敬贤街25-9,大连,大连邦盛发展有限公司,高新园区,20190416,38.86879447142154,121.53007349209936,雯君庭,29,21859,大连意美物业服务有限公司,2.3,辽宁,1,二手房,2013
大连市高新园区软件园路1A-3号,大连,无开发商,高新园区,20190416,38.89360013642285,121.54653763548625,中辰国际公寓,5,16546,大连阿尔滨汇城物业服务有限公司,2.5,辽宁,1,二手房,2008
中山区解放路471-22号,大连,无开发商,中山,20190416,38.901309943567504,121.65419095766659,保卫巷,1,13288,无物业管理服务,-,辽宁,1,二手房,1998
西岗区长春路334号,大连,无开发商,西岗,20190416,38.89807766522607,121.63221082858387,新金巷,1,9787,无物业管理服务,-,辽宁,1,二手房,1999
西岗区长春路334号,大连,无开发商,西岗,20190416,38.89807766522607,121.63221082858387,鹏程家园,6,15462,街道办事处（居委会）代管物业,0.5,辽宁,1,二手房,2002
金州区南棉路310号,大连,暂无信息,金州,20190416,39.09939229372624,121.72414976100345,连胜小区,6,6066,无物业管理服务,0.5,辽宁,1,二手房,1995
金州区南棉路310号,大连,无开发商,金州,20190416,39.09939229372624,121.72414976100345,阳光家园,13,7760,街道办事处（居委会）代管物业,0.5,辽宁,1,二手房,2009
经济技术开发区城润万家4-5号公建,大连,恒安房地产,开发区,20190416,39.05716325096989,121.75946281983826,中环嘉园,7,9250,大连大连开发区杰佳物业管理有限公司,0.5,辽宁,1,二手房,2001
沙河口区长江路946号-9,大连,大连北洋房屋开发公司,沙河口,20190416,38.913544290955585,121.59450670056631,北洋小区,8,14517,大连天洋物业管理有限公司,0.5,辽宁,1,二手房,1999
甘井子区华龙南园34-5号34-库4号34-5号,大连,大连台安房屋开发有限公司,甘井子,20190416,38.98270467597865,121.6117222765123,台安274,6,11177,街道办事处（居委会）代管物业,0.5,辽宁,1,二手房,2009
沙河口区中山路417A-4号,大连,无开发商,沙河口,20190416,38.90740323140171,121.59484801084653,连华街,14,16182,无物业管理服务,-,辽宁,1,二手房,1995
中山区山屏街116号1-1,大连,大连恒悦房地产开发有限公司,中山,20190416,38.90729438486833,121.68598159980013,悦泰德里,5,22845,大连百安物业管理有限公司,1.9,辽宁,1,二手房,2008
中山区鲁迅路184号1层B—A,大连,无开发商,中山,20190416,38.92590875965419,121.67594393403164,听海新居,1,19570,大连兆宇物业管理有限公司,0.6,辽宁,1,二手房,2003
开发区金源南里14栋-11号一层部分，14号-12号一层部分,大连,商金源地产,开发区,20190416,39.06148862675436,121.82503941311765,金苑新居,11,8486,嘉兴物业管理有限公司,0.3,辽宁,1,二手房,2004
中山区中南路226号,大连,大连大业房屋开发有限公司,中山,20190416,38.90029610333926,121.68178899957817,阳光花园二期,7,13709,大连全得利物业管理有限公司,0.5,辽宁,1,二手房,1997
中山区南山路59号1层4号,大连,无开发商,中山,20190416,38.91992239075882,121.6479206962747,昆明街（正阳街）,4,16656,无物业管理服务,-,辽宁,1,二手房,1990
开发区黄海西路54号,大连,无开发商,开发区,20190416,39.047714586087785,121.76688238228269,大安海韵花园,15,9049,街道办事处（居委会）代管物业,0.3,辽宁,1,二手房,1995
高新园区聚贤路36号5幢1单元1层1号,大连,九成方元房地产（大连）有限公司,高新园区,20190416,32.31472011562832,119.46141263909165,福荣园,8,20617,九成物业（大连）有限公司,2.6,辽宁,1,二手房,2015
金州区小平岛B组团4号楼3号商铺,大连,大连圣岛房地产开发有限公司,高新园区,20190416,39.05643299166072,121.78943558267059,小平岛,3,18177,大连凯尔富物业管理有限公司,1.3,辽宁,1,二手房,2007
高新园区书香街1A#1-1-2,大连,大连和升房地产开发有限公司,高新园区,20190416,38.880372108393104,121.55218773010999,学苑广场九号,8,28421,大连戴德梁行物业管理有限公司,2.8,辽宁,1,二手房,2017
中山区爱华街13号,大连,无开发商,中山,20190416,38.92541607518685,121.6535728031028,九中爱华街,8,40502,无物业管理服务,-,辽宁,1,二手房,1992
金州区南棉路310号,大连,暂无信息,金州,20190416,39.09939229372624,121.72414976100345,光明现代城,9,7283,无物业管理服务,-,辽宁,1,二手房,2004
金州区小平岛B组团4号楼3号商铺,大连,大连安达房地产开发有限公司,高新园区,20190416,39.05643299166072,121.78943558267059,小平岛E西组团,6,23693,大连凯尔富物业管理有限公司,1.3,辽宁,1,二手房,2007
中山区金城街26号一楼,大连,暂无信息,中山,20190416,38.922282529515634,121.65214466263014,39中哈尔滨街,3,23767,无物业管理服务,-,辽宁,1,二手房,1995
沙河口区黄河路535号,大连,大连利源房屋开发有限公司,沙河口,20190416,38.91773777159567,121.60217159922856,79中万岁公寓,18,18894,大连大众物业管理有限公司,0.8,辽宁,1,二手房,2000
金州区同济路44号,大连,大连金州金山房地产开发有限公司,金州,20190416,39.10476859984152,121.71234684495865,金山苑小区,16,8797,大连金山物业管理有限公司,-,辽宁,1,二手房,2000
甘井子区山东路127-2号,大连,无开发商,甘井子,20190416,38.99065559549029,121.59126483545545,天水街,14,10762,街道办事处（居委会）代管物业,0.1,辽宁,1,二手房,1993
沙河口区长江路946号-9,大连,大连华晟房屋开发有限公司,沙河口,20190416,38.913544290955585,121.59450670056631,华晟花园,4,15274,大连晟附物业管理有限公司,0.6,辽宁,1,二手房,2001
甘井子区汇仁街19号12号楼1单元102室,大连,大连华南房地产开发有限公司,甘井子,20190416,38.99746297497168,121.58917714380617,名贵山庄华春园,5,12822,大连弘益达物业管理有限公司,0.5,辽宁,1,二手房,2004
甘井子区锦城东园1号3单元1层2号,大连,大连福田房屋开发有限公司,甘井子,20190416,38.952805477462775,121.55656194973994,福典人家,28,20632,大连福田房屋物业管理有限公司,0.6,辽宁,1,二手房,2006
中山区杏林街66—5号,大连,大连嘉和房地产集团有限公司,中山,20190416,38.92572771377599,121.66490555592502,嘉和园,3,24417,大连嘉和物业管理有限公司,3,辽宁,1,二手房,2005
高新园区红凌路732-4号,大连,大连软件园开发有限公司,高新园区,20190416,38.90204708664442,121.53244406374695,东方圣克拉公寓,14,19035,亿达物业管理有限公司,2.6,辽宁,1,二手房,2015
西岗区长春路334号,大连,无开发商,西岗,20190416,38.89807766522607,121.63221082858387,迎春二巷,5,11162,无物业管理服务,-,辽宁,1,二手房,1995
无门店信息,大连,大连晨阳房地产开发有限公司,金州,20190416,34.52713835999158,118.76812980670795,金科理想城,14,9583,金科物业服务集团有限公司,1.6,辽宁,1,二手房,2014
西岗区黄河路82号,大连,无开发商,西岗,20190416,38.92243503020161,121.6287927913896,昌乐街（大菜市商圈）,5,11539,无物业管理服务,-,辽宁,1,二手房,1995
中山区共建巷61号,大连,无开发商,中山,20190416,38.91828093658718,121.66259221532148,39中桂林街,14,24922,街道办事处（居委会）代管物业,-,辽宁,1,二手房,1990
开发区红星海B区212-1,大连,远洋地产有限公司,开发区,20190416,39.027851194371685,121.80327394132297,红星海五期海麓,14,17708,大连远洋基业物业管理有限公司,2.2,辽宁,1,二手房,2012
开发区兴城路29-81层,大连,大连瑞宇置业有限公司,开发区,20190416,39.050214252167194,121.75835946441768,心海阳光,15,13177,大连经济技术开发区盛辉物业服务有限公司,1.8,辽宁,1,二手房,2015
中山区同心街72号1楼公建,大连,大连振屹房屋开发有限公司,中山,20190416,38.91979245940674,121.64769198230202,城市广场,17,15922,大连振屹物业有限公司,3.5,辽宁,1,二手房,2006
西岗区胜利路33号,大连,无开发商,西岗,20190416,38.91309771954841,121.62500886627636,华城御园,12,29225,大连白云物业管理有限公司,1,辽宁,1,二手房,1997
中山区解放路471-22号,大连,无开发商,中山,20190416,38.901309943567504,121.65419095766659,友爱街,7,13005,无物业管理服务,-,辽宁,1,二手房,1990
西岗区胜利路33号,大连,大连恒盛房屋开发有限公司,西岗,20190416,38.91309771954841,121.62500886627636,盛阳山庄,7,11018,大连佳捷物业管理有限公司,0.5,辽宁,1,二手房,1999
中山区山屏街116号1-1,大连,大连毅腾房屋开发有限公司,中山,20190416,38.90729438486833,121.68598159980013,中南苑,12,18233,大连中南苑物业有限公司,1,辽宁,1,二手房,2001
西岗区九三街64号,大连,大连坚柏房地产开发有限公司,西岗,20190416,38.92047268927287,121.61862512554262,越秀大厦,6,10735,大连越秀大厦物业管理有限公司,4,辽宁,1,二手房,2001
西岗区长春路334号,大连,无开发商,西岗,20190416,38.89807766522607,121.63221082858387,新石道街,11,11745,大连白云物业管理有限公司,0.5,辽宁,1,二手房,1999
沙河口区五一路109-4号,大连,大连正源房地产开发有限公司,沙河口,20190416,38.913544290955585,121.59450670056631,幸福e家二期,24,31182,大连正源物业服务有限公司,0.7,辽宁,1,二手房,2003
甘井子区千山路66号楼2单元1楼2号,大连,暂无信息,甘井子,20190416,38.985716774397915,121.58287796391829,蓝天小区,5,11489,大连新华物业管理有限公司,-,辽宁,1,二手房,1993
开发区大开高吉里33栋6号,大连,无开发商,开发区,20190416,39.07355836059941,121.8280439450145,高安里回迁楼,14,8113,大连华宸物业管理有限公司,0.2,辽宁,1,二手房,1998
沙河口区兰田街33号,大连,无开发商,沙河口,20190416,38.926138912221084,121.56486022834609,858家园,6,12628,无物业管理服务,-,辽宁,1,二手房,2000
甘井子区祥龙街2号楼1单元1楼1号,大连,暂无信息,甘井子,20190416,38.988045874482445,121.60439401971377,华南商业大厦,18,9225,暂无信息,1.4,辽宁,1,二手房,2007
西岗区绕山路31号公建一层东侧,大连,暂无信息,沙河口,20190416,38.90257514466717,121.61412736644739,山庄南二巷,4,11625,暂无信息,-,辽宁,1,二手房,1990
西岗区平等街21号1层2号,大连,无开发商,西岗,20190416,38.92251066253164,121.63236845125735,连平街（大菜市商圈）,3,13905,街道办事处（居委会）代管物业,0.5,辽宁,1,二手房,1995
甘井子区华北路花锦园28号23-3-1-2建筑物,大连,无开发商,甘井子,20190416,38.951627958411166,121.5739439799003,华北路（甘）,31,16354,街道办事处（居委会）代管物业,0.1,辽宁,1,二手房,1989
开发区安盛里5栋-4,大连,大连光伸房地产开发有限公司,开发区,20190416,23.112106678834838,113.27801046214822,光伸外企公寓,17,6608,无物业管理服务,0.5,辽宁,1,二手房,2001
中山区杏林街66—5号,大连,大连泰元房地产开发有限公司,中山,20190416,38.92572771377599,121.66490555592502,保华旺苑,13,28549,保华物业管理（大连）有限公司,3.8,辽宁,1,二手房,2016
西岗区鞍山路65-5号,大连,大连大重房屋开发有限公司,沙河口,20190416,38.926971569913064,121.60260230348328,江都春华园,3,27417,大连万兴物业管理有限公司,0.8,辽宁,1,二手房,2008
西岗区鞍山路29号龙畔锦城东门,大连,大连铁龙房地产开发有限公司,西岗,20190416,38.92763470697088,121.61498923399098,北岗新居,14,15081,大连铁龙物业管理有限公司,0.5,辽宁,1,二手房,2002
沙河口区五一路110-4号,大连,大连市中联房地产开发有限公司,沙河口,20190416,38.913544290955585,121.59450670056631,星海中龙园,20,20886,大连斌弘物业管理有限公司,0.6,辽宁,1,二手房,2004
沙河口区连山街10号2-1-2,大连,大连三业房屋开发有限公司,沙河口,20190416,38.89637522563413,121.57143690983219,龙山花园,5,12975,无物业管理服务,-,辽宁,1,二手房,1999
西岗区胜利路33号,大连,暂无信息,西岗,20190416,38.91309771954841,121.62500886627636,34中兴民街,13,27466,无物业管理服务,-,辽宁,1,二手房,1970
中山区中南路226号,大连,大连市建设控股有限公司,中山,20190416,38.90029610333926,121.68178899957817,欧洲小镇,13,18784,大连大众物业管理有限公司,0.8,辽宁,1,二手房,2004
沙河口区富国街14号1-1-2,大连,无开发商,沙河口,20190416,38.901027106600836,121.59047734850638,星月街,10,11671,街道办事处（居委会）代管物业,0.5,辽宁,1,二手房,-
无门店信息,大连,暂无信息,金州,20190416,34.52713835999158,118.76812980670795,东才苑,27,6801,街道办事处（居委会）代管物业,-,辽宁,1,二手房,1999
西岗区鞍山路65-5号,大连,大连中盛集团有限公司,沙河口,20190416,38.926971569913064,121.60260230348328,中盛家园,15,21106,大和中盛物业管理有限公司,1.5,辽宁,1,二手房,2002
沙河口区鞍山路65号美都园7号1单元1层4号公建,大连,大连正源房地产开发有限公司,沙河口,20190416,38.92755211283745,121.60306664748275,正源小区,13,10759,大连正源物业服务有限公司,0.3,辽宁,1,二手房,1998
中山区金城街26号一楼,大连,无开发商,中山,20190416,38.922282529515634,121.65214466263014,39中南山街,8,27289,无物业管理服务,-,辽宁,1,二手房,1995
甘井子区凌秀路37号-1链家地产,大连,大连汇基房地产开发有限公司,高新园区,20190416,38.883794285403965,121.52361997548515,学仕名府,15,20204,大连意美物业服务有限公司,2.4,辽宁,1,二手房,2014
中山区鲁迅路184号1层B—A,大连,无开发商,中山,20190416,38.92590875965419,121.67594393403164,北斗街（寺儿沟商圈）,3,13844,无物业管理服务,-,辽宁,1,二手房,1999
金州新区先进街道渤海街7-4号1-2层、7-3号1-2层,大连,无开发商,金州,20190416,39.09342713035472,121.74590886291374,金莲怡园,6,7531,街道办事处（居委会）代管物业,-,辽宁,1,二手房,2000
无门店信息,大连,无开发商,西岗,20190416,34.52713835999158,118.76812980670795,绿港湾商务公寓（大菜市商圈）,13,8657,街道办事处（居委会）代管物业,0.5,辽宁,1,二手房,2009
中山区华乐街71号公建,大连,大连振屹房屋开发有限公司,中山,20190416,38.923187679200566,121.6843197903016,春华山小区,18,10643,无物业管理服务,-,辽宁,1,二手房,1997
西岗区新田巷27号1-2,大连,无开发商,西岗,20190416,38.893215932589385,121.64103065169111,新林巷,17,9468,无物业管理服务,-,辽宁,1,二手房,1990
甘井子区红旗中路143号1层4号,大连,亿海房地产开发有限公司,甘井子,20190416,38.93169566676921,121.5426632438217,红旗西路,3,12496,大连万泰物业管理有限公司,0.2,辽宁,1,二手房,1997
开发区东北三街94号1层,大连,无开发商,开发区,20190416,39.05723508011585,121.80570768630555,倚山花园,9,8778,街道办事处（居委会）代管物业,1.1,辽宁,1,二手房,2010
中山区金城街26号一楼,大连,无开发商,中山,20190416,38.922282529515634,121.65214466263014,友好路,6,15042,无物业管理服务,-,辽宁,1,二手房,1990
沙河口区五一路109-4号,大连,大连正源房地产开发有限公司,沙河口,20190416,38.913544290955585,121.59450670056631,幸福e家一期,25,30883,大连正源物业服务有限公司,0.8,辽宁,1,二手房,2002
甘井子区迎客路郭东街一品蓝天公建14号,大连,沈阳军区后勤部,甘井子,20190416,38.958456949708726,121.556756277476,金寓花园五期,10,18389,大连瑞祥物业管理有限公司,1,辽宁,1,二手房,2009
金州区凤祥路236-2,大连,大连经济技术开发区银海开发置业有限公司,金州,20190416,39.084027010847905,121.76984765822874,达赫山庄,18,12105,街道办事处（居委会）代管物业,0.5,辽宁,1,二手房,2009
中山区安居巷7号,大连,无开发商,西岗,20190416,38.92451111549568,121.65154739366945,新生街,12,10201,无物业管理服务,-,辽宁,1,二手房,1990
中山区岭前街53-5,大连,无开发商,中山,20190416,38.89487069426055,121.65795959631497,岭前街,17,15228,街道办事处（居委会）代管物业,0.4,辽宁,1,二手房,1995
中山区益民街16号1层1号,大连,无开发商,中山,20190416,38.93092761298906,121.66470740073377,龙泉街（三八广场）,6,12856,无物业管理服务,-,辽宁,1,二手房,1994
沙河口区新生路万客园3-7,大连,大连公屋发展有限公司,沙河口,20190416,38.94412875710208,121.57006756704837,春柳人家,1,16130,大连德衡物业管理有限公司,0.5,辽宁,1,二手房,2003
西岗区黄河路362号公建,大连,亿达集团大连房地产开发有限公司,西岗,20190416,38.91819905243802,121.61365779430986,亿达新世界,11,16642,亿达物业管理有限公司,0.5,辽宁,1,二手房,2001
中山区金城街26号一楼,大连,暂无信息,中山,20190416,38.922282529515634,121.65214466263014,解放街,26,25373,无物业管理服务,-,辽宁,1,二手房,1982
沙河口区西南路358号1—2号,大连,无开发商,沙河口,20190416,38.90839654326566,121.56908246905662,龙岗园,7,12770,大连嘉和物业管理有限公司,0.2,辽宁,1,二手房,2001
沙河口区联合路133号,大连,暂无信息,沙河口,20190416,38.91608561262676,121.60480987310456,21中天兴花园二期,5,19691,大连万泰物业管理有限公司,0.5,辽宁,1,二手房,1998
西岗区长红街4号1号公建,大连,暂无信息,西岗,20190416,38.91377414665191,121.6302525225721,34中永芳巷,9,25786,无物业管理服务,-,辽宁,1,二手房,1995
西岗区鞍山路29号龙畔锦城东门,大连,无开发商,西岗,20190416,38.92763470697088,121.61498923399098,兴业广场,11,15998,街道办事处（居委会）代管物业,0.8,辽宁,1,二手房,2004
中山区华乐街71号公建,大连,大连环海房地产开发有限公司,中山,20190416,38.923187679200566,121.6843197903016,华乐小区,21,14846,大连景和物业管理有限公司,0.5,辽宁,1,二手房,2000
金州新区站前街道生辉第一城5号楼1-2层4号,大连,大连博洋房地产开发有限公司,金州,20190416,39.05819721414208,121.74650438736514,金洋小区,27,6540,街道办事处（居委会）代管物业,0.1,辽宁,1,二手房,2000
无门店信息,大连,大连新兴海韵房地产开发有限公司,开发区,20190416,34.52713835999158,118.76812980670795,白石湾小区,10,8713,大连海韵物业管理有限公司,0.8,辽宁,1,二手房,2006
开发区松苑街23号,大连,大连西太平洋家属楼,开发区,20190416,22.52087435807652,113.40156105086167,松平里,16,12894,街道办事处（居委会）代管物业,0.5,辽宁,1,二手房,1995
无门店信息,大连,大连景和房屋开发有限公司,甘井子,20190416,34.52713835999158,118.76812980670795,怡华园,13,17144,大连景和物业管理有限公司,0.5,辽宁,1,二手房,2001
西岗区八一路196号2-1-12号,大连,大连欧美亚房地产开发有限公司,西岗,20190416,38.92047268927287,121.61862512554262,中华名城,40,19563,大连峰霖物业管理有限公司,1.5,辽宁,1,二手房,2003
开发区黄海西路201号107公建,大连,无开发商,开发区,20190416,39.04942604506828,121.80126318235419,新辰里,34,7813,街道办事处（居委会）代管物业,0.5,辽宁,1,二手房,1998
中山区中南路店212号门头房,大连,无开发商,中山,20190416,38.91149759691359,121.67700561077149,中纬巷,8,12627,无物业管理服务,-,辽宁,1,二手房,1995
中山区南山路59号1层4号,大连,无开发商,中山,20190416,38.91992239075882,121.6479206962747,昆明街（独立街）,13,20677,无物业管理服务,-,辽宁,1,二手房,1988
中山区民建街10号1单元1号,大连,暂无信息,中山,20190416,38.925444479476894,121.66915026954452,港湾街（二七商圈）,5,19295,无物业管理服务,-,辽宁,1,二手房,2000
中山区金城街26号一楼,大连,无开发商,中山,20190416,38.922282529515634,121.65214466263014,九中武汉街,7,38759,无物业管理服务,-,辽宁,1,二手房,1991
金州区拥政街道733号-8号1-2层,大连,大连市金州区房屋开发公司,金州,20190416,39.11690610445662,121.73030803603723,春和小区,32,7104,街道办事处（居委会）代管物业,0.1,辽宁,1,二手房,1995
大连市甘井子区逸林南园1-1号,大连,暂无信息,甘井子,20190416,38.95800216293212,121.53151895549547,三鼎春天B区,44,28965,瑞联德（大连）物业管理有限公司,3.2,辽宁,1,二手房,2015
无门店信息,大连,大连市中联房地产开发有限公司,金州,20190416,34.52713835999158,118.76812980670795,卧龙园,23,6630,大连健龙物业管理有限公司,0.5,辽宁,1,二手房,2009
西岗区绕山路31号公建一层东侧,大连,无开发商,西岗,20190416,38.90257514466717,121.61412736644739,绕云巷,7,10807,无物业管理服务,-,辽宁,1,二手房,1991
金州区南棉路310号,大连,暂无信息,金州,20190416,39.09939229372624,121.72414976100345,金乾公馆,9,8158,无物业管理服务,-,辽宁,1,二手房,-
中山区鲁迅路184号1层B—A,大连,大连华顺房地产开发公司,中山,20190416,38.92590875965419,121.67594393403164,春和花园,11,15807,大连华富物业管理有限公司,0.5,辽宁,1,二手房,2004
中山区鲁迅路184号1层B—A,大连,无开发商,中山,20190416,38.92590875965419,121.67594393403164,39中山岳街,11,18131,无物业管理服务,-,辽宁,1,二手房,1998
沙河口区五四路207-1-9号,大连,无开发商,沙河口,20190416,38.913544290955585,121.59450670056631,集贤北街,4,13484,无物业管理服务,0.5,辽宁,1,二手房,1995
中山区爱华街13号,大连,无开发商,中山,20190416,38.92541607518685,121.6535728031028,七一街,4,11232,无物业管理服务,-,辽宁,1,二手房,1993
红星海A区126-4,大连,大连光伸房地产开发有限公司,开发区,20190416,39.027851194371685,121.80327394132297,绿洲半岛三期,35,10075,大连经济技术开发区光伸物业服务有限公司,0.6,辽宁,1,二手房,2005
中山区益民街16号1层1号,大连,无开发商,中山,20190416,38.93092761298906,121.66470740073377,丹东街（三八广场）,10,14052,无物业管理服务,-,辽宁,1,二手房,1998
西岗区鞍山路65-5号,大连,无开发商,沙河口,20190416,38.926971569913064,121.60260230348328,美辰臻品,10,19264,大连众和物业管理有限公司,1,辽宁,1,二手房,2007
中山区安居巷7号,大连,大连振富房屋开发有限公司,西岗,20190416,38.92451111549568,121.65154739366945,振富公寓（胜利桥北商圈）,27,8939,大连中海振富物业管理有限公司,1.1,辽宁,1,二手房,2002
中山区爱华街13号,大连,大连一方地产有限公司,中山,20190416,38.92541607518685,121.6535728031028,一方国际,32,34278,大连一方物业管理有限公司,4.8,辽宁,1,二手房,2013
"西岗区泰公街20号2层7号 西岗区久寿街22号1层14号""",大连,无开发商,西岗,20190416,38.92600196862723,121.62141976476381,银华双厦,9,11598,无物业管理服务,-,辽宁,1,二手房,1999
大连市金州新区友谊街道和平路59-10号1-2层公建,大连,无开发商,金州,20190416,39.112168401852266,121.72006917947859,一农机小区,28,8193,街道办事处（居委会）代管物业,0.5,辽宁,1,二手房,1996
中山区安居巷7号,大连,无开发商,中山,20190416,38.92451111549568,121.65154739366945,长江路（中山友好商圈）,1,10855,无物业管理服务,-,辽宁,1,二手房,1990
甘井子区海口路77-4号公建,大连,大连鹏生房地产开发有限公司,甘井子,20190416,38.960286398428124,121.60305183172997,鹏辉新世纪,0,17983,大连鹏辉物业管理有限公司,0.6,辽宁,1,二手房,2003
沙河口区兰田街33号,大连,无开发商,沙河口,20190416,38.926138912221084,121.56486022834609,马栏广场,12,11458,无物业管理服务,0.4,辽宁,1,二手房,2000
西岗区新田巷27号1-2,大连,无开发商,西岗,20190416,38.893215932589385,121.64103065169111,新环巷,4,10214,无物业管理服务,-,辽宁,1,二手房,1990
中山区民运巷 47号1层2号,大连,无开发商,西岗,20190416,38.905955122300846,121.64798148011702,天富山庄,8,10172,大连天富物业管理有限公司,0.2,辽宁,1,二手房,1995
无门店信息,大连,大连万林房地产开发有限公司,甘井子,20190416,34.52713835999158,118.76812980670795,我爱我家,19,14388,大连溪谷阳光物业服务有限公司,1.3,辽宁,1,二手房,2011
高新园区海苑街36号1单元2号公建,大连,大连宜兴房地产开发有限公司,高新园区,20190416,20.06392317589085,110.32302599457326,彼得公寓,5,17653,宜兴物业管理有限公司,1,辽宁,1,二手房,2008
沙河口区黑石礁街3号1层1-1号,大连,暂无信息,沙河口,20190416,38.880058010307856,121.56313403908827,熙园,3,25251,达波尔酒店物业管理（大连）有限公司,2.2,辽宁,1,二手房,2009
甘井子区祥龙街2号楼1单元1楼1号,大连,大连市大钢集团,甘井子,20190416,38.988045874482445,121.60439401971377,华南沃尔玛六三角,2,11183,街道办事处（居委会）代管物业,0.5,辽宁,1,二手房,1990
大连市金州新区中长街道碧海尚城5-4号1-2层,大连,暂无信息,金州,20190416,39.100290954587514,121.7304796052032,富达小区,2,7296,无物业管理服务,-,辽宁,1,二手房,1998
西岗区鞍山路29号龙畔锦城东门,大连,无开发商,西岗,20190416,38.92763470697088,121.61498923399098,双兴北巷（大菜市商圈）,10,11104,街道办事处（居委会）代管物业,0.5,辽宁,1,二手房,1995
沙河口区富国街14号1-1-2,大连,无开发商,沙河口,20190416,38.901027106600836,121.59047734850638,星海一街,4,14293,街道办事处（居委会）代管物业,0.5,辽宁,1,二手房,-
甘井子区华东路22号公建,大连,无开发商,甘井子,20190416,38.97736184953593,121.5935814234334,秀山路,26,12009,街道办事处（居委会）代管物业,0.5,辽宁,1,二手房,1986
高新园区敬贤街25-9,大连,中海东丰地产（大连）有限公司,高新园区,20190416,38.86879447142154,121.53007349209936,中海紫御观邸一期,12,29612,大连中海物业管理有限公司,2.6,辽宁,1,二手房,2013
无门店信息,大连,暂无信息,开发区,20190416,34.52713835999158,118.76812980670795,山河枫景,23,6217,大连山河物业管理有限公司,1.2,辽宁,1,二手房,2001
西岗区中山路158号唐山街市场外14号,大连,大华集团大连房地产开发有限公司,西岗,20190416,38.91688106727098,121.63201298398174,畅通花园,3,20566,大连亿安物业管理有限公司,0.6,辽宁,1,二手房,2002
中山区民运巷 47号1层2号,大连,无开发商,中山,20190416,38.905955122300846,121.64798148011702,葵英街（武昌街商圈）,8,13407,无物业管理服务,-,辽宁,1,二手房,1990
开发区黄海西路201号107公建,大连,无开发商,开发区,20190416,39.04942604506828,121.80126318235419,新云里,22,7950,街道办事处（居委会）代管物业,0.5,辽宁,1,二手房,2000
大连市开发区抚顺街30号,大连,无开发商,开发区,20190416,38.92272284555705,121.5977239817503,红梅南里,17,10837,街道办事处（居委会）代管物业,0.3,辽宁,1,二手房,1997
