address,city,developer,district,index_date,lat,lng,name,osv,price,property,property_fee,province,tv,type,year
大连经济技术开发区东城天下98-14,大连,大连乾豪集团有限公司,开发区,20190708,39.069195091289004,121.8502099927954,东城天下,369,8745,大连远洋基业物业管理有限公司,0.9,辽宁,43,二手房,2002
甘井子区宜居园10-1号房屋,大连,大连万科房地产开发有限公司,甘井子,20190708,38.99913094587405,121.52084969112292,万科魅力之城,184,14626,大连万科物业服务有限公司,1.5,辽宁,40,二手房,2006
开发区湾里南12栋-16-17-18号,大连,大连金湾实业有限公司,开发区,20190708,39.070782084451,121.8506739675913,湾里南小区,378,8788,大连金湾物业管理有限公司,0.3,辽宁,32,二手房,2002
甘井子区泉水D1区37-7号,大连,大连运腾房地产开发有限公司,甘井子,20190708,39.013992871679214,121.61921940045104,锦泉源D2区,217,13300,大连嘉毅物业管理有限公司,0.5,辽宁,29,二手房,2001
沙河口区沙能街101号1单元1层1号,大连,大连新型房地产开发有限公司,沙河口,20190708,38.9366316275348,121.59031205759763,侯二小区,178,11248,街道办事处（居委会）代管物业,0.1,辽宁,38,二手房,1980
开发区湾里南12栋-16-17-18号,大连,大连金湾实业有限公司,开发区,20190708,39.070782084451,121.8506739675913,湾里东,210,8214,大连金湾物业管理有限公司,0.5,辽宁,25,二手房,2001
甘井子区榆林街37号-12公建,大连,新型房地产开发有限公司,甘井子,20190708,38.980133141940186,121.52779506952932,泡崖美林园,247,11678,新兴物业,0.6,辽宁,65,二手房,2000
开发区正恒园1-16,大连,大连华宇房地产开发有限公司,开发区,20190708,39.04823944344617,121.76165468797754,左岸经典,266,9049,大连豪之英物业管理有限公司,1.8,辽宁,35,二手房,2000
金州区金润花园B区47号1单元1层1号2号,大连,大连辽大房地产开发有限公司,金州,20190708,39.10434716151341,121.74517862677146,金润小区B区,181,8372,大连新兴物业管理有限公司,0.4,辽宁,25,二手房,2000
甘井子区宜居园10-1号房屋,大连,大连万科房地产开发有限公司,甘井子,20190708,38.99913094587405,121.52084969112292,万科朗润园,103,15021,大连万科物业服务有限公司,1.5,辽宁,25,二手房,2009
沙河口区西南路643号,大连,无开发商,沙河口,20190708,38.943483429804665,121.5833555851182,交通大学,75,12975,无物业管理服务,-,辽宁,25,二手房,1955
沙河口区昌黎街22号,大连,大连城市建设集团有限公司,沙河口,20190708,38.91975785098891,121.59109628369768,北昌平小区,136,13088,无物业管理服务,-,辽宁,22,二手房,1983
沙河口区华新苑10号楼4号公建,大连,大连新型房地产开发有限公司,沙河口,20190708,38.94033750532864,121.58990295130229,侯一小区,155,11382,大连新兴物业管理有限公司,0.3,辽宁,29,二手房,1989
大连经济技术开发区时代城4-3号1-2号,大连,远洋地产有限公司,开发区,20190708,39.0992481321252,121.83007860699459,远洋时代城一期,172,9320,大连远洋基业物业管理有限公司,1.5,辽宁,28,二手房,1998
甘井子区静林街34号4单元1层2,大连,大连祥盛房屋开发有限公司,甘井子,20190708,38.98321485010885,121.58185179833856,千山心城,129,14509,大连百特物业管理有限公司,0.5,辽宁,22,二手房,2002
无门店信息,大连,大连一方生态城房地产开发有限公司,开发区,20190708,34.52713835999158,118.76812980670795,一方天鹅湖,198,8093,大连一方物业管理有限公司,1.9,辽宁,23,二手房,2010
甘井子区玉丽街2号楼1单元4号公建,大连,大连新型房地产开发总公司,甘井子,20190708,38.98705071699301,121.55513043130172,泡崖康顺园,149,11387,大连新兴物业管理有限公司,0.5,辽宁,19,二手房,2002
大连市金州区站前街道生辉第一城14-3号1-2层,大连,大连新希望家园房地产有限公司,金州,20190708,39.0569681786798,121.74773530665969,新希望家园,193,8759,大连新希望物业服务有限公司,1.2,辽宁,19,二手房,2003
无门店信息,大连,无开发商,甘井子,20190708,34.52713835999158,118.76812980670795,石油六闾,69,9327,街道办事处（居委会）代管物业,0.5,辽宁,19,二手房,1900
金州新区先进街道渤海街7-4号1-2层、7-3号1-2层,大连,原金州纺织厂房地产公司,金州,20190708,39.09342713035472,121.74590886291374,金纺小区,189,6985,街道办事处（居委会）代管物业,0.5,辽宁,21,二手房,1985
甘井子区甘井子街3号公建,大连,无开发商,甘井子,20190708,38.982086281836246,121.63426694995971,文体街,131,10353,街道办事处（居委会）代管物业,0.1,辽宁,19,二手房,1974
甘井子区泡崖六小区6号楼1单元1层2号,大连,大连新型房地产开发有限公司,甘井子,20190708,38.98033159306754,121.55920598894072,泡崖五区,88,11477,大连新兴物业管理有限公司,0.5,辽宁,20,二手房,1990
甘井子区祥龙街2号楼1单元1楼1号,大连,大连恒新房地产开发有限公司,甘井子,20190708,38.988045874482445,121.60439401971377,华东人家,43,14722,大连福佳物业管理有限公司,1,辽宁,19,二手房,2006
沙河口区西南路643号,大连,无开发商,沙河口,20190708,38.943483429804665,121.5833555851182,北甸街,43,11642,无物业管理服务,-,辽宁,19,二手房,1983
无门店信息,大连,大连益宁房地产开发有限公司,开发区,20190708,34.52713835999158,118.76812980670795,岭湾峰尚一期,137,8672,大连鸿达物业管理有限公司,1.3,辽宁,22,二手房,2003
甘井子区玉湖街25号2单元1层3号,大连,大连新型房地产开发有限公司,甘井子,20190708,38.97626265183615,121.54617349027997,泡崖四区,179,10784,大连新型物业管理有限公司,0.5,辽宁,22,二手房,2000
沙河口区五一路177-1-1-1,大连,无开发商,沙河口,20190708,38.913544290955585,121.59450670056631,台山,104,11886,街道办事处（居委会）代管物业,0.5,辽宁,23,二手房,1980
大连开发区金马路169-2-8号,大连,大连亿锋房地产实业有限公司,开发区,20190708,39.057398235688176,121.78261137849105,亿锋现代城,156,10209,亿锋豪景物业管理有限公司,1.1,辽宁,24,二手房,2004
沙河口区富民路120号4-1-1,大连,大连渤海红旗集团有限公司,沙河口,20190708,38.930937859528605,121.5647274237578,马栏小学北,87,10819,街道办事处（居委会）代管物业,0.2,辽宁,24,二手房,1992
开发区兴城路29-81层,大连,大连亿锋房地产实业有限公司,开发区,20190708,39.050214252167194,121.75835946441768,亿锋广场一期,84,14802,大连广恒物业管理有限公司,2.5,辽宁,16,二手房,2008
天河路173-2号 华润考拉22号公建,大连,华润置地（大连）开发有限公司,甘井子,20190708,23.14720645345518,113.3277414923158,华润考拉住区,89,15922,华润物业（大连）有限公司,2.5,辽宁,18,二手房,2007
大连市甘井子区柳林园8-7号,大连,大连万科置业有限公司,甘井子,20190708,38.91290525308349,121.47673750074993,万科溪之谷,210,14605,大连万科物业服务有限公司,0.6,辽宁,24,二手房,2007
沙河口区黑石礁街3号1层1-1号,大连,无开发商,沙河口,20190708,38.880058010307856,121.56313403908827,浪花街,46,11642,无物业管理服务,-,辽宁,14,二手房,1990
甘井子区祥溢园4号1单元1层9号公建,大连,"大连鹏德房屋开发有限公司,大连长鹭房屋开发有限公司,大连均卫达房地产开发有限公司,大连福田房屋开发有限公司,大连航宇房屋开发有限公司",甘井子,20190708,38.92981664067587,121.54940314023253,亲亲家园,69,15601,渤海吉祥物业管理有限公司,0.5,辽宁,14,二手房,2003
开发区安盛里5栋-4,大连,大连开建集团有限公司,开发区,20190708,23.112106678834838,113.27801046214822,开建阳光馨苑,96,9491,大连开利物业管理有限公司,1.2,辽宁,14,二手房,2007
沙河口区南沙街36号台二2号1-1-37,大连,无开发商,沙河口,20190708,38.90741410359388,121.57685699961822,南沙,77,11527,无物业管理服务,1,辽宁,14,二手房,1982
开发区东北三街94号1层,大连,大连欣达房地产开发有限公司,开发区,20190708,39.05723508011585,121.80570768630555,倚山里小区,218,7560,大连经济技术开发区聚盛达物业管理有限公司,0.2,辽宁,14,二手房,1995
开发区安盛里5栋-4,大连,大连盛铭资产管理有限公司,开发区,20190708,23.112106678834838,113.27801046214822,安盛花园,86,9482,大连经济技术开发区海青物业有限公司,1.1,辽宁,14,二手房,2002
沙河口区新生路万客园3-7,大连,大连绿波房屋开发集团有限公司,沙河口,20190708,38.94412875710208,121.57006756704837,绿波小区,154,11129,大连绿波建设发展有限公司,0.2,辽宁,14,二手房,1993
无门店信息,大连,大连金湾实业有限公司,开发区,20190708,34.52713835999158,118.76812980670795,金湾山城,176,9393,大连金湾物业管理有限公司,0.5,辽宁,15,二手房,2003
沙河口区华北路448号楼1-4公建,大连,无开发商,沙河口,20190708,38.903224944733765,121.56809734950556,刘家桥,100,10927,街道办事处（居委会）代管物业,0.1,辽宁,15,二手房,1980
沙河口区红凌路137号,大连,大连大实企业集团房屋开发有限公司,甘井子,20190708,38.922699288974506,121.54713601744747,叠翠山庄,31,10976,大连弘实物业管理有限公司,0.4,辽宁,15,二手房,2000
开发区润海园中区62-9,大连,华润（大连）房地产有限公司,开发区,20190708,39.04047273176333,121.76392358042445,华润海中国四期,124,14144,华润物业（大连）有限公司,3.1,辽宁,15,二手房,2000
中山区益民街16号1层1号,大连,大连恒力德实业开发有限公司,中山,20190708,38.93092761298906,121.66470740073377,港湾壹号,76,14164,大连日航酒店物业管理有限公司,3.8,辽宁,15,二手房,2006
甘井子区玉丽街2号楼1单元4号公建,大连,大连新型房地产开发有限公司,甘井子,20190708,38.98705071699301,121.55513043130172,泡崖七区,120,11002,大连新兴物业管理有限公司,0.3,辽宁,15,二手房,1995
开发区润海园中区30-1,大连,华润（大连）房地产有限公司,开发区,20190708,39.04047273176333,121.76392358042445,华润海中国三期,170,14435,华润物业（大连）有限公司,3.1,辽宁,15,二手房,2010
无门店信息,大连,大连万科房地产开发有限公司,旅顺口,20190708,34.52713835999158,118.76812980670795,万科樱花园三期,36,12955,大连万科物业服务有限公司,2.4,辽宁,15,二手房,2010
甘井子区华北路花锦园28号23-3-1-2建筑物,大连,大连东特房地产开发有限公司,甘井子,20190708,38.951627958411166,121.5739439799003,东特新天地,51,16725,大连瑞祥物业管理有限公司,0.5,辽宁,15,二手房,2001
沙河口区马栏北街186号,大连,大连渤海红旗集团有限公司,甘井子,20190708,38.913544290955585,121.59450670056631,马栏北街,43,11488,大连辽南物业管理有限公司,0.2,辽宁,15,二手房,1988
甘井子区红凌路109号,大连,大连锦联地产集团有限公司,甘井子,20190708,38.923388478439314,121.54860212120927,锦绣暖山,76,15217,大连锦明物业服务有限公司,1.2,辽宁,12,二手房,2004
甘井子区哲林北园17-6号,大连,大连亿达美加房地产开发有限公司,甘井子,20190708,38.9600267109581,121.53876726228256,第五郡三号地,69,29479,亿达物业管理有限公司,2.2,辽宁,11,二手房,2012
甘井子区泡崖六小区6号楼1单元1层2号,大连,大连新型房地产开发有限公司,甘井子,20190708,38.98033159306754,121.55920598894072,泡崖六区,39,11839,大连新兴物业管理有限公司,0.3,辽宁,11,二手房,1999
沙河口区富民路249号,大连,大连文路建设集团有限公司,沙河口,20190708,38.93341510428133,121.5770130002514,阳光月秀,48,16560,大连丰泽物业管理有限公司,0.6,辽宁,11,二手房,2004
无门店信息,大连,大连环宇置业有限公司,开发区,20190708,34.52713835999158,118.76812980670795,环宇品阁,93,6404,大连环宇物业管理有限公司,1.5,辽宁,12,二手房,2005
沙河口区西南路851号3单元1层3号,大连,无开发商,沙河口,20190708,38.94344210837944,121.58246796944378,李家街,25,11730,无物业管理服务,0.1,辽宁,11,二手房,1985
大连市甘井子中华路街道汇畅街48号,大连,远洋地产有限公司,甘井子,20190708,39.0059299196697,121.59621871231741,远洋荣域,173,18917,远洋亿家物业服务股份有限公司大连分公司,2.8,辽宁,12,二手房,2012
甘井子区泉水D6区51号,大连,大连金广集团,甘井子,20190708,39.00897610161069,121.61789300655198,枫丹丽城,100,15996,大连金广物业有限公司,1.5,辽宁,12,二手房,2009
甘井子区红旗中路143号1层4号,大连,大连保利红旗房地产开发有限公司,甘井子,20190708,38.93169566676921,121.5426632438217,保利西山林语,70,20924,保利物业服务有限公司,1.5,辽宁,12,二手房,2006
金州新区站前街道生辉第一城5号楼1-2层4号,大连,大连新希望家园房地产有限公司,金州,20190708,39.05819721414208,121.74650438736514,新希望乐城,65,10224,大连新希望物业服务有限公司,1.6,辽宁,12,二手房,2009
甘井子区泉水D6区51号,大连,大连锦丰和源祥房地产开发有限公司,甘井子,20190708,39.00897610161069,121.61789300655198,泉水家年华,111,13745,街道办事处（居委会）代管物业,0.9,辽宁,12,二手房,2007
甘井子区虹城路503号1-1号,大连,大连新星房地产开发有限公司,甘井子,20190708,38.981193588625004,121.49964051837122,艾维尼小城,98,15789,大连生生物业有限公司,1.8,辽宁,12,二手房,2009
金州区金润小区B区861单元102,大连,大连新型房地产开发有限公司,金州,20190708,39.10615165380565,121.74639264534615,糖果小区,72,9033,大连新兴物业管理有限公司,0.5,辽宁,12,二手房,2000
金州区金润小区B区861单元102,大连,大连辽大房地产开发有限公司,金州,20190708,39.10615165380565,121.74639264534615,金润小区A区,142,8686,大连新兴物业管理有限公司,0.4,辽宁,12,二手房,1999
大连市开发区湾里东5-6号,大连,大连宏港房地产开发有限公司,开发区,20190708,39.07275772231556,121.85888789351343,都悦里,219,6934,大连宏港物业管理有限公司,0.3,辽宁,12,二手房,1992
甘井子区绿洲园60号,大连,大连新华房屋开发有限公司,甘井子,20190708,38.95390300214936,121.59409785747448,新华绿洲,75,18558,大连新华物业管理有限公司,0.6,辽宁,12,二手房,2001
沙河口区联合路133号,大连,无开发商,沙河口,20190708,38.91608561262676,121.60480987310456,79中永平,100,26636,无物业管理服务,-,辽宁,12,二手房,1992
甘井子区千山路26号,大连,大连嘉兴房地产开发有限公司,甘井子,20190708,38.985697948031984,121.58768860037272,千山路,79,12209,无物业管理服务,0.5,辽宁,12,二手房,1985
甘井子区千山路26号,大连,大连市大钢集团,甘井子,20190708,38.985697948031984,121.58768860037272,华中街,31,12221,街道办事处（居委会）代管物业,0.1,辽宁,12,二手房,1900
沙河口区新生路万客园3-7,大连,大连鹏生房地产开发有限公司,沙河口,20190708,38.94412875710208,121.57006756704837,枫林绿洲,39,14161,大连鹏辉物业管理有限公司,0.3,辽宁,12,二手房,2002
开发区黄海西路54号,大连,中国铁路十三局,开发区,20190708,39.047714586087785,121.76688238228269,翠竹小区,117,8116,大连经济技术开发区中强物业管理有限公司,0.3,辽宁,10,二手房,1995
甘井子区红旗西路104-23,大连,大连万科房地产开发有限公司,甘井子,20190708,38.94013845868325,121.5282577714263,万科假日风景,82,17047,大连万科物业服务有限公司,1,辽宁,10,二手房,2007
开发区黄海西路54号,大连,开发区城建局,开发区,20190708,39.047714586087785,121.76688238228269,青松南里,90,8014,大连经济技术开发区中强物业管理有限公司,0.5,辽宁,10,二手房,1996
金州新区润海园中区18#2号,大连,华润置地（大连）有限公司,开发区,20190708,39.04047273176333,121.76392358042445,华润海中国二期,167,14246,华润物业（大连）有限公司,2.8,辽宁,10,二手房,2007
西岗区平等街21号1层2号,大连,无开发商,西岗,20190708,38.92251066253164,121.63236845125735,实验小学同庆街,84,22658,无物业管理服务,-,辽宁,10,二手房,1980
高新园区聚贤路36号5幢1单元1层1号,大连,大连法马克房地产开发有限公司,高新园区,20190708,32.31472011562832,119.46141263909165,中铁诺德滨海花园,77,19868,大连中铁诺德物业服务有限公司,2.3,辽宁,10,二手房,2010
开发区润海园中区30-1,大连,华润置地（大连）开发有限公司,开发区,20190708,39.04047273176333,121.76392358042445,华润海中国一期,162,16382,华润物业（大连）有限公司,1.8,辽宁,10,二手房,2007
金州新区先进街道五一路350-1号1-2层,大连,暂无信息,金州,20190708,39.078667146419825,121.77094423323935,聚鑫小区三期,61,7033,大连新生活物业管理有限公司,0.5,辽宁,10,二手房,2000
开发区鹏程家园66#-6、66#-7公建,大连,大连海富花园开发有限公司,开发区,20190708,37.92440451755906,112.59861436589645,海富经典,130,9955,大连银帆物业管理有限公司,1.2,辽宁,10,二手房,2007
西岗区九三街64号,大连,润德集团有限公司,西岗,20190708,38.92047268927287,121.61862512554262,润德广场,58,15418,大连润德物业管理有限公司,3.8,辽宁,10,二手房,2000
大连市甘井子区辛如街35号1单元1层1号,大连,大连新星房地产开发有限公司,甘井子,20190708,38.96862607066881,121.52294869064194,新星绿城五期,69,14054,大连生生物业有限公司,0.8,辽宁,10,二手房,2006
高新园区海苑街30号1单元1号公建,大连,大连大有文园房屋开发有限公司,高新园区,20190708,20.06392317589085,110.32302599457326,大有文园,48,17059,大连大有恬园物业管理有限公司,2,辽宁,10,二手房,2009
甘井子区促进路30号2-1-1,大连,福佳集团有限公司,甘井子,20190708,38.954133128707575,121.58355746311207,府佳名都,49,18061,大连富佳物业管理有限公司,0.5,辽宁,10,二手房,2001
沙河口区西南路161号,大连,无开发商,沙河口,20190708,38.89269676588945,121.56639953951542,孙家沟,91,12456,无物业管理服务,-,辽宁,10,二手房,1987
甘井子金地艺境博艺西园2-1号,大连,大连恒昇房地产开发有限公司,甘井子,20190708,39.04402110608829,121.665484498555,福佳新城一期,67,9290,暂无信息,0.9,辽宁,11,二手房,2000
中山区东港龙湖水晶郦湾7-102,大连,大连龙湖东港房地产有限公司,中山,20190708,38.924700620463895,121.70344398518496,龙湖水晶郦湾,72,27987,大连龙湖物业服务有限公司,4.5,辽宁,10,二手房,2012
沙河口区敦煌路357号10-11轴公建,大连,无开发商,沙河口,20190708,38.93891619583455,121.59150694046835,车家村,31,10694,街道办事处（居委会）代管物业,0.5,辽宁,10,二手房,1980
西岗区黄河路90号公建部分,大连,大连鼎森房地产开发有限公司,西岗,20190708,38.92234529815978,121.62829331825485,金宸国际,47,17495,英联华（香港）物业管理顾问有限公司,2.2,辽宁,9,二手房,2004
大连市甘井子区泉水N2区3-13号,大连,暂无信息,甘井子,20190708,39.021116079001885,121.64659997607325,泉水N1区,102,9959,无物业管理服务,0.7,辽宁,9,二手房,1999
甘井子区汇仁街22号,大连,中铁建（大连）置业有限公司,甘井子,20190708,38.99712640764999,121.58834420439493,动力院景三期汇善园,41,15443,大连铁龙安居物业管理有限公司,0.9,辽宁,8,二手房,2006
开发区黄海西路201号107公建,大连,无开发商,开发区,20190708,39.04942604506828,121.80126318235419,岗松里小区,113,7320,大连经济技术开发区海青物业有限公司,0.5,辽宁,8,二手房,1994
甘井子区虹城路503号1-1号,大连,大连易和房地产集团有限公司,甘井子,20190708,38.981193588625004,121.49964051837122,岭秀滨城悦和中园,34,16771,大连易兴物业服务有限公司,1.3,辽宁,8,二手房,2009
甘井子区圣林南园3-3号,大连,大连广泰房屋开发有限公司,甘井子,20190708,38.95191781681833,121.54394961192217,美树日记,78,22593,大连华安物业管理有限公司,1.6,辽宁,8,二手房,2007
中山区清溪南街11号,大连,无开发商,中山,20190708,38.88919604283904,121.66466481004835,桃仙小区,24,13277,街道办事处（居委会）代管物业,-,辽宁,8,二手房,1992
中山区清溪南街11号,大连,无开发商,中山,20190708,38.88919604283904,121.66466481004835,秀月小区,44,16938,无物业管理服务,-,辽宁,8,二手房,1982
沙河口区红凌路137号,大连,大连大实企业集团房屋开发有限公司,甘井子,20190708,38.922699288974506,121.54713601744747,泊林阳光A区,14,14012,大连弘实物业管理有限公司,0.6,辽宁,8,二手房,2006
沙河口区数码路北段18—20号,大连,大连软景房地产开发有限公司,高新园区,20190708,38.892000603999115,121.5494486394066,软景E居,96,27362,亿达物业管理有限公司,2.6,辽宁,9,二手房,2009
金州区五一路先进街道 陶然居2-2,大连,大连金开房地产开发有限公司,金州,20190708,39.0830973395057,121.7630113583655,华邦俪城,118,10292,大连华邦物业有限公司,1.3,辽宁,9,二手房,2010
沙河口区兰田街33号,大连,无开发商,沙河口,20190708,38.926138912221084,121.56486022834609,辽师,46,12356,无物业管理服务,-,辽宁,9,二手房,1900
中山区华乐街107-115号,大连,大连海昌房地产开发有限公司,中山,20190708,38.92093821499401,121.68879267531725,海昌欣城,102,17334,大连海昌欣城物业管理有限公司,1.2,辽宁,9,二手房,2002
西岗区香炉礁24号1-1,大连,无开发商,西岗,20190708,38.92047268927287,121.61862512554262,工人村,67,10624,街道办事处（居委会）代管物业,0.5,辽宁,9,二手房,1980
开发区小孤山西里3栋-11号,大连,大连开建房地产开发有限公司,开发区,20190708,39.02715282297674,121.80682183666346,瑞仕尚城,50,11301,大连阿尔滨汇城物业服务有限公司,1.1,辽宁,9,二手房,2007
甘井子区虹韵路114号,大连,大连亿达美加房地产开发有限公司,甘井子,20190708,38.95653310483457,121.5329869995972,第五郡五号地,88,27549,亿达物业管理有限公司,2,辽宁,9,二手房,2008
开发区红梅小区19栋-2-1-1号,大连,无开发商,开发区,20190708,29.906498897603264,121.5913630631805,古耕国际酒店公寓,65,10712,街道办事处（居委会）代管物业,3,辽宁,9,二手房,1998
沙河口区绿波路34号楼5单元1楼3号,大连,"大连汇戎开发有限公司,大连东北房屋开发有限公司",沙河口,20190708,38.94049893962156,121.57316620632874,帝欧花园,34,17932,大连绿波建设发展有限公司,0.6,辽宁,9,二手房,2003
甘井子区甘井子路32号楼1单元1楼9号,大连,无开发商,甘井子,20190708,38.982488275116516,121.63345389253514,松江小区,35,10320,街道办事处（居委会）代管物业,0.5,辽宁,9,二手房,1980
莲花山路89-3号,大连,大连胜利路拓宽改造工程建设有限公司,沙河口,20190708,38.902848261803356,121.6041720815823,星海融汇,115,21887,大连星海湾商务区物业管理有限公司,1.5,辽宁,8,二手房,2012
无门店信息,大连,大连乾豪集团有限公司,开发区,20190708,34.52713835999158,118.76812980670795,格林小镇,195,8136,沈阳瑞码阁物业管理有限公司大连分公司,0.6,辽宁,7,二手房,2000
甘井子区新兴路36号3-1-3,大连,大连新型房地产开发有限公司,甘井子,20190708,38.95800216293212,121.53151895549547,泡崖二区,94,10716,大连新兴物业管理有限公司,0.5,辽宁,7,二手房,1996
沙河口区黄河路535号,大连,大连城市建设集团有限公司,沙河口,20190708,38.91773777159567,121.60217159922856,79中金光小区,40,24152,无物业管理服务,-,辽宁,7,二手房,1983
甘井子区辛寨子街道中冶蓝城辛虹园39-7号公建,大连,大连中冶京诚置业有限公司,甘井子,20190708,38.98155611421408,121.49259383356096,中冶蓝城C区,39,17245,大连添翼物业服务有限公司,2,辽宁,8,二手房,2011
沙河口区锦石路8号,大连,大连锦绣房地产开发有限公司,沙河口,20190708,38.94771288948481,121.56110903658733,锦云中园,67,10685,大连锦绣物业管理有限公司,0.3,辽宁,8,二手房,1993
中山区民运巷 47号1层2号,大连,无开发商,中山,20190708,38.905955122300846,121.64798148011702,民运巷,17,11219,无物业管理服务,-,辽宁,7,二手房,1989
无门店信息,大连,大连天启房地产开发有限公司,高新园区,20190708,34.52713835999158,118.76812980670795,百合IT家园,39,12788,大连亮泰安邦物业有限公司,0.6,辽宁,8,二手房,2007
开发区杏树里10栋-14,大连,无开发商,开发区,20190708,39.08113818354046,121.78505742127606,松苑山庄,81,5926,大连市金州区先进物业管理中心,0.5,辽宁,8,二手房,1990
金州区拥政街道733号-8号1-2层,大连,无开发商,金州,20190708,39.11690610445662,121.73030803603723,古城甲区,130,7568,街道办事处（居委会）代管物业,0.5,辽宁,8,二手房,1990
甘井子区山东路商业街D区12号公建,大连,无开发商,甘井子,20190708,39.001060021502965,121.58883960371418,兴华路,66,12440,街道办事处（居委会）代管物业,0.5,辽宁,8,二手房,1986
高新园区黄浦路600-602号,大连,大连鑫亿房屋开发有限公司,高新园区,20190708,38.86342472318123,121.53493189660259,新科花园,36,18395,大连鑫晟物业管理有限公司,0.6,辽宁,8,二手房,2003
甘井子区泉水D1区37-7号,大连,大连运腾房地产开发有限公司,甘井子,20190708,39.013992871679214,121.61921940045104,锦泉源D3区,66,12875,大连南虹物业管理有限公司,0.5,辽宁,8,二手房,2006
大连经济技术开发区时代城4-3号1-2号,大连,远洋地产有限公司,开发区,20190708,39.0992481321252,121.83007860699459,远洋时代城三期,90,8728,大连远洋基业物业管理有限公司,1.5,辽宁,8,二手房,2010
开发区红梅小区19栋-2-1-1号,大连,开发区城建局,开发区,20190708,29.906498897603264,121.5913630631805,红梅小区,47,12712,街道办事处（居委会）代管物业,0.3,辽宁,8,二手房,1992
大连市甘井子区燕南园50号,大连,大连软件园发展有限公司,高新园区,20190708,38.90172480153224,121.5363466289672,东方圣克拉二期,53,26767,亿达物业管理有限公司,2.6,辽宁,8,二手房,2010
大连市甘井子区钻石湾和信园13-5,大连,远洋地产有限公司,甘井子,20190708,38.958699272665584,121.61903564217761,远洋钻石湾三期,70,21579,远洋亿家物业服务股份有限公司大连分公司,1.5,辽宁,8,二手房,2014
沙河口区星海广场B3区20—3号,大连,大连飞通房地产开发有限公司,沙河口,20190708,38.88782715536473,121.5869168319735,东方星海,125,17940,大连兆恒物业管理有限公司,2.9,辽宁,8,二手房,2006
甘井子区泉水H3区15号3单元1层2号,大连,大连新型房地产开发有限公司,甘井子,20190708,39.00158439075201,121.62616882572375,龙畔金泉四期,70,13277,大连新型物业管理有限公司,0.4,辽宁,8,二手房,2004
沙河口区五一路270-274号,大连,无开发商,高新园区,20190708,38.913544290955585,121.59450670056631,由家村,28,13152,无物业管理服务,-,辽宁,8,二手房,1990
中山区东港龙湖水晶郦湾7-102,大连,大连保利东港房地产开发有限公司,中山,20190708,38.924700620463895,121.70344398518496,保利天禧,59,25719,保利物业服务有限公司,4.8,辽宁,7,二手房,2015
甘井子区金家街17-7号,大连,暂无信息,甘井子,20190708,38.97493697764367,121.60110987128529,金四街,40,20390,无物业管理服务,-,辽宁,7,二手房,1952
沙河口区红旗东路18-22号2单元1楼3号,大连,大连益嘉房屋开发有限公司,沙河口,20190708,38.913544290955585,121.59450670056631,益嘉广场,54,16798,大连益嘉物业管理有限公司,1.8,辽宁,7,二手房,2010
甘井子区金北路17号,大连,无开发商,甘井子,20190708,38.97553393692831,121.59969720502335,76中学桥北,87,18467,无物业管理服务,-,辽宁,7,二手房,1965
甘井子区美域盛景A2区10-6,大连,大连泉水园房屋开发有限公司,甘井子,20190708,39.006221362805846,121.61022278003976,骏腾名苑,73,14188,大连衡德物业管理有限公司,0.5,辽宁,7,二手房,2005
甘井子区华龙南园12-4-3-1-3,大连,大连鹏德房屋开发有限公司,甘井子,20190708,38.98528794231248,121.61028969481718,乐活源,65,13004,大连三和住邦物业管理有限公司,0.5,辽宁,7,二手房,2007
金州区凤翔路220号,大连,大连润景房地产开发有限公司,金州,20190708,39.08410553937731,121.77700083356399,恒盛阳光美麓,149,9571,沈阳阳光鑫地物业管理有限公司大连分公司,1.6,辽宁,7,二手房,2006
甘井子区中华路泉水A1区86号4单元1层1号,大连,大连科技园房地产开发有限公司,甘井子,20190708,39.0040531092963,121.60742125620513,奥林园,44,14015,大连衡德物业管理有限公司,0.5,辽宁,7,二手房,2004
甘井子区促进路200号,大连,大连亿达房地产股份有限公司,甘井子,20190708,38.95810188892782,121.58530036264898,林语家话,35,26433,亿达物业管理有限公司,1.2,辽宁,7,二手房,2005
沙河口区前程街46号4—1—2号,大连,大连渤海红旗集团有限公司,甘井子,20190708,38.913544290955585,121.59450670056631,兰丰巷,20,10976,大连辽南物业管理有限公司,0.2,辽宁,7,二手房,1990
开发区小孤山西里3栋-11号,大连,大连九龙汇房地产开发有限公司,开发区,20190708,39.02715282297674,121.80682183666346,九龙汇,60,9080,大连宏亮红物业管理有限公司,1.9,辽宁,7,二手房,2007
无门店信息,大连,大连亿达房地产股份有限公司,旅顺口,20190708,34.52713835999158,118.76812980670795,亿达玉龙湾,46,9360,亿达物业管理有限公司,1.5,辽宁,7,二手房,2010
甘井子辛吉街150号-7号,大连,大连新星房地产开发有限公司,甘井子,20190708,38.96368508446978,121.52671221254214,新星帕尔美娜,53,15868,大连生生物业有限公司,1,辽宁,7,二手房,2008
大连市高新园区软件园路1A-3号,大连,亿达房地产开发有限公司,高新园区,20190708,38.89360013642285,121.54653763548625,软件园小区,54,14562,业主自筹物业,0.2,辽宁,7,二手房,1995
高新园区海苑街36号1单元2号公建,大连,大连大有房屋开发有限公司,高新园区,20190708,20.06392317589085,110.32302599457326,大有恬园,46,17720,大连家园物业有限公司,0.5,辽宁,7,二手房,2003
甘井子区甘井子街3号公建,大连,无开发商,甘井子,20190708,38.982086281836246,121.63426694995971,北山小区,24,9164,无物业管理服务,0.2,辽宁,7,二手房,1988
高新园区海苑街30号1单元1号公建,大连,大连大有房屋开发有限公司,高新园区,20190708,20.06392317589085,110.32302599457326,大有恬园二期,43,17335,大连家园物业有限公司,1.2,辽宁,7,二手房,2009
无门店信息,大连,大华集团大连置业有限公司,高新园区,20190708,34.52713835999158,118.76812980670795,大华锦绣华城四期,39,22697,大连大华物业管理有限公司,2.5,辽宁,6,二手房,2010
无门店信息,大连,开发区城建局,开发区,20190708,34.52713835999158,118.76812980670795,东居里,124,7128,大连经济技术开发区海青物业有限公司,0.2,辽宁,6,二手房,1994
开发区杏树里10栋-14,大连,大连华宇房地产开发有限公司,开发区,20190708,39.08113818354046,121.78505742127606,华宇凤凰城,76,8355,大连华宇物业管理有限公司,1,辽宁,6,二手房,2006
大连经济技术开发区时代城4-3号1-2号,大连,远洋地产有限公司,开发区,20190708,39.0992481321252,121.83007860699459,远洋时代城四期,55,8726,大连远洋基业物业管理有限公司,1.5,辽宁,6,二手房,2010
开发区安盛里5栋-4,大连,大连华宇房地产开发有限公司,开发区,20190708,23.112106678834838,113.27801046214822,叠翠花香,27,9468,大连经济技术开发区永嘉物业管理有限公司,0.5,辽宁,6,二手房,1999
开发区安盛里5栋-4,大连,大连汽贸房屋开发有限公司,开发区,20190708,23.112106678834838,113.27801046214822,东北明珠,62,12285,大连汽贸物业管理有限公司,1.5,辽宁,6,二手房,2006
中山区山屏街116号1-1,大连,大连中信海港投资有限公司,中山,20190708,38.90729438486833,121.68598159980013,山屏街,37,11899,暂无信息,-,辽宁,6,二手房,1988
无门店信息,大连,无开发商,甘井子,20190708,34.52713835999158,118.76812980670795,五二三厂,49,8680,无物业管理服务,0.5,辽宁,6,二手房,1970
无门店信息,大连,大连软件园世通开发有限公司,高新园区,20190708,34.52713835999158,118.76812980670795,亿达普罗旺斯二期,86,20790,亿达物业管理有限公司,2.6,辽宁,6,二手房,2010
沙河口区恒利园42号-8,大连,大连天河房地产开发集团有限公司,沙河口,20190708,38.93357562498634,121.57914091532649,天河新苑,45,13258,大连天河物业管理有限公司,0.4,辽宁,6,二手房,2000
高新园区聚贤路36号5幢1单元1层1号,大连,大连海创房地产开发有限公司,高新园区,20190708,32.31472011562832,119.46141263909165,海创半山壹号,62,17306,大连海创物业管理有限公司,1.8,辽宁,6,二手房,2010
无门店信息,大连,无开发商,甘井子,20190708,34.52713835999158,118.76812980670795,七星广场,17,9052,街道办事处（居委会）代管物业,0.2,辽宁,6,二手房,1995
开发区黄海西路54号,大连,开发区城建局,开发区,20190708,39.047714586087785,121.76688238228269,青松北里,53,8499,大连经济技术开发区中强物业管理有限公司,0.2,辽宁,6,二手房,1995
开发区兴城路29-81层,大连,大连亿锋房地产实业有限公司,开发区,20190708,39.050214252167194,121.75835946441768,亿锋广场二期,47,15014,大连广恒物业管理有限公司,2.5,辽宁,6,二手房,2005
甘井子区红旗西路104-7,大连,大连盛达基业房地产开发有限公司,甘井子,20190708,38.940335495502666,121.52722586363274,依山云水,23,14622,大连盛新物业管理有限公司,0.4,辽宁,6,二手房,2004
大连市金州新区友谊街道和平路59-10号1-2层公建,大连,无开发商,金州,20190708,39.112168401852266,121.72006917947859,和平小区,24,8189,街道办事处（居委会）代管物业,0.1,辽宁,6,二手房,1989
中山区碧浪园4号-3号,大连,大连三寰房地产开发有限公司,中山,20190708,38.89147289460474,121.69329560326236,碧浪园一期,37,14351,大连峰霖物业管理有限公司,0.3,辽宁,6,二手房,1997
西岗区平等街21号1层2号,大连,"无开发商,大连永欣香榭里实业有限公司",西岗,20190708,38.92251066253164,121.63236845125735,香榭里,60,9943,大连金地物业管理有限公司,3.6,辽宁,6,二手房,2000
中山区解放路604号,大连,无开发商,西岗,20190708,38.89026319122045,121.66407876092346,桃源小学,18,15591,无物业管理服务,-,辽宁,6,二手房,1990
甘井子区惠泽南园3-4号,大连,大连鹏德房屋开发有限公司,甘井子,20190708,38.939326611323615,121.52337842113351,西山逸林,38,15302,大连三和住邦物业管理有限公司,1.3,辽宁,6,二手房,2008
甘井子区华北路花锦园28号23-3-1-2建筑物,大连,大连东特房地产开发有限公司,甘井子,20190708,38.951627958411166,121.5739439799003,东特爱俪舍,42,15976,大连东特祥禾物业管理有限公司,0.6,辽宁,6,二手房,2004
甘井子区哲林北园17-6号,大连,大连恒德房屋开发有限公司,甘井子,20190708,38.9600267109581,121.53876726228256,恒德橄榄季,56,22107,大连恒德物业服务有限公司,1.4,辽宁,6,二手房,2008
甘井子区虹城路503号1-1号,大连,大连易和房地产集团有限公司,甘井子,20190708,38.981193588625004,121.49964051837122,岭秀滨城悦和东园,69,15535,大连易兴物业服务有限公司,1.3,辽宁,6,二手房,2009
中山区碧浪园4号-3号,大连,大连万达房地产开发有限公司,中山,20190708,38.89147289460474,121.69329560326236,虎滩路,52,13115,大连虎滩置业物业管理有限公司,0.2,辽宁,6,二手房,1992
金州区金湾路132-2号,大连,无开发商,金州,20190708,39.10269111644727,121.72221060686516,胜利西小区,108,7647,街道办事处（居委会）代管物业,0.5,辽宁,6,二手房,1990
无门店信息,大连,大连益宁房地产开发有限公司,开发区,20190708,34.52713835999158,118.76812980670795,岭湾峰尚二期,84,10205,大连鸿达物业管理有限公司,0.6,辽宁,6,二手房,2010
沙河口区富民路120号4-1-1,大连,大连银地置业发展有限公司,沙河口,20190708,38.930937859528605,121.5647274237578,观山蝶恋花,42,15049,大连新展物业管理有限公司,1,辽宁,6,二手房,2004
甘井子区泉水K2区1号-7,大连,暂无信息,甘井子,20190708,39.01148211821007,121.63131997900962,龙畔金泉五期K2区,55,13021,大连新兴物业管理有限公司,0.5,辽宁,6,二手房,2006
经济技术开发区红星海-A区81-2号1层,大连,远洋地产有限公司,开发区,20190708,39.027851194371685,121.80327394132297,红星海三期境界,96,13884,大连远洋基业物业管理有限公司,2.2,辽宁,6,二手房,2012
无门店信息,大连,昕德（大连）房地产开发有限公司,金州,20190708,34.52713835999158,118.76812980670795,伟桥金北嘉园,67,7465,街道办事处（居委会）代管物业,0.5,辽宁,6,二手房,2012
西岗区黄河路362号公建,大连,大连万峰房地产开发有限公司,西岗,20190708,38.91819905243802,121.61365779430986,万达华府一期,64,26953,大连万景物业管理有限公司,1.3,辽宁,6,二手房,2004
西岗区香炉礁24号1-1,大连,大连新型房地产开发有限公司,西岗,20190708,38.92047268927287,121.61862512554262,金海花园西园,48,11970,无物业管理服务,0.5,辽宁,6,二手房,1990
甘井子区玉云路27-3-1-3,大连,大连新型房地产开发有限公司,甘井子,20190708,38.97896234099927,121.55865563488358,泡崖三区,82,11071,大连新兴物业管理有限公司,0.5,辽宁,6,二手房,1990
沙河口区西南路40号楼,大连,无开发商,沙河口,20190708,38.94143337232082,121.58616557598133,黑石礁景山,23,12126,无物业管理服务,-,辽宁,6,二手房,1980
中山区中南路店212号门头房,大连,无开发商,中山,20190708,38.91149759691359,121.67700561077149,中南路,64,12872,街道办事处（居委会）代管物业,-,辽宁,6,二手房,1987
甘井子区山东路127-2号,大连,无开发商,甘井子,20190708,38.99065559549029,121.59126483545545,七迎路,39,12551,街道办事处（居委会）代管物业,0.2,辽宁,5,二手房,1990
甘井子金地艺境博艺西园2-1号,大连,大连丰达房地产开发有限公司,甘井子,20190708,39.04402110608829,121.665484498555,益丰乾城,23,13121,大连逸佳物业管理有限公司,1.6,辽宁,5,二手房,2012
大连市甘井子区椒房街24号楼2-104链家地产,大连,中铁建（大连）置业有限公司,甘井子,20190708,38.985363789837166,121.61034055597686,青秀蓝湾一期,25,20462,中国铁建地产集团物业公司,1.5,辽宁,5,二手房,2015
中山区高尚路28-1号,大连,无开发商,中山,20190708,38.892673425111305,121.67148833870213,高洁巷,39,11387,街道办事处（居委会）代管物业,0.5,辽宁,5,二手房,1990
金州区先进街道渤海街1-4号1-2层,大连,无开发商,金州,20190708,39.09512910553563,121.74578812616167,金星小区,27,7909,街道办事处（居委会）代管物业,0.1,辽宁,5,二手房,1993
大连市甘井子区椒房街24号楼2-104链家地产,大连,大连港置地有限公司,甘井子,20190708,38.985363789837166,121.61034055597686,大连港天下粮仓,19,20402,大连万科物业服务有限公司,2.2,辽宁,5,二手房,2013
中山区高尚路28-1号,大连,无开发商,中山,20190708,38.892673425111305,121.67148833870213,高尚路,25,10275,无物业管理服务,0.5,辽宁,5,二手房,1993
沙河口区恒利园42号-8,大连,无开发商,沙河口,20190708,38.93357562498634,121.57914091532649,新建小区,4,11658,无物业管理服务,-,辽宁,5,二手房,1977
无门店信息,大连,暂无信息,金州,20190708,34.52713835999158,118.76812980670795,天鸿展视界,29,7280,无物业管理服务,-,辽宁,5,二手房,2008
无门店信息,大连,大连中政房地产开发有限公司,中山,20190708,34.52713835999158,118.76812980670795,中政小区,13,12242,大连中政物业管理有限公司,0.3,辽宁,5,二手房,1992
大连市甘井子区椒房街24号楼2-104链家地产,大连,大连凯祥房地产开发有限公司,甘井子,20190708,38.985363789837166,121.61034055597686,椒金山庄,20,17052,大连凯祥物业管理有限公司,0.5,辽宁,5,二手房,2000
沙河口区富国街34-3,大连,大连万达房地产开发有限公司,沙河口,20190708,38.90159716600704,121.58930603357904,星海人家,65,27587,大连万景物业管理有限公司,1.2,辽宁,6,二手房,2001
开发区杏树里10栋-14,大连,大连名城房地产开发有限公司,开发区,20190708,39.08113818354046,121.78505742127606,名城和顺人家,84,9329,大连君悦天下物业管理中心,0.5,辽宁,6,二手房,2000
无门店信息,大连,大连馨悦房地产开发有限公司,金州,20190708,34.52713835999158,118.76812980670795,悦泰山里,98,10550,大连百安物业管理有限公司,0.5,辽宁,6,二手房,2000
无门店信息,大连,大连软件园瑞安发展有限公司,高新园区,20190708,34.52713835999158,118.76812980670795,大连天地悦翠台,99,15045,大连万科物业服务有限公司,1,辽宁,6,二手房,2010
甘井子区海口路77—5号,大连,大连圣韬房地产开发有限公司,甘井子,20190708,38.960286398428124,121.60305183172997,万福居,54,18701,大连圣韬物业管理有限公司,0.5,辽宁,6,二手房,2004
金州新区先进街道五一路350-1号1-2层,大连,大连中连房地产开发有限公司,金州,20190708,39.078667146419825,121.77094423323935,聚鑫小区二期,34,7914,大连新生活物业管理有限公司,0.5,辽宁,6,二手房,1995
甘井子区玉丽街2号楼1单元4号公建,大连,大连新型房地产开发有限公司,甘井子,20190708,38.98705071699301,121.55513043130172,泡崖康馨园,32,10703,大连新兴物业管理有限公司,0.2,辽宁,6,二手房,2000
中山区同心街72号1楼公建,大连,大连泰宸房地产开发有限责任公司,中山,20190708,38.91979245940674,121.64769198230202,伊景华园,67,26123,街道办事处（居委会）代管物业,2.2,辽宁,6,二手房,1990
无门店信息,大连,大连运达房地产集团有限公司,甘井子,20190708,34.52713835999158,118.76812980670795,运达诺维溪谷一期,48,16938,大连运达物业有限公司,1.8,辽宁,5,二手房,2010
开发区翠竹小区33栋4-1-1号,大连,暂无信息,开发区,20190708,30.635492106460237,119.69169575745704,翠竹中区,23,10503,嘉兴物业管理有限公司,0.3,辽宁,5,二手房,1996
甘井子区绿洲园60号,大连,大连友谊合升房地产开发有限公司,甘井子,20190708,38.95390300214936,121.59409785747448,壹品天城,123,28849,大连富丽华物业管理有限公司,0.5,辽宁,5,二手房,2010
甘井子区山东路137号,大连,大连华南房地产开发有限公司,甘井子,20190708,38.99129404608926,121.59172125999353,名贵山庄青年公寓,3,15108,大连弘益达物业管理有限公司,0.5,辽宁,5,二手房,2001
大连市甘井子区丰收路3-5号,大连,大连智和房地产开发有限公司,甘井子,20190708,38.965377255081755,121.58288415324094,华锦铭苑,41,18602,大连东昌物业管理有限公司,1.3,辽宁,5,二手房,2009
西岗区鞍山路29号龙畔锦城东门,大连,大连凯润房屋开发有限公司,西岗,20190708,38.92763470697088,121.61498923399098,景润一期,44,11735,无物业管理服务,-,辽宁,5,二手房,1998
甘井子区迎客路郭东街一品蓝天公建14号,大连,大连福田房屋开发有限公司,甘井子,20190708,38.958456949708726,121.556756277476,隽佳欣苑,42,14829,大连安洁物业管理服务有限公司,0.5,辽宁,5,二手房,2004
沙河口区西南路161号,大连,无开发商,沙河口,20190708,38.89269676588945,121.56639953951542,西沟小区,36,12674,无物业管理服务,-,辽宁,5,二手房,1980
开发区润海园中区18#2号,大连,大连布鲁科房地产开发有限公司,开发区,20190708,39.04047273176333,121.76392358042445,热岛黄金海岸,196,11016,大连戴德梁行物业管理有限公司,1.6,辽宁,5,二手房,2008
无门店信息,大连,大连宏鼎房地产开发有限公司,旅顺口,20190708,34.52713835999158,118.76812980670795,国宝星月湾,64,11876,大连星海国宝物业管理有限公司,2.5,辽宁,5,二手房,2012
西岗区八一路196号1-3,大连,大连三环置业有限公司,西岗,20190708,38.92047268927287,121.61862512554262,桃花源小区,51,10326,大连三寰物业管理有限公司,0.5,辽宁,5,二手房,1993
开发区润海园中区18#2号,大连,华润（大连）房地产有限公司,开发区,20190708,39.04047273176333,121.76392358042445,华润海中国六期,65,14536,华润物业（大连）有限公司,3.1,辽宁,5,二手房,2015
金州区同济路44号,大连,大连峰景房地产开发有限公司,金州,20190708,39.10476859984152,121.71234684495865,峰景西海岸,54,9118,大连峰景物业有限公司,0.8,辽宁,5,二手房,2004
甘井子区美域盛景A2区10-6,大连,大连百思泰置业有限公司,甘井子,20190708,39.006221362805846,121.61022278003976,钰桥中央庭院,44,18334,大连百嘉物业管理有限公司,1.8,辽宁,5,二手房,2012
甘井子区红旗中路143号1层4号,大连,大连长鹭房屋开发有限公司,甘井子,20190708,38.93169566676921,121.5426632438217,西街晶品,24,19047,大连万泰物业管理有限公司,0.8,辽宁,5,二手房,2006
甘井子区金北路17号,大连,暂无信息,甘井子,20190708,38.97553393692831,121.59969720502335,76中学桥南,73,16067,大连新华物业管理有限公司,0.2,辽宁,5,二手房,1970
甘井子区玉丽街39号楼3号公建,大连,大连新型房地产开发有限公司,甘井子,20190708,38.98706755029984,121.55605471197089,玉浓街,50,10682,大连新兴物业管理有限公司,0.2,辽宁,5,二手房,2000
甘井子区金家街17-7号,大连,暂无信息,甘井子,20190708,38.97493697764367,121.60110987128529,金二街,39,19583,无物业管理服务,-,辽宁,5,二手房,1970
甘井子区西南路979-7号公建,大连,暂无信息,甘井子,20190708,38.96275592929325,121.5958698791777,八十中红咀街,133,15784,街道办事处（居委会）代管物业,0.2,辽宁,5,二手房,1983
甘井子区佳林北园2-7号,大连,大连瑞泰祥房地产开发有限公司,甘井子,20190708,38.96331610956877,121.52802328494242,缇香漫城,55,21049,大连瑞泰祥物业服务有限公司,2,辽宁,5,二手房,2010
沙河口区西南路643号,大连,大连泰安房地产开发有限公司,沙河口,20190708,38.943483429804665,121.5833555851182,幸福小区(沙河口),32,12186,大连三宝物业发展有限公司,0.3,辽宁,5,二手房,1995
开发区金源南里14栋-11号一层部分，14号-12号一层部分,大连,大连开建房地产开发有限公司,开发区,20190708,39.06148862675436,121.82503941311765,金源北里安居小区,78,8425,嘉兴物业管理有限公司,0.3,辽宁,5,二手房,1998
"西岗区泰公街20号2层7号 西岗区久寿街22号1层14号""",大连,未知,西岗,20190708,38.92600196862723,121.62141976476381,北京街南,62,14327,街道办事处（居委会）代管物业,0.2,辽宁,5,二手房,1975
大连市甘井子区丰收路3-5号,大连,无开发商,甘井子,20190708,38.965377255081755,121.58288415324094,王家桥,70,15847,大连铁路物业管理有限公司,0.1,辽宁,5,二手房,1987
西岗区大同街125号,大连,大连新型房地产开发有限公司,西岗,20190708,38.920458602340894,121.61445835429899,银寰花园,24,11072,街道办事处（居委会）代管物业,0.3,辽宁,5,二手房,1995
沙河口区黄河路535号,大连,大连首星房地产开发有限公司,沙河口,20190708,38.91773777159567,121.60217159922856,金色年华公馆,41,26725,大连首星物业管理有限公司,2.8,辽宁,5,二手房,2010
无门店信息,大连,大连中连房地产开发有限公司,金州,20190708,34.52713835999158,118.76812980670795,憬园河畔,67,7941,大连新生活物业管理有限公司,0.4,辽宁,5,二手房,2000
高新园区书香街1A#1-1-2,大连,大连金弘基房地产开发有限公司,高新园区,20190708,38.880372108393104,121.55218773010999,弘基三期,58,20443,大连金弘基物业管理有限公司,0.5,辽宁,5,二手房,2004
高新园区黄浦路901S号1单元1层3号,大连,大连海创房地产开发有限公司,高新园区,20190708,38.85845801548294,121.51687109601923,谷歌里,55,15133,大连海创物业管理有限公司,1.2,辽宁,5,二手房,2008
金州区凤翔路220号,大连,大连德泰控股有限公司,金州,20190708,39.08410553937731,121.77700083356399,德泰岭秀逸城B区,79,10794,大连德泰物业管理有限公司,1.9,辽宁,5,二手房,2008
西岗区香炉礁24号1-1,大连,大连新型房地产开发有限公司,西岗,20190708,38.92047268927287,121.61862512554262,金海花园东园,35,12780,大连新兴物业管理有限公司,0.5,辽宁,5,二手房,1995
甘井子区柳树南街45-11号,大连,中海新海汇（大连）置业有限公司,甘井子,20190708,38.92567666296449,121.4841330254372,中海御湖熙谷,77,15193,大连中海物业管理有限公司,2.2,辽宁,5,二手房,2013
中山区鲁迅路204号百盛新药特药商店一楼西侧部分,大连,大连港连房地产开发有限公司,中山,20190708,38.9258993614899,121.6768880001226,海港公寓（寺儿沟商圈）,14,12690,大连仁安物业管理有限公司,0.2,辽宁,5,二手房,1990
甘井子区泉水B5区27-9,大连,大连运达房地产集团有限公司,甘井子,20190708,39.01477152073682,121.60970286326823,锦泉源B5区,75,12956,政治物业管理有限公司,0.1,辽宁,5,二手房,1999
大连市沙河口区文萃街1号1-2-2；大连市沙河口区由家五小区五号楼1单元2层1,大连,大连理工科技城建设开发有限公司,高新园区,20190708,38.88596852074166,121.54389553303217,文萃轩小区,45,17397,大连理工物业管理中心,0.2,辽宁,5,二手房,1980
金州区先进街道陶然居公建2-2号1层,大连,大连金信集团房地产有限公司,金州,20190708,39.08283372756215,121.76170982507143,金信陶然居,80,9623,北京瑞思特物业管理有限公司,0.5,辽宁,5,二手房,1995
大连市甘井子区辛如街35号1单元1层1号,大连,大连新星房地产开发有限公司,甘井子,20190708,38.96862607066881,121.52294869064194,新星绿城四期,36,14194,大连生生物业管理有限公司,0.8,辽宁,5,二手房,2007
无门店信息,大连,大连长鹭房屋开发有限公司,甘井子,20190708,34.52713835999158,118.76812980670795,晶品森岚,13,16183,大连旺宇物业有限公司,1.3,辽宁,4,二手房,2008
沙河口区星海广场B3区14-2号1层,大连,大连友谊合升房地产开发有限公司,沙河口,20190708,38.88693148294673,121.58735631267305,壹品星海公寓,35,18740,大连富丽华物业管理有限公司,2,辽宁,5,二手房,2003
开发区正恒园1-16,大连,暂无信息,开发区,20190708,39.04823944344617,121.76165468797754,正泰园B区,36,11905,无物业管理服务,-,辽宁,4,二手房,2000
中山区清溪南街11号,大连,大连锦绣房地产开发有限公司,中山,20190708,38.88919604283904,121.66466481004835,秀月广场,30,12409,无物业管理服务,0.5,辽宁,4,二手房,1992
西岗区康平街2号（5号楼3-1-3号）,大连,暂无信息,西岗,20190708,38.91044414697888,121.61980769264477,34中民众街,16,29522,无物业管理服务,-,辽宁,4,二手房,1985
沙河口区恒利园42号-8,大连,大连三寰房屋开发有限公司,沙河口,20190708,38.93357562498634,121.57914091532649,三寰芳草园,24,16360,大连空港物业管理有限公司,0.4,辽宁,4,二手房,2002
西岗区胜利路33号,大连,暂无信息,西岗,20190708,38.91309771954841,121.62500886627636,34中新开路,3,35902,无物业管理服务,-,辽宁,4,二手房,1992
无门店信息,大连,大连众仕房地产开发有限公司,开发区,20190708,34.52713835999158,118.76812980670795,山河御景,24,8292,大连山河物业管理有限公司,1.5,辽宁,4,二手房,2010
甘井子区红旗花园23号楼19-24轴公建,大连,大连科宏房屋开发有限公司,甘井子,20190708,38.93108029984587,121.54902145022133,海港楼,23,9583,大连科海物业有限公司,0.2,辽宁,4,二手房,1988
沙河口区黄浦路18号—5号公建,大连,大连高新技术产业园区建设开发总公司,高新园区,20190708,38.8771225143479,121.54427480390662,学府1+1公寓,8,16537,街道办事处（居委会）代管物业,0.6,辽宁,4,二手房,2005
甘井子区甘井子路32号楼1单元1楼9号,大连,无开发商,甘井子,20190708,38.982488275116516,121.63345389253514,杨柳街,14,10403,街道办事处（居委会）代管物业,0.5,辽宁,4,二手房,1990
甘井子区促进路30号2-1-1,大连,大连天河房地产开发集团有限公司,甘井子,20190708,38.954133128707575,121.58355746311207,促进路,13,12646,无物业管理服务,0.1,辽宁,4,二手房,1982
甘井子区红南东街7-7号,大连,大连均卫达房地产开发有限公司,甘井子,20190708,38.92880462247992,121.54144910207062,亲亲阳光,9,13093,大连万泰物业管理有限公司,0.5,辽宁,4,二手房,2003
西岗区华北路100号1层5号,大连,大连双振房屋开发有限公司,沙河口,20190708,38.92047268927287,121.61862512554262,香茗苑,6,16143,大连双振物业有限公司,0.5,辽宁,4,二手房,2002
无门店信息,大连,大连招源房地产有限公司,甘井子,20190708,34.52713835999158,118.76812980670795,招商海德公园,23,17886,招商局物业管理有限公司大连分公司,2.6,辽宁,4,二手房,2017
沙河口区锦石路8号,大连,大连锦绣房地产开发有限公司,沙河口,20190708,38.94771288948481,121.56110903658733,锦泉中园,36,12199,大连锦绣物业管理有限公司,0.3,辽宁,5,二手房,1990
经济技术开发区城润万家4-5号公建,大连,无开发商,开发区,20190708,39.05716325096989,121.75946281983826,西山小区,3,7771,街道办事处（居委会）代管物业,0.5,辽宁,4,二手房,1992
无门店信息,大连,大连君悦房地产开发有限公司,甘井子,20190708,34.52713835999158,118.76812980670795,君悦晟景,23,12678,大连弘实物业有限公司,1.2,辽宁,5,二手房,2010
沙河口区五一路177-1-1-1,大连,大华集团大连房地产开发有限公司,沙河口,20190708,38.913544290955585,121.59450670056631,大华御庭,54,22284,大连乐尔居物业服务有限公司,1.4,辽宁,5,二手房,2009
无门店信息,大连,大连新兴海韵房地产开发有限公司,金州,20190708,34.52713835999158,118.76812980670795,通用阳光丽景,75,7142,街道办事处（居委会）代管物业,1.4,辽宁,4,二手房,2006
中山区益民街16号1层1号,大连,无开发商,中山,20190708,38.93092761298906,121.66470740073377,益民街（三八广场）,7,13999,无物业管理服务,-,辽宁,4,二手房,1992
沙河口区民权街324号,大连,大连天河房地产开发集团有限公司,沙河口,20190708,38.92064616208148,121.59777611850379,民权小区,43,12924,大连福港物业管理有限公司,0.2,辽宁,4,二手房,1990
甘井子区山东路127-2号,大连,大连市大钢集团,甘井子,20190708,38.99065559549029,121.59126483545545,苍山路,51,12696,街道办事处（居委会）代管物业,0.4,辽宁,4,二手房,1988
西岗区八一路196号1-3,大连,无开发商,西岗,20190708,38.92047268927287,121.61862512554262,新泉巷,15,9199,无物业管理服务,-,辽宁,4,二手房,1990
沙河口区黑石礁街5号1层1号,大连,无开发商,沙河口,20190708,38.879813345473714,121.56313742300513,黑石礁广场,29,13659,无物业管理服务,-,辽宁,4,二手房,1980
甘井子区虹城路503号1-1号,大连,大连易和房地产集团有限公司,甘井子,20190708,38.981193588625004,121.49964051837122,岭秀滨城悦和西园,28,14110,大连易兴物业服务有限公司,1.3,辽宁,4,二手房,2008
甘井子区西南路979-7号公建,大连,大连祥盛房屋开发有限公司,甘井子,20190708,38.96275592929325,121.5958698791777,金盛家园,55,17229,大连宏华物业管理有限公司,0.5,辽宁,4,二手房,2001
沙河口区前程街46号4—1—2号,大连,大连欧兰房地产开发有限公司,甘井子,20190708,38.913544290955585,121.59450670056631,耕海山尚,29,17038,大连耕海物业管理有限公司,1.5,辽宁,4,二手房,2010
甘井子金地艺境博艺西园2-1号,大连,大连天意房地产开发有限公司,甘井子,20190708,39.04402110608829,121.665484498555,金地艺境,161,14858,大连金地物业管理有限公司,0.5,辽宁,4,二手房,2011
中山区杏林街66—5号,大连,嘉和房地产集团有限公司,中山,20190708,38.92572771377599,121.66490555592502,嘉和花样年华三期,56,24179,大连嘉和物业管理有限公司,3.5,辽宁,4,二手房,2002
甘井子区泉水D6区51号,大连,大连时代房地产开发有限公司,甘井子,20190708,39.00897610161069,121.61789300655198,富士庄园,65,16034,大连佳泰物业管理有限公司,1.2,辽宁,4,二手房,2004
大连开发区金马路169-2-8号,大连,大连德泰控股有限公司,开发区,20190708,39.057398235688176,121.78261137849105,德泰时代广场,43,13499,大连德泰物业管理有限公司,0.5,辽宁,4,二手房,2010
开发区大开高吉里33栋6号,大连,大连开建集团有限公司,开发区,20190708,39.07355836059941,121.8280439450145,高城北花园,37,8911,大连经济技术开发区聚盛达物业管理有限公司,0.2,辽宁,4,二手房,1998
沙河口区红旗东路18-22号2单元1楼3号,大连,无开发商,甘井子,20190708,38.913544290955585,121.59450670056631,天泉山庄,16,12827,大连铁龙安居物业管理有限公司,0.5,辽宁,4,二手房,2000
甘井子区红旗中路143号1层4号,大连,大连红旗兴达房地产开发有限公司,甘井子,20190708,38.93169566676921,121.5426632438217,兴达福山居,22,15018,大连万泰物业管理有限公司,0.4,辽宁,4,二手房,2005
甘井子区红旗西路104-23,大连,大连鹏德房屋开发有限公司,甘井子,20190708,38.94013845868325,121.5282577714263,逸林派,27,15107,大连三和住邦物业管理有限公司,1.6,辽宁,4,二手房,2010
大连市甘井子中华路街道汇畅街48号,大连,远洋地产有限公司,甘井子,20190708,39.0059299196697,121.59621871231741,远洋自然,59,17698,大连远洋基业物业管理有限公司,1.3,辽宁,4,二手房,2001
西岗区平等街21号1层2号,大连,裕景兴业（大连）有限公司,西岗,20190708,38.92251066253164,121.63236845125735,中心裕景,104,21172,第一太平戴维斯物业顾问（北京）有限公司大连分公司,3.8,辽宁,4,二手房,1997
沙河口区黑石礁街5号1层1号,大连,无开发商,沙河口,20190708,38.879813345473714,121.56313742300513,黑石礁,13,12010,无物业管理服务,-,辽宁,4,二手房,1990
中山区鲁迅路184号1层B—A,大连,大连环海房地产开发有限公司,中山,20190708,38.92590875965419,121.67594393403164,环海公寓,14,10916,大连富民物业管理有限公司,0.5,辽宁,4,二手房,1999
开发区鹏程家园66#-6、66#-7公建,大连,大连新天润企业集团有限公司,开发区,20190708,37.92440451755906,112.59861436589645,水御兰庭,33,9878,大连港力物业管理有限公司,1.1,辽宁,4,二手房,2006
甘井子区华北路花锦园28号23-3-1-2建筑物,大连,大连东特房地产开发有限公司,甘井子,20190708,38.951627958411166,121.5739439799003,东特星中环,23,16414,大连东特祥禾物业管理有限公司,0.8,辽宁,4,二手房,2003
甘井子区甘井子街3号公建,大连,无开发商,甘井子,20190708,38.982086281836246,121.63426694995971,甘泉小区,16,12547,街道办事处（居委会）代管物业,0.5,辽宁,4,二手房,1999
中山区三八广场5号,大连,无开发商,中山,20190708,38.92540000551715,121.6642911149562,良运四季汇,58,22153,大连良运物业管理有限公司,0.8,辽宁,4,二手房,2008
甘井子区泉水H1区54号3单元1层1号,大连,暂无信息,甘井子,20190708,39.0074937564393,121.62382856020916,龙畔金泉五期K1区,37,13726,大连新兴物业管理有限公司,0.5,辽宁,4,二手房,2008
沙河口区红旗东路18-22号2单元1楼3号,大连,大连渤海红旗集团有限公司,甘井子,20190708,38.913544290955585,121.59450670056631,红旗东路,44,11823,渤海吉祥物业管理有限公司,0.4,辽宁,4,二手房,1990
甘井子区玉丽街2号楼1单元4号公建,大连,大连新型房地产开发有限公司,甘井子,20190708,38.98705071699301,121.55513043130172,泡崖康居园,47,10594,大连新兴物业管理有限公司,0.5,辽宁,4,二手房,2000
沙河口区华新苑10号楼4号公建,大连,大连祥盛房屋开发有限公司,沙河口,20190708,38.94033750532864,121.58990295130229,香洲心城,24,18770,大连百特物业管理有限公司,1,辽宁,4,二手房,2003
天河路173-2号 华润考拉22号公建,大连,大连世隆房地产开发有限公司,甘井子,20190708,23.14720645345518,113.3277414923158,桑尼小镇,24,15255,大连大家物业管理有限公司,1.9,辽宁,4,二手房,2011
甘井子区华北路花锦园28号23-3-1-2建筑物,大连,大连东特房地产开发有限公司,甘井子,20190708,38.951627958411166,121.5739439799003,东特金星公馆,32,16240,大连东特祥禾物业管理有限公司,1.2,辽宁,4,二手房,2009
无门店信息,大连,暂无信息,旅顺口,20190708,34.52713835999158,118.76812980670795,荷塘悦色,35,8795,街道办事处（居委会）代管物业,-,辽宁,4,二手房,2000
开发区润海园中区62-9,大连,暂无信息,开发区,20190708,39.04047273176333,121.76392358042445,大连海湾城二期,45,12890,大连金广物业服务有限公司,2.6,辽宁,4,二手房,2012
沙河口区绿清街12号,大连,大连中海新城置业有限公司,沙河口,20190708,38.93851335419565,121.57334844377094,中海英伦观邸,52,23133,大连中海物业管理有限公司,1.8,辽宁,4,二手房,2009
甘井子区惠泽南园3-4号,大连,大连九衡房地产开发有限公司,甘井子,20190708,38.939326611323615,121.52337842113351,易和熙园,25,19699,大连易兴物业服务有限公司,2.3,辽宁,4,二手房,2013
甘井子区华龙南园34-5号34-库4号34-5号,大连,大连运达房地产集团有限公司,甘井子,20190708,38.98270467597865,121.6117222765123,泊岭紫郡,38,13392,大连怡和物业服务有限公司,0.9,辽宁,4,二手房,2008
甘井子区泉水D1区37-7号,大连,大连运腾房地产开发有限公司,甘井子,20190708,39.013992871679214,121.61921940045104,锦泉源D4区,33,13997,大连嘉和物业管理有限公司,0.5,辽宁,4,二手房,2006
无门店信息,大连,新兴际华集团有限公司,甘井子,20190708,34.52713835999158,118.76812980670795,中华城,20,15909,大连仲邦维行物业管理有限公司,2.5,辽宁,4,二手房,2017
金州区站前街道盛滨花园B区13号楼2号公建,大连,大连和嘉房地产开发有限公司,金州,20190708,39.09609011892329,121.7335816409767,和嘉佳园,86,6980,街道办事处（居委会）代管物业,0.5,辽宁,4,二手房,2000
高新园区火炬路18号,大连,大连嘉创房地产开发有限公司,高新园区,20190708,38.937738080520404,117.39340752036043,嘉创E人国际,73,16155,大连紫金物业管理有限公司,2,辽宁,4,二手房,2009
高新园区火炬路18号,大连,大连联合柏立置业有限公司,高新园区,20190708,38.937738080520404,117.39340752036043,柏悦国际公寓,47,18210,大连柏悦国际公寓管理有限公司,3.5,辽宁,4,二手房,2005
甘井子区辛寨子街道中冶蓝城辛虹园39-7号公建,大连,大连中冶京诚置业有限公司,甘井子,20190708,38.98155611421408,121.49259383356096,中冶蓝城D区,34,15629,大连添翼物业服务有限公司,2,辽宁,4,二手房,2010
甘井子区华北路花锦园28号23-3-1-2建筑物,大连,大连市中联房地产开发有限公司,甘井子,20190708,38.951627958411166,121.5739439799003,香周路（甘）,20,17366,街道办事处（居委会）代管物业,0.1,辽宁,4,二手房,1987
无门店信息,大连,大连市中联房地产开发有限公司,金州,20190708,34.52713835999158,118.76812980670795,卧龙园,30,6770,大连健龙物业管理有限公司,0.5,辽宁,4,二手房,2000
西岗区胜利路33号,大连,暂无信息,西岗,20190708,38.91309771954841,121.62500886627636,34中纪念街,63,25668,无物业管理服务,-,辽宁,4,二手房,1983
甘井子辛吉街150号-7号,大连,"大连新界置业有限公司,大连新星房地产开发有限公司",甘井子,20190708,38.96368508446978,121.52671221254214,新星绿城三期,76,13010,大连生生物业管理有限公司,0.5,辽宁,4,二手房,2004
中山区山屏街116号1-1,大连,大连中信海港投资有限公司,中山,20190708,38.90729438486833,121.68598159980013,山峦街,10,11830,无物业管理服务,-,辽宁,4,二手房,1990
金州区南棉路310号,大连,大连金连房地产开发有限公司,金州,20190708,39.09939229372624,121.72414976100345,金连福地,32,8177,街道办事处（居委会）代管物业,0.5,辽宁,4,二手房,2004
开发区东北三街94号1层,大连,大连同济房地产开发有限公司,开发区,20190708,39.05723508011585,121.80570768630555,新东方公寓三期,90,6692,大连同济物业管理有限公司,1.5,辽宁,4,二手房,2005
甘井子区红旗西路104-7,大连,大连安邦房地产开发有限公司,甘井子,20190708,38.940335495502666,121.52722586363274,水畔香谷,13,14229,大连万科绿色家园物业有限公司,1,辽宁,4,二手房,2006
大连市金州新区中长街道碧海尚城5-4号1-2层,大连,无开发商,金州,20190708,39.100290954587514,121.7304796052032,碧海尚城,129,8100,街道办事处（居委会）代管物业,0.8,辽宁,4,二手房,2005
西岗区鞍山路29号龙畔锦城东门,大连,大连铁路房地产开发有限责任公司,西岗,20190708,38.92763470697088,121.61498923399098,龙畔锦城,49,20038,大连亚航物业管理有限公司,1.2,辽宁,4,二手房,2008
甘井子区虹港路391号第五幢1单元1跃2层3号,大连,大连加尔伦房地产开发有限公司,甘井子,20190708,38.96606635942528,121.53201387432493,万科金域华府,28,21713,大连万科物业服务有限公司,3,辽宁,4,二手房,2015
甘井子区汇达园26号,大连,北亚实业集团股份有限公司大连开发区分公司,甘井子,20190708,38.99704654604941,121.59758808878767,北府花园,77,17246,大连优豪斯物业管理有限公司,0.5,辽宁,4,二手房,2005
甘井子区柳树南街45-10号,大连,中体产业集团大连乐百年置业有限公司,甘井子,20190708,38.92567666296449,121.4841330254372,中体奥林匹克花园,80,15040,广东中奥物业有限公司大连分公司,1.9,辽宁,4,二手房,2010
无门店信息,大连,大连运达房地产集团有限公司,甘井子,20190708,34.52713835999158,118.76812980670795,运达诺维溪谷二期,32,16212,大连运达物业有限公司,1.8,辽宁,4,二手房,2005
沙河口区红凌路137号,大连,大连大实企业集团房屋开发有限公司,甘井子,20190708,38.922699288974506,121.54713601744747,泊林映山,35,12671,大连弘实物业管理有限公司,1.2,辽宁,4,二手房,2010
甘井子区辛寨子街道中冶蓝城辛虹园39-7号公建,大连,大连中冶京诚置业有限公司,甘井子,20190708,38.98155611421408,121.49259383356096,中冶蓝城E区,38,15072,大连添翼物业服务有限公司,2,辽宁,4,二手房,2010
无门店信息,大连,大连安邦房地产开发有限公司,甘井子,20190708,34.52713835999158,118.76812980670795,安邦阳光润城,40,12987,无物业管理服务,-,辽宁,4,二手房,2008
沙河口区中山路417A-4号,大连,大连海孚房地产开发有限公司,沙河口,20190708,38.90740323140171,121.59484801084653,华业玫瑰东方,76,26300,深圳华业物业管理有限公司大连分公司,3.5,辽宁,4,二手房,1990
开发区黄海西路201号107公建,大连,无开发商,开发区,20190708,39.04942604506828,121.80126318235419,自由港,42,6980,大连安洁物业管理服务有限公司,1.5,辽宁,4,二手房,2000
无门店信息,大连,大连明和房地产开发有限公司,开发区,20190708,34.52713835999158,118.76812980670795,知语山园,34,10755,大连大众物业管理有限公司,1.3,辽宁,4,二手房,2003
无门店信息,大连,无开发商,金州,20190708,34.52713835999158,118.76812980670795,滨海丰园,111,8384,街道办事处（居委会）代管物业,0.5,辽宁,4,二手房,2001
大连经济技术开发区时代城4-3号1-2号,大连,暂无信息,开发区,20190708,39.0992481321252,121.83007860699459,摩宿公寓,78,7431,大连远洋基业物业管理有限公司,1.5,辽宁,4,二手房,2009
"西岗区泰公街20号2层7号 西岗区久寿街22号1层14号""",大连,大连润德君城房地产开发有限公司,西岗,20190708,38.92600196862723,121.62141976476381,北京公园,44,24634,大连润德物业管理有限公司,2.2,辽宁,4,二手房,2008
开发区鹏程家园66#-6、66#-7公建,大连,大连神洲众益集团有限公司,开发区,20190708,37.92440451755906,112.59861436589645,众益阳光海岸,94,10556,大连万佳物业管理有限公司,1.2,辽宁,4,二手房,2004
红星海A区126-4,大连,暂无信息,开发区,20190708,39.027851194371685,121.80327394132297,红星海一期艺墅,51,16656,大连远洋基业物业管理有限公司,0.5,辽宁,4,二手房,2008
甘井子区汇仁街19号12号楼1单元102室,大连,大连凯祥房地产开发有限公司,甘井子,20190708,38.99746297497168,121.58917714380617,名贵山庄亲情园,21,14514,大连弘益达物业管理有限公司,0.5,辽宁,4,二手房,2002
无门店信息,大连,大连腾达房地产开发有限公司,中山,20190708,34.52713835999158,118.76812980670795,紫竹轩,7,16576,大连市晟阳物业管理有限公司,1,辽宁,3,二手房,2002
金州区站前街道盛滨花园B区13号楼2号公建,大连,大连阿尔滨集团房地产开发有限公司,金州,20190708,39.09609011892329,121.7335816409767,现代雅筑,51,6771,大连阿尔滨集团物业管理有限公司,0.5,辽宁,4,二手房,2004
沙河口区富国街14号1-1-2,大连,无开发商,沙河口,20190708,38.901027106600836,121.59047734850638,星月街,7,11720,街道办事处（居委会）代管物业,0.5,辽宁,4,二手房,1986
甘井子区西南路979-7号公建,大连,大连圣元房地产开发有限公司,甘井子,20190708,38.96275592929325,121.5958698791777,亿达梧桐路,24,22068,亿达物业管理有限公司,1.5,辽宁,3,二手房,2010
无门店信息,大连,暂无信息,开发区,20190708,34.52713835999158,118.76812980670795,十里岗小区,66,5887,大连经济技术开发区盛辉物业服务有限公司,0.5,辽宁,3,二手房,1994
中山区民运巷 47号1层2号,大连,大连新型房地产开发总公司,中山,20190708,38.905955122300846,121.64798148011702,葵英小区,10,13886,街道办事处（居委会）代管物业,0.3,辽宁,3,二手房,1996
沙河口区锦江园30号1层公建,大连,暂无信息,沙河口,20190708,38.949985113183935,121.56560955976859,锦江园绿莲街,11,11158,绿城物业服务集团有限公司大连分公司,0.2,辽宁,3,二手房,2001
开发区大开高吉里33栋6号,大连,无开发商,开发区,20190708,39.07355836059941,121.8280439450145,高安里回迁楼,11,8419,大连华宸物业管理有限公司,0.2,辽宁,3,二手房,1998
西岗区绕山路31号公建一层东侧,大连,无开发商,西岗,20190708,38.90257514466717,121.61412736644739,槐花大厦,11,9447,无物业管理服务,-,辽宁,3,二手房,1997
中山区高尚路28-1号,大连,无开发商,中山,20190708,38.892673425111305,121.67148833870213,宪卫里,16,10558,无物业管理服务,0.5,辽宁,3,二手房,1992
甘井子区甘井子路32号楼1单元1楼9号,大连,大连市建设控股有限公司,甘井子,20190708,38.982488275116516,121.63345389253514,胜景家园,13,12588,街道办事处（居委会）代管物业,0.9,辽宁,3,二手房,2008
甘井子区甘井子街3号公建,大连,无开发商,甘井子,20190708,38.982086281836246,121.63426694995971,新街,16,9872,无物业管理服务,-,辽宁,3,二手房,1980
大连市沙河口区西南路875号1层21号,大连,大连新型房地产开发有限公司,沙河口,20190708,38.94485969061231,121.58418648447764,春晖巷,9,10816,无物业管理服务,-,辽宁,3,二手房,1985
大连市甘井子区张前路620-18号（第19幢1单元1跃2层14号）,大连,无开发商,甘井子,20190708,38.98764207496216,121.52409526893047,嘉安边防家园,12,12584,大连新型物业管理有限公司,1,辽宁,3,二手房,2006
中山区金城街26号一楼,大连,大连万达房地产开发有限公司,中山,20190708,38.922282529515634,121.65214466263014,九中金城街,26,37442,无物业管理服务,-,辽宁,3,二手房,1990
高新园区敬贤街25-9,大连,中海东丰地产（大连）有限公司,高新园区,20190708,38.86879447142154,121.53007349209936,中海紫御观邸一期,10,25335,大连中海物业管理有限公司,2.6,辽宁,3,二手房,2010
中山区职工街96号1-3层公建,大连,无开发商,中山,20190708,38.92565613737007,121.66193575790903,39中三八广场,2,19919,无物业管理服务,-,辽宁,3,二手房,1990
金州区光明街道育才街42-6号1-2层,大连,无开发商,金州,20190708,39.109080894078986,121.7182584929096,光明小区(金州),10,8401,无物业管理服务,0.5,辽宁,3,二手房,1989
开发区东北三街94号1层,大连,大连同济房地产开发有限公司,开发区,20190708,39.05723508011585,121.80570768630555,新东方公寓二期,52,5728,大连同济物业管理有限公司,1.5,辽宁,3,二手房,2003
中山区金城街26号一楼,大连,暂无信息,中山,20190708,38.922282529515634,121.65214466263014,解放街,21,24660,无物业管理服务,-,辽宁,3,二手房,1982
沙河口区锦云北园9号2单元1层2号,大连,大连锦绣房地产开发有限公司,沙河口,20190708,38.94836395772248,121.55744845421044,锦云北园,21,10941,大连锦绣物业管理有限公司,0.3,辽宁,3,二手房,1995
中山区武昌街武昌公寓6号公建,大连,无开发商,中山,20190708,38.912280913445784,121.64921130527547,宪立巷,20,10903,无物业管理服务,-,辽宁,3,二手房,1982
金州区南棉路310号,大连,暂无信息,金州,20190708,39.09939229372624,121.72414976100345,环保小区,18,7035,街道办事处（居委会）代管物业,0.5,辽宁,3,二手房,1990
金州区金润小区B区861单元102,大连,暂无信息,金州,20190708,39.10615165380565,121.74639264534615,自然天城C区,32,7770,大连新生活物业管理有限公司,0.4,辽宁,3,二手房,2005
金州区南棉路310号,大连,无开发商,金州,20190708,39.09939229372624,121.72414976100345,劳动局小区,116,8073,无物业管理服务,0.1,辽宁,3,二手房,1989
金州新区先进街道五一路350-1号1-2层,大连,暂无信息,金州,20190708,39.078667146419825,121.77094423323935,聚鑫小区一期,58,7535,大连新生活物业管理有限公司,0.5,辽宁,3,二手房,1993
中山区杏林街66—5号,大连,大连开建集团有限公司,中山,20190708,38.92572771377599,121.66490555592502,花香维也纳,48,23102,大连开利物业管理有限公司,0.5,辽宁,3,二手房,2003
甘井子区亿家缘虹韵路205,大连,大连亿达美加房地产开发有限公司,甘井子,20190708,38.95647848453699,121.53130152244339,第五郡一号地,57,22404,亿达物业管理有限公司,1.9,辽宁,3,二手房,2012
无门店信息,大连,大连金宸集团,金州,20190708,34.52713835999158,118.76812980670795,金宸联郡,34,8717,大连四通物业管理有限公司,1.4,辽宁,3,二手房,2012
金州新区八一路金都嘉园1号楼1号公建,大连,无开发商,金州,20190708,39.05525210261778,121.74865634199398,古城丙区,66,7375,街道办事处（居委会）代管物业,0.5,辽宁,3,二手房,1997
沙河口区星海广场B3区14-2号1层,大连,大连万达房地产开发有限公司,沙河口,20190708,38.88693148294673,121.58735631267305,大连明珠,69,26570,大连万象美物业管理有限公司,3.5,辽宁,3,二手房,2008
沙河口区连山街44-2号半地下一层（地上一层部分）,大连,大连亿达房地产股份有限公司,沙河口,20190708,38.892991456958086,121.57299542767161,星海小区,21,11468,无物业管理服务,-,辽宁,3,二手房,1994
西岗区新田巷27号1-2,大连,无开发商,西岗,20190708,38.893215932589385,121.64103065169111,新河街,18,11192,无物业管理服务,-,辽宁,3,二手房,1990
甘井子区红旗西路104-7,大连,大连盛达实业总公司,甘井子,20190708,38.940335495502666,121.52722586363274,盛新园,35,12246,大连盛新物业管理有限公司,0.3,辽宁,3,二手房,2000
沙河口区五一路326号,大连,无开发商,高新园区,20190708,38.913544290955585,121.59450670056631,双语学校,14,22008,无物业管理服务,0.2,辽宁,3,二手房,1991
沙河口区五一路326号,大连,大连亿达房地产股份有限公司,高新园区,20190708,38.913544290955585,121.59450670056631,亿达学清园,25,22969,大连软件园物业管理有限公司,1.2,辽宁,3,二手房,2000
甘井子区华北路花锦园28号23-3-1-2建筑物,大连,大连东特房地产开发有限公司,沙河口,20190708,38.951627958411166,121.5739439799003,东特新居,15,12265,大连东特祥禾物业管理有限公司,0.5,辽宁,3,二手房,1998
中山区金城街26号一楼,大连,无开发商,中山,20190708,38.922282529515634,121.65214466263014,九中洛川街,21,35935,无物业管理服务,-,辽宁,3,二手房,1990
甘井子区山东路商业街D区12号公建,大连,无开发商,甘井子,20190708,39.001060021502965,121.58883960371418,七绣路,24,12234,街道办事处（居委会）代管物业,0.5,辽宁,3,二手房,1995
西岗区华北路100号1层5号,大连,大连万达房地产开发有限公司,西岗,20190708,38.92047268927287,121.61862512554262,香海花园,22,16521,大连万达物业管理有限公司,0.8,辽宁,3,二手房,1998
中山区民运巷 47号1层2号,大连,无开发商,中山,20190708,38.905955122300846,121.64798148011702,西山巷,35,10373,无物业管理服务,0.3,辽宁,3,二手房,1980
无门店信息,大连,暂无信息,旅顺口,20190708,34.52713835999158,118.76812980670795,龙王塘一号,53,8583,街道办事处（居委会）代管物业,1.2,辽宁,3,二手房,2009
甘井子区汇仁街22号,大连,大连永高房屋开发有限公司,甘井子,20190708,38.99712640764999,121.58834420439493,加州洋房,81,15492,大连怡和物业服务有限公司,0.9,辽宁,3,二手房,2005
甘井子区泉水D1区10-2#1-1-7,大连,大连春达房屋开发有限公司,甘井子,20190708,39.01504676175047,121.61751269364314,景富铭苑,15,12464,庄河金城物业管理有限公司,0.5,辽宁,3,二手房,2004
沙河口区中山路417A-4号,大连,无开发商,沙河口,20190708,38.90740323140171,121.59484801084653,连华街,16,15617,无物业管理服务,-,辽宁,3,二手房,1990
沙河口区西南路851号3单元1层3号,大连,暂无信息,沙河口,20190708,38.94344210837944,121.58246796944378,凌山三街,2,10938,无物业管理服务,-,辽宁,3,二手房,1970
无门店信息,大连,大连九城房地产开发有限公司,开发区,20190708,34.52713835999158,118.76812980670795,新城丽景,17,10316,大连恒瑞物业管理有限公司,1.2,辽宁,3,二手房,2012
红星海A区126-4,大连,远洋地产有限公司,开发区,20190708,39.027851194371685,121.80327394132297,红星海一期城市别馆,113,13891,大连远洋基业物业管理有限公司,2.2,辽宁,3,二手房,2008
甘井子区泉水P3区35-2号,大连,暂无信息,甘井子,20190708,39.01530162252779,121.63546089163083,泉水P1区,15,11272,暂无信息,1.2,辽宁,3,二手房,2011
开发区红星海-B区89-1号,大连,远洋地产有限公司,开发区,20190708,39.027851194371685,121.80327394132297,红星海三期视界,48,14953,大连远洋基业物业管理有限公司,2.2,辽宁,3,二手房,2009
沙河口区成仁街91号,大连,大连海孚房地产开发有限公司,沙河口,20190708,38.91539947107844,121.59585638842556,华业玫瑰东方Ⅱ期,29,23828,深圳华业物业管理有限公司大连分公司,3.5,辽宁,3,二手房,2013
沙河口区黄埔路427号,大连,大连名仕房地产开发有限公司,高新园区,20190708,38.913544290955585,121.59450670056631,名仕乐居,19,20029,大连万祥物业管理有限公司,1.3,辽宁,3,二手房,2008
西岗区绕山路31号公建一层东侧,大连,无开发商,西岗,20190708,38.90257514466717,121.61412736644739,和云巷,18,10049,无物业管理服务,-,辽宁,3,二手房,1990
中山区益民街16号1层1号,大连,中海地产,中山,20190708,38.93092761298906,121.66470740073377,中海海港城,81,19287,中海物业,4.2,辽宁,3,二手房,2013
甘井子区玉丽街2号楼1单元4号公建,大连,暂无信息,甘井子,20190708,38.98705071699301,121.55513043130172,玉意街,53,10464,大连新兴物业管理有限公司,0.3,辽宁,3,二手房,2000
甘井子区汇仁街19号12号楼1单元102室,大连,大连华南房地产开发有限公司,甘井子,20190708,38.99746297497168,121.58917714380617,名贵山庄金盛园,13,15596,大连弘益达物业管理有限公司,0.5,辽宁,3,二手房,2004
中山区爱华街13号,大连,大连新世界广场国际有限公司,中山,20190708,38.92541607518685,121.6535728031028,曼哈顿大厦,44,14053,大连侨乐物业服务有限公司,3.5,辽宁,3,二手房,2004
沙河口区长江路738号,大连,大连大世界房地产开发有限公司,西岗,20190708,38.913544290955585,121.59450670056631,第九频道,45,26253,大世界商业联合机构,3.6,辽宁,3,二手房,2007
沙河口区成仁街91号,大连,大连万达房地产开发有限公司,沙河口,20190708,38.91539947107844,121.59585638842556,龙祥花园,19,24852,大连万达物业管理有限公司,0.8,辽宁,3,二手房,2001
沙河口区五四路207-1-9号,大连,中航国际中航地产,沙河口,20190708,38.913544290955585,121.59450670056631,中航国际广场,26,21717,中航物业管理有限公司大连分公司,3.6,辽宁,3,二手房,2000
"西岗区泰公街20号2层7号 西岗区久寿街22号1层14号""",大连,大连万达房地产开发有限公司,西岗,20190708,38.92600196862723,121.62141976476381,万达高层,17,11631,大连白云物业管理公司,0.3,辽宁,3,二手房,1995
无门店信息,大连,大连经开万达广场投资有限公司,开发区,20190708,34.52713835999158,118.76812980670795,大连开发区万达广场,135,8963,大连万达物业管理有限公司,2.5,辽宁,3,二手房,2011
天河路173-2号 华润考拉22号公建,大连,无开发商,甘井子,20190708,23.14720645345518,113.3277414923158,七江路,24,12511,街道办事处（居委会）代管物业,0.2,辽宁,3,二手房,1995
金州区小平岛B组团4号楼3号商铺,大连,大连安达房地产开发有限公司,高新园区,20190708,39.05643299166072,121.78943558267059,小平岛亲海园A2组团,49,20722,大连凯尔富物业管理有限公司,1.7,辽宁,3,二手房,2007
金州区小平岛B组团4号楼3号商铺,大连,大连圣岛房地产开发有限公司,高新园区,20190708,39.05643299166072,121.78943558267059,小平岛海悦山,69,20276,大连凯尔富物业管理有限公司,1.3,辽宁,3,二手房,2008
沙河口区恒利园42号-8,大连,大连新型房地产开发有限公司,沙河口,20190708,38.93357562498634,121.57914091532649,中铁十三局,16,13313,大连新兴物业管理有限公司,0.3,辽宁,3,二手房,1990
西岗区长红街4号1号公建,大连,无开发商,西岗,20190708,38.91377414665191,121.6302525225721,34中林荫巷,13,26160,无物业管理服务,-,辽宁,3,二手房,1995
无门店信息,大连,暂无信息,旅顺口,20190708,34.52713835999158,118.76812980670795,熙龙山庄,88,8453,大连市辰馨物业服务有限公司,1,辽宁,3,二手房,2005
大连经济技术开发区同和里7栋-9号,大连,无开发商,开发区,20190708,39.04901984220615,121.7885236929847,新月里,19,9372,街道办事处（居委会）代管物业,0.5,辽宁,3,二手房,2000
沙河口区兰田街33号,大连,渤海恒达房屋开发有限公司,沙河口,20190708,38.926138912221084,121.56486022834609,西苑小区,34,12993,大连西苑物业管理有限公司,0.3,辽宁,3,二手房,1994
甘井子区金家街17-7号,大连,无开发商,甘井子,20190708,38.97493697764367,121.60110987128529,金二小学北,17,21972,无物业管理服务,-,辽宁,3,二手房,1970
西岗区长春路334号,大连,无开发商,西岗,20190708,38.89807766522607,121.63221082858387,石峰街,15,11220,大连大众物业管理有限公司,0.3,辽宁,3,二手房,1986
西岗区康平街2号（5号楼3-1-3号）,大连,无开发商,西岗,20190708,38.91044414697888,121.61980769264477,长太巷,7,11690,无物业管理服务,-,辽宁,3,二手房,1990
大连市开发区湾里东5-6号,大连,大连明和房地产开发有限公司,开发区,20190708,39.07275772231556,121.85888789351343,青国青城,65,11465,大连豪斯沃克物业有限公司,1.5,辽宁,3,二手房,2012
金州区光明街道育才街42-6号1-2层,大连,暂无信息,金州,20190708,39.109080894078986,121.7182584929096,芙蓉花园（金州）,30,9919,大连金州新区建房物业管理中心,0.6,辽宁,3,二手房,2007
西岗区鞍山路29号龙畔锦城东门,大连,无开发商,西岗,20190708,38.92763470697088,121.61498923399098,北京街北,42,12951,无物业管理服务,-,辽宁,3,二手房,1981
高新园区红凌路732-4号,大连,大连亿达房地产股份有限公司,高新园区,20190708,38.90204708664442,121.53244406374695,亿达峦翠园,40,20625,亿达物业管理有限公司,1.3,辽宁,3,二手房,2009
开发区兴城路29-81层,大连,中合北大荒（大连）置业有限公司,开发区,20190708,39.050214252167194,121.75835946441768,银帆国际,42,12538,大连中合物业管理有限公司,2,辽宁,3,二手房,2012
中山区爱华街13号,大连,大连银河房地产开发有限公司,中山,20190708,38.92541607518685,121.6535728031028,银河公寓,5,9687,街道办事处（居委会）代管物业,-,辽宁,3,二手房,1996
金州区拥政街道733号-8号1-2层,大连,大连市金州区房屋开发公司,金州,20190708,39.11690610445662,121.73030803603723,桂林小区,84,7062,街道办事处（居委会）代管物业,0.3,辽宁,3,二手房,1992
沙河口区联合路133号,大连,大连新型房地产开发有限公司,沙河口,20190708,38.91608561262676,121.60480987310456,21中联德小区,5,21149,大连新型物业管理有限公司,0.5,辽宁,3,二手房,1998
沙河口区锦霞南园13号3-1-1,大连,大连锦绣房地产开发有限公司,沙河口,20190708,38.94761264366187,121.55126272246873,锦霞南园,51,11393,大连锦绣物业管理有限公司,0.3,辽宁,3,二手房,1998
开发区安盛里5栋-4,大连,中房集团大连房地产有限公司,开发区,20190708,23.112106678834838,113.27801046214822,盛德嘉洲,12,14339,大连中鸣物业服务有限公司,1.8,辽宁,3,二手房,2009
沙河口区黄河路535号,大连,大连城市建设集团有限公司,沙河口,20190708,38.91773777159567,121.60217159922856,79中至诚小区,36,27313,大连天河物业管理有限公司,0.1,辽宁,3,二手房,1958
甘井子区西南路950—1号1层1号,大连,暂无信息,甘井子,20190708,38.96304110156522,121.59665499819343,八十中东海街,27,15669,街道办事处（居委会）代管物业,0.2,辽宁,3,二手房,1980
西岗区新田巷11号三单元103,大连,无开发商,西岗,20190708,38.89276612016956,121.64190731791966,新船巷,32,9724,无物业管理服务,-,辽宁,3,二手房,1990
中山区南山路59号1层4号,大连,无开发商,中山,20190708,38.91992239075882,121.6479206962747,同心街（昆明街）,10,16181,无物业管理服务,-,辽宁,3,二手房,1990
金州新区八一路金都嘉园1号楼1号公建,大连,大连市金州区房屋开发公司,金州,20190708,39.05525210261778,121.74865634199398,古城丁区,169,7362,街道办事处（居委会）代管物业,0.1,辽宁,3,二手房,1993
甘井子区泉水B2区19-1号,大连,北方沿海房地产开发（大连）有限公司,甘井子,20190708,39.0101309886317,121.60812584213187,沿海鉴筑,32,16883,美佳物业管理（深圳）有限公司大连分公司,1.8,辽宁,3,二手房,2010
无门店信息,大连,无开发商,金州,20190708,34.52713835999158,118.76812980670795,永安四季,44,7250,无物业管理服务,0.5,辽宁,3,二手房,2005
无门店信息,大连,暂无信息,甘井子,20190708,34.52713835999158,118.76812980670795,亿达春田蝶园,59,17445,亿达物业管理有限公司,2.2,辽宁,3,二手房,2012
开发区松苑街23号,大连,暂无信息,开发区,20190708,22.52087435807652,113.40156105086167,松峪里二期,6,13289,大连中信物业管理有限公司,0.5,辽宁,2,二手房,2000
西岗区新田巷27号1-2,大连,大连海苑房屋开发有限公司,西岗,20190708,38.893215932589385,121.64103065169111,半岛故乡,5,16825,大连半岛物业管理有限公司,0.8,辽宁,2,二手房,2002
中山区中南路226号,大连,大连澳南房屋开发有限公司,中山,20190708,38.90029610333926,121.68178899957817,伊顿山庄,10,23980,大连澳南物业管理有限公司,0.8,辽宁,2,二手房,2005
沙河口区华北路404号,大连,无开发商,沙河口,20190708,38.8862815932937,121.59082948696123,园丁巷,9,10366,街道办事处（居委会）代管物业,0.3,辽宁,2,二手房,1990
西岗区长春路334号,大连,无开发商,西岗,20190708,38.89807766522607,121.63221082858387,花园巷,3,9972,无物业管理服务,-,辽宁,2,二手房,1990
金州区先进街道渤海街1-4号1-2层,大连,大连市金州区房屋开发公司,金州,20190708,39.09512910553563,121.74578812616167,鑫海阳光,9,8505,金州区物业管理有限公司,0.5,辽宁,2,二手房,2008
西岗区八一路196号1-3,大连,暂无信息,西岗,20190708,38.92047268927287,121.61862512554262,靠山中巷,1,10968,社区物业,-,辽宁,2,二手房,1990
沙河口区五四路207-1-9号,大连,无开发商,沙河口,20190708,38.913544290955585,121.59450670056631,新生巷,1,13733,街道办事处（居委会）代管物业,0.5,辽宁,2,二手房,1985
中山区东港龙湖水晶郦湾7-102,大连,大连金广地产集团有限公司,中山,20190708,38.924700620463895,121.70344398518496,金广东海岸,68,23669,大连金广物业有限公司,2.2,辽宁,3,二手房,2007
沙河口区五一路110-4号,大连,大连亿达房地产股份有限公司,沙河口,20190708,38.913544290955585,121.59450670056631,兰亭山水,40,21319,亿达物业管理有限公司,0.6,辽宁,3,二手房,2002
甘井子区华东路33-5号,大连,无开发商,甘井子,20190708,38.97497080220593,121.59479866243332,秀水小区,17,11330,大连广宇物业有限责任公司,0.5,辽宁,3,二手房,1993
西岗区香炉礁24号1-1,大连,中瑞置业（大连）有限公司,西岗,20190708,38.92047268927287,121.61862512554262,香周首府,84,19441,中融物业管理有限公司,3,辽宁,3,二手房,2008
甘井子区红旗花园23号楼19-24轴公建,大连,大连银泰房地产有限公司,甘井子,20190708,38.93108029984587,121.54902145022133,祥和园,23,14588,无物业管理服务,0.5,辽宁,3,二手房,2000
开发区湾里南12栋-16-17-18号,大连,大连金湾实业有限公司,开发区,20190708,39.070782084451,121.8506739675913,湾里西,72,7725,广宜物业有限公司,0.2,辽宁,3,二手房,1996
沙河口区星海广场B3区20—3号,大连,大连亿达房地产股份有限公司,沙河口,20190708,38.88782715536473,121.5869168319735,亿达杰特,137,20004,亿达物业管理有限公司,3.8,辽宁,3,二手房,2005
沙河口区黄浦路18号—5号公建,大连,无开发商,高新园区,20190708,38.8771225143479,121.54427480390662,凌源街,33,13742,大连凌电物业管理有限公司,0.1,辽宁,3,二手房,1970
高新园敬贤街23-11号,大连,大连晟远房地产开发有限公司,高新园区,20190708,38.869456648212356,121.53023725049893,恒瑞坦城,67,17941,大连恒德物业服务有限公司,2.4,辽宁,3,二手房,2013
甘井子区玉丽街39号楼3号公建,大连,大连新型房地产开发有限公司,甘井子,20190708,38.98706755029984,121.55605471197089,玉丽街,73,10080,大连新兴物业管理有限公司,0.5,辽宁,3,二手房,2000
西岗区八一路196号2-1-12号,大连,暂无信息,西岗,20190708,38.92047268927287,121.61862512554262,八一路（新起屯商圈）,3,16221,无物业管理服务,-,辽宁,2,二手房,1981
中山区南山路59号1层4号,大连,无开发商,中山,20190708,38.91992239075882,121.6479206962747,昆明街（独立街）,12,25829,无物业管理服务,-,辽宁,2,二手房,1988
金州区站前街道盛滨花园B区13号楼2号公建,大连,无开发商,金州,20190708,39.09609011892329,121.7335816409767,联胜小区,27,6491,街道办事处（居委会）代管物业,0.5,辽宁,2,二手房,1990
中山区中南路店212号门头房,大连,峰尚房屋开发有限公司,中山,20190708,38.91149759691359,121.67700561077149,峰尚中南,16,15884,大连银洲物业管理有限公司,2.2,辽宁,2,二手房,2010
无门店信息,大连,大连安邦房地产开发有限公司,甘井子,20190708,34.52713835999158,118.76812980670795,西郊闲庭,19,12419,大连龙城物业服务有限公司,1,辽宁,2,二手房,2010
西岗区鞍山路29号龙畔锦城东门,大连,无开发商,西岗,20190708,38.92763470697088,121.61498923399098,双兴北巷（大菜市商圈）,10,10759,街道办事处（居委会）代管物业,0.5,辽宁,2,二手房,1990
中山区中南路226号,大连,大连亿成房屋开发有限公司,中山,20190708,38.90029610333926,121.68178899957817,亿成花园,5,13828,大连维尔利物业管理有限公司,0.8,辽宁,2,二手房,2000
开发区安盛里5栋-4,大连,大连万晟房地产开发有限公司,开发区,20190708,23.112106678834838,113.27801046214822,宜家大院,19,8804,大连万晟置业有限公司,0.8,辽宁,2,二手房,2001
甘井子区玉湖街25号2单元1层3号,大连,暂无信息,甘井子,20190708,38.97626265183615,121.54617349027997,玉水街,3,9840,无物业管理服务,-,辽宁,2,二手房,1988
中山区北斗街53号1层1号,大连,无开发商,中山,20190708,38.92727355733075,121.67002970974048,勤俭街（二七商圈）,2,11603,无物业管理服务,-,辽宁,2,二手房,1980
中山区解放路471-22号,大连,大连青云天下房地产有限公司,中山,20190708,38.901309943567504,121.65419095766659,青云天下,11,24473,大连青云天下物业服务有限公司,4.3,辽宁,2,二手房,2018
西岗区长春路334号,大连,大连源通房地产开发有限公司,西岗,20190708,38.89807766522607,121.63221082858387,南石源居,3,17649,大连源通物业管理有限公司,1.3,辽宁,2,二手房,2009
中山区华乐街107-115号,大连,大连复城置业有限公司,中山,20190708,38.92093821499401,121.68879267531725,星光耀广场,20,24836,上海复瑞物业管理有限公司大连分公司,4.8,辽宁,2,二手房,2015
中山区共建巷61号,大连,无开发商,中山,20190708,38.91828093658718,121.66259221532148,39中望海街,13,25579,街道办事处（居委会）代管物业,0.5,辽宁,2,二手房,1970
中山区中南路226号,大连,大连市建设控股有限公司,中山,20190708,38.90029610333926,121.68178899957817,欧洲小镇,11,17964,大连大众物业管理有限公司,0.8,辽宁,2,二手房,2004
西岗区长春路334号,大连,无开发商,西岗,20190708,38.89807766522607,121.63221082858387,桥东巷,5,11029,无物业管理服务,-,辽宁,2,二手房,1982
沙河口区西南路358号1—2号,大连,大连城市建设集团有限公司,沙河口,20190708,38.90839654326566,121.56908246905662,台扩小区,7,11395,大连新华物业管理有限公司,0.1,辽宁,2,二手房,1994
金州区站前街道盛滨花园B区13号楼2号公建,大连,无开发商,金州,20190708,39.09609011892329,121.7335816409767,金源花园小区,19,6924,街道办事处（居委会）代管物业,0.5,辽宁,2,二手房,1998
中山区清溪南街11号,大连,暂无信息,中山,20190708,38.88919604283904,121.66466481004835,秀峰东园,4,12580,社区物业,-,辽宁,2,二手房,1990
中山区解放路604号,大连,无开发商,中山,20190708,38.89026319122045,121.66407876092346,鸣鹤街,8,15157,街道办事处（居委会）代管物业,0.5,辽宁,2,二手房,1996
西岗区胜利路33号,大连,大连恒盛房屋开发有限公司,西岗,20190708,38.91309771954841,121.62500886627636,盛阳山庄,10,11216,大连佳捷物业管理有限公司,0.5,辽宁,2,二手房,1996
中山区金城街26号一楼,大连,无开发商,中山,20190708,38.922282529515634,121.65214466263014,九中武汉街,6,35579,无物业管理服务,-,辽宁,2,二手房,1986
无门店信息,大连,大连景和房屋开发有限公司,甘井子,20190708,34.52713835999158,118.76812980670795,怡华园,12,16643,大连景和物业管理有限公司,0.5,辽宁,2,二手房,2001
沙河口区长江路738号,大连,大连城市建设集团有限公司,沙河口,20190708,38.913544290955585,121.59450670056631,21中广电中心,23,18475,无物业管理服务,-,辽宁,2,二手房,1990
沙河口区中山路417A-4号,大连,大连电业房地产开发有限公司,沙河口,20190708,38.90740323140171,121.59484801084653,电力公寓,11,16063,街道办事处（居委会）代管物业,0.7,辽宁,2,二手房,2000
甘井子区锦城东园1号3单元1层2号,大连,大连易合房地产开发有限公司,甘井子,20190708,38.952805477462775,121.55656194973994,易和紫园,10,25341,大连易兴物业服务有限公司,0.9,辽宁,2,二手房,2008
中山区武昌街武昌公寓6号公建,大连,暂无信息,中山,20190708,38.912280913445784,121.64921130527547,39中麒麟东巷,17,25793,暂无信息,-,辽宁,2,二手房,1990
甘井子区虹港路16号楼1层公建,大连,沈阳军区后勤部,甘井子,20190708,38.9645939333502,121.553851837474,金寓花园四期,5,18984,大连大管家物业管理有限公司,1,辽宁,2,二手房,2000
甘井子区华东路22号公建,大连,大连金广地产集团有限公司,甘井子,20190708,38.97736184953593,121.5935814234334,华东路（山东路商圈）,27,11794,大连嘉和物业管理有限公司,0.5,辽宁,2,二手房,1990
大连市开发区湾里东5-6号,大连,大连德玉隆房地产开发有限公司,开发区,20190708,39.07275772231556,121.85888789351343,康馨壹品,45,11305,大连亚航物业管理有限公司,1,辽宁,2,二手房,2012
沙河口区星海广场B3区14-9,大连,大连一方地产有限公司,沙河口,20190708,38.88708614275256,121.58732027085938,星海阳光,24,23373,大连中海物业管理有限公司,1.6,辽宁,2,二手房,2000
甘井子区华龙南园34-5号34-库4号34-5号,大连,中信集团大连中信房地产开发公司,甘井子,20190708,38.98270467597865,121.6117222765123,惠丰小区,26,10152,大连中信物业管理有限公司,0.2,辽宁,2,二手房,1989
开发区高新里6栋-8,大连,无开发商,开发区,20190708,39.0710895068195,121.82860134358343,新港家园,28,8651,龙祥物业管理有限公司,0.3,辽宁,2,二手房,2003
沙河口区西南路40号楼,大连,无开发商,沙河口,20190708,38.94143337232082,121.58616557598133,杭州街,17,12295,无物业管理服务,-,辽宁,2,二手房,1990
中山区民建街10号1单元1号,大连,无开发商,中山,20190708,38.925444479476894,121.66915026954452,39中爱阳街,26,19760,无物业管理服务,-,辽宁,2,二手房,1993
中山区鲁迅路184号1层B—A,大连,无开发商,中山,20190708,38.92590875965419,121.67594393403164,新柳街,8,13544,无物业管理服务,-,辽宁,2,二手房,1985
中山区武昌街武昌公寓6号公建,大连,大连武昌房地产开发有限公司,中山,20190708,38.912280913445784,121.64921130527547,部居逸阁,24,13433,大连宜佳物业管理有限公司,1,辽宁,2,二手房,2005
中山区武昌街武昌公寓6号公建,大连,暂无信息,中山,20190708,38.912280913445784,121.64921130527547,南山西花厅,7,11767,暂无信息,1,辽宁,2,二手房,2002
金州区鹏程家园53#-8,大连,大连海富花园开发有限公司,开发区,20190708,39.03523987258615,121.80826248065051,鹏程家园（开发区）,8,8238,广宜物业有限公司,1.2,辽宁,2,二手房,2004
甘井子区华北路花锦园28号23-3-1-2建筑物,大连,大连东特房地产开发有限公司,甘井子,20190708,38.951627958411166,121.5739439799003,星加坡花园,23,17897,大连东特祥禾物业管理有限公司,0.6,辽宁,2,二手房,2003
中山区北斗街53号1层1号,大连,大连万众房屋开发有限公司,中山,20190708,38.92727355733075,121.67002970974048,清华园(中山),23,18726,大连戴德梁行物业管理有限公司,1.7,辽宁,2,二手房,2003
金州新区八一路金都嘉园1号楼1号公建,大连,大连友谊合升房地产开发有限公司,金州,20190708,39.05525210261778,121.74865634199398,龙祥嘉园,79,8183,大连天河物业管理有限公司,0.5,辽宁,2,二手房,1999
中山区民建街10号1单元1号,大连,无开发商,中山,20190708,38.925444479476894,121.66915026954452,39中和阳街,17,18808,无物业管理服务,-,辽宁,2,二手房,1990
金州区同济路44号,大连,大连永乐房地产开发有限公司,金州,20190708,39.10476859984152,121.71234684495865,永乐金庭,39,9977,大连天河物业管理有限公司,0.8,辽宁,2,二手房,2005
金州区小平岛B组团4号楼3号商铺,大连,大连安达房地产开发有限公司,高新园区,20190708,39.05643299166072,121.78943558267059,小平岛E东组团,34,21730,大连凯尔富物业管理有限公司,1.3,辽宁,2,二手房,2007
甘井子区汇达园26号,大连,大连红星美凯龙投资发展有限公司,甘井子,20190708,38.99704654604941,121.59758808878767,红星国际广场,154,14564,红星物业管理有限公司,1.5,辽宁,2,二手房,2012
中山区爱华街13号,大连,大连修竹房屋开发有限公司,中山,20190708,38.92541607518685,121.6535728031028,修竹大厦,19,13935,大连修竹物业管理有限公司,2.5,辽宁,2,二手房,2004
西岗区八一路196号2-1-12号,大连,大连欧美亚房地产开发有限公司,西岗,20190708,38.92047268927287,121.61862512554262,中华名城,40,19552,大连峰霖物业管理有限公司,1.5,辽宁,2,二手房,2002
甘井子区华东路33-5号,大连,暂无信息,甘井子,20190708,38.97497080220593,121.59479866243332,巾帼小区,32,11993,大连新华物业管理有限公司,-,辽宁,2,二手房,1993
甘井子区惠泽南园3-7号,大连,大连鹏德房屋开发有限公司,甘井子,20190708,38.939326611323615,121.52337842113351,鹏德同心园,8,15216,大连旺宇物业有限公司,1.7,辽宁,2,二手房,2005
沙河口区民权街324号,大连,大连城市建设集团有限公司,沙河口,20190708,38.92064616208148,121.59777611850379,天兴新家园,14,28255,大连天兴物业管理有限公司,0.5,辽宁,2,二手房,1999
中山区北斗街53号1层1号,大连,大连大森房地产开发有限公司,中山,20190708,38.92727355733075,121.67002970974048,东港林苑,21,17282,大连美心物业管理有限公司,2.8,辽宁,2,二手房,2010
高新园区火炬路18号,大连,大连海脉房地产开发有限公司,高新园区,20190708,38.937738080520404,117.39340752036043,MINI印象,141,15119,大连豪斯威物业管理有限公司,2.2,辽宁,2,二手房,2000
大连市甘井子区七贤路8-3号,大连,大连树源世嘉房地产开发有限公司,高新园区,20190708,38.86602612116956,121.53842265737707,国滨馆,21,25366,大连树源物业管理有限公司,3.5,辽宁,2,二手房,2010
中山区南山路59号1层4号,大连,无开发商,中山,20190708,38.91992239075882,121.6479206962747,麒麟西巷,19,13143,无物业管理服务,-,辽宁,2,二手房,1988
中山区武昌街武昌公寓6号公建,大连,无开发商,中山,20190708,38.912280913445784,121.64921130527547,气象街,20,21127,街道办事处（居委会）代管物业,0.5,辽宁,2,二手房,1980
中山区同心街72号1楼公建,大连,无开发商,中山,20190708,38.91979245940674,121.64769198230202,南山里,18,18673,无物业管理服务,-,辽宁,2,二手房,1986
沙河口区黄河路535号,大连,大连建园房地产开发有限公司,沙河口,20190708,38.91773777159567,121.60217159922856,79中城市公元,50,28051,大连斌弘物业管理有限公司,2.6,辽宁,2,二手房,2008
中山区虎滩路176号4-1-2,大连,无开发商,中山,20190708,38.890884710033156,121.69257379232747,碧波园,39,10812,大连虎滩置业物业管理有限公司,0.2,辽宁,2,二手房,1997
沙河口区前程街15号1层E-C轴36-44轴公建,大连,大连安邦房地产开发有限公司,甘井子,20190708,38.91588050824643,121.60099647548584,阳光百合,14,17390,渤海吉祥物业管理有限公司,0.8,辽宁,2,二手房,2004
开发区兴城路29-81层,大连,大连瑞宇置业有限公司,开发区,20190708,39.050214252167194,121.75835946441768,心海阳光,6,12861,大连经济技术开发区盛辉物业服务有限公司,1.8,辽宁,2,二手房,2011
沙河口区连山街10号2-1-2,大连,大连城市建设集团有限公司,沙河口,20190708,38.89637522563413,121.57143690983219,莱州街,36,11242,无物业管理服务,-,辽宁,2,二手房,1990
金州新区八一路金都嘉园1号楼1号公建,大连,大连友谊合升房地产开发有限公司,金州,20190708,39.05525210261778,121.74865634199398,宏意小区,62,7214,大连天河物业管理有限公司,0.4,辽宁,2,二手房,2000
沙河口区西南路40号楼,大连,大连金通房屋开发有限公司,沙河口,20190708,38.94143337232082,121.58616557598133,海韵花园,12,13716,大连金通物业管理有限公司,0.4,辽宁,2,二手房,2000
大连市甘井子区丰收路3-5号,大连,大连亿海房地产开发有限公司,甘井子,20190708,38.965377255081755,121.58288415324094,亿海盛都,19,21164,街道办事处（居委会）代管物业,0.5,辽宁,2,二手房,2003
甘井子区柳树南街45-10号,大连,中体产业集团大连乐百年置业有限公司,甘井子,20190708,38.92567666296449,121.4841330254372,水木清华,34,13563,大连辰谊物业管理有限公司,1.2,辽宁,2,二手房,2008
西岗区鞍山路29号龙畔锦城东门,大连,大连铁龙房地产开发有限公司,西岗,20190708,38.92763470697088,121.61498923399098,北岗新居,20,14794,大连铁龙物业管理有限公司,0.5,辽宁,2,二手房,2002
无门店信息,大连,暂无信息,金州,20190708,34.52713835999158,118.76812980670795,东才苑,29,7117,街道办事处（居委会）代管物业,-,辽宁,2,二手房,1998
中山区鲁迅路184号1层B—A,大连,无开发商,中山,20190708,38.92590875965419,121.67594393403164,39中山岳街,14,18245,无物业管理服务,-,辽宁,2,二手房,1998
西岗区绕山路31号公建一层东侧,大连,无开发商,西岗,20190708,38.90257514466717,121.61412736644739,绕云巷,7,10648,无物业管理服务,-,辽宁,2,二手房,1990
大连市甘井子区逸林南园1-1号,大连,大连三联置业有限公司,甘井子,20190708,38.95800216293212,121.53151895549547,三鼎春天,91,24733,瑞联德（大连）物业管理有限公司,2.8,辽宁,2,二手房,2018
西岗区八一路102号,大连,无开发商,西岗,20190708,38.92047268927287,121.61862512554262,杏环街,17,10159,无物业管理服务,-,辽宁,2,二手房,1990
中山区益民街16号1层1号,大连,无开发商,中山,20190708,38.93092761298906,121.66470740073377,永胜街（三八广场）,17,14571,无物业管理服务,-,辽宁,2,二手房,1990
沙河口区西南路851号3单元1层3号,大连,无开发商,沙河口,20190708,38.94344210837944,121.58246796944378,春柳街,12,11947,街道办事处（居委会）代管物业,0.1,辽宁,2,二手房,1980
中山区爱华街13号,大连,大连银洲房地产开发有限公司,中山,20190708,38.92541607518685,121.6535728031028,中央公馆,33,13006,大连银洲物业管理有限公司,3.5,辽宁,2,二手房,2004
"西岗区泰公街20号2层7号 西岗区久寿街22号1层14号""",大连,大连万达房地产开发有限公司,西岗,20190708,38.92600196862723,121.62141976476381,新春小区,5,14967,大连长青物业管理中心,0.2,辽宁,2,二手房,1995
西岗区康平街2号（5号楼3-1-3号）,大连,无开发商,西岗,20190708,38.91044414697888,121.61980769264477,教师大厦,22,13181,大连教师大厦物业管理有限公司,0.2,辽宁,2,二手房,1995
沙河口区西南路851号3单元1层3号,大连,无开发商,沙河口,20190708,38.94344210837944,121.58246796944378,凌山二街,8,10542,无物业管理服务,-,辽宁,2,二手房,1976
开发区高新里6栋-8,大连,无开发商,开发区,20190708,39.0710895068195,121.82860134358343,怡海花园一期,25,7468,街道办事处（居委会）代管物业,0.2,辽宁,2,二手房,2001
甘井子区迎客路郭东街一品蓝天公建14号,大连,沈阳军区后勤部,甘井子,20190708,38.958456949708726,121.556756277476,金寓花园五期,6,18423,大连瑞祥物业管理有限公司,1,辽宁,2,二手房,2009
西岗区长春路334号,大连,大连新型房地产开发总公司,西岗,20190708,38.89807766522607,121.63221082858387,林茂小区,43,10259,大连新型物业管理有限公司,0.2,辽宁,2,二手房,1990
中山区民建街10号1单元1号,大连,无开发商,中山,20190708,38.925444479476894,121.66915026954452,39中民建街,10,19725,无物业管理服务,-,辽宁,2,二手房,1995
甘井子区玉丽街39号楼3号公建,大连,大连润置房地产有限公司,甘井子,20190708,38.98706755029984,121.55605471197089,华润二十四城,21,19591,华润物业（大连）有限公司,3.1,辽宁,2,二手房,2017
沙河口区连山街10号2-1-2,大连,无开发商,沙河口,20190708,38.89637522563413,121.57143690983219,连山街,10,14139,街道办事处（居委会）代管物业,0.5,辽宁,2,二手房,1993
无门店信息,大连,暂无信息,开发区,20190708,34.52713835999158,118.76812980670795,民生园,25,7068,暂无信息,-,辽宁,2,二手房,2015
中山区民建街10号1单元1号,大连,大连港连房地产开发有限公司,中山,20190708,38.925444479476894,121.66915026954452,海港公寓（三八广场）,24,21959,大连海港物业管理有限公司,0.2,辽宁,2,二手房,1996
中山区中南路226号,大连,大连鼎上房地产开发有限公司,中山,20190708,38.90029610333926,121.68178899957817,滨海阳光,32,27066,大连万恒物业管理有限公司,1,辽宁,2,二手房,2005
沙河口区五一路270-274号,大连,大连誉园房地产开发有限公司,高新园区,20190708,38.913544290955585,121.59450670056631,斯坦福院落,25,21543,第一太平戴维斯物业顾问（北京）有限公司大连分公司,1.2,辽宁,2,二手房,2008
西岗区长春路334号,大连,无开发商,西岗,20190708,38.89807766522607,121.63221082858387,石葵路（石道街商圈）,15,12978,街道办事处（居委会）代管物业,0.5,辽宁,2,二手房,1983
中山区华乐街71号公建,大连,无开发商,中山,20190708,38.923187679200566,121.6843197903016,春园里,28,12270,无物业管理服务,-,辽宁,2,二手房,1990
沙河口区沙能街101号1单元1层1号,大连,大连政府城区改造办公室,沙河口,20190708,38.9366316275348,121.59031205759763,新居佳园,15,13733,大连大力物业管理有限公司,1.5,辽宁,2,二手房,2010
高新园区敬贤街25-9,大连,大连东盛房地产开发有限公司,高新园区,20190708,38.86879447142154,121.53007349209936,东盛启城,36,17407,大连东盛物业管理有限公司,2.3,辽宁,2,二手房,2010
西岗区长红街4号1号公建,大连,大连丰源房地产开发有限公司,西岗,20190708,38.91377414665191,121.6302525225721,丰源小区,16,21274,大连广安物业有限公司,0.5,辽宁,2,二手房,1990
沙河口区前程街46号4—1—2号,大连,大连渤海红旗集团有限公司,甘井子,20190708,38.913544290955585,121.59450670056631,里程巷,18,9678,大连台安物业管理中心,0.4,辽宁,2,二手房,1990
无门店信息,大连,大连百年港湾商业开发有限公司,西岗,20190708,34.52713835999158,118.76812980670795,百年港湾,58,17953,大连百年城物业管理有限公司,3.5,辽宁,2,二手房,2014
甘井子区鹏辉新世纪1幢1单元1-3号房屋（海口路99号）,大连,暂无信息,甘井子,20190708,38.96077365187575,121.60514653016222,鹏辉新世纪三期北园,19,17034,大连鹏辉物业管理有限公司,0.6,辽宁,2,二手房,2003
开发区景和园1-7,大连,开发区城建局,开发区,20190708,30.41892168817929,120.30896459202738,小孤山东里,94,6420,大连广谊物业管理有限公司,0.4,辽宁,2,二手房,1998
沙河口区西南路643号,大连,大连澳南房屋开发公司,沙河口,20190708,38.943483429804665,121.5833555851182,金福小区,13,11609,无物业管理服务,-,辽宁,2,二手房,2000
甘井子区金北街17号,大连,大连悦泰集团有限公司,甘井子,20190708,38.95800216293212,121.53151895549547,悦泰馨家,30,25469,大连优豪斯物业管理有限公司,0.5,辽宁,2,二手房,2003
沙河口区华北路404号,大连,无开发商,沙河口,20190708,38.8862815932937,121.59082948696123,华北路（春柳商圈）,12,10989,街道办事处（居委会）代管物业,0.1,辽宁,2,二手房,1980
开发区红梅小区19栋-2-1-1号,大连,大开中和祥房地产开发有限公司,开发区,20190708,29.906498897603264,121.5913630631805,金丰大厦,47,9888,新加坡物业管理有限公司,3,辽宁,2,二手房,2000
无门店信息,大连,大连祥和房屋开发有限公司,甘井子,20190708,34.52713835999158,118.76812980670795,祥和花园,43,12401,大连市大北物业管理有限公司,0.4,辽宁,2,二手房,2005
中山区华乐街71号公建,大连,暂无信息,中山,20190708,38.923187679200566,121.6843197903016,东港印象A区,15,19434,大连众和物业管理有限公司,1.2,辽宁,2,二手房,2008
天河路173-2号 华润考拉22号公建,大连,大连华南房地产开发有限公司,甘井子,20190708,23.14720645345518,113.3277414923158,名贵山庄华丽园,16,13689,大连弘益达物业管理有限公司,0.5,辽宁,2,二手房,2002
甘井子区柳树南街45-10号,大连,大连顺达房屋开发有限公司,甘井子,20190708,38.92567666296449,121.4841330254372,顺达温泉花园三期,35,11828,大连顺达物业服务有限公司,0.6,辽宁,2,二手房,2005
大连市金州区友谊街道南金华城25号1-2层1号,大连,大连金华房地产开发有限公司,金州,20190708,39.128677228885614,121.71356109978767,金华小区三期,11,9368,大连金华兴物业有限公司,1.2,辽宁,2,二手房,2009
红星海A区126-4,大连,远洋地产有限公司,开发区,20190708,39.027851194371685,121.80327394132297,红星海四期城市别馆二号,79,13438,大连远洋基业物业管理有限公司,2.2,辽宁,2,二手房,2010
金州区站前街道盛滨花园B区13号楼2号公建,大连,大连连铁房地产开发有限公司,金州,20190708,39.09609011892329,121.7335816409767,金舍嘉苑,23,8280,街道办事处（居委会）代管物业,0.5,辽宁,2,二手房,2005
甘井子区山东路137号,大连,无开发商,甘井子,20190708,38.99129404608926,121.59172125999353,天河路,15,12337,街道办事处（居委会）代管物业,0.1,辽宁,2,二手房,1998
甘井子区亿家缘虹韵路205,大连,大连亿达美加房地产开发有限公司,甘井子,20190708,38.95647848453699,121.53130152244339,第五郡四号地,52,28694,亿达物业管理有限公司,2,辽宁,2,二手房,2004
甘井子区柳树南街45-11号,大连,大连顺达房屋开发有限公司,甘井子,20190708,38.92567666296449,121.4841330254372,顺达温泉花园一期,10,11139,大连顺达物业服务有限公司,0.6,辽宁,2,二手房,2003
沙河口区连山街44-2号半地下一层（地上一层部分）,大连,大连远东房屋开发有限公司,沙河口,20190708,38.892991456958086,121.57299542767161,星海大第,14,23389,大连斌宏物业管理有限公司,1,辽宁,2,二手房,2005
中山区同心街72号1楼公建,大连,大连振屹房屋开发有限公司,中山,20190708,38.91979245940674,121.64769198230202,城市广场,30,15612,大连振屹物业有限公司,3.5,辽宁,2,二手房,2004
甘井子辛吉街150号-7号,大连,大连新星房地产开发有限公司,甘井子,20190708,38.96368508446978,121.52671221254214,新星绿城二期,21,12991,大连生生物业管理有限公司,0.5,辽宁,2,二手房,2004
无门店信息,大连,大连金石文化旅游投资有限公司,金州,20190708,34.52713835999158,118.76812980670795,大连金石天成,49,8679,大连万达物业管理有限公司,1.8,辽宁,2,二手房,2009
甘井子区红韵路114号,大连,大连亿达美加房地产开发有限公司,甘井子,20190708,38.95800216293212,121.53151895549547,第五郡六号地,43,31381,亿达物业管理有限公司,3,辽宁,2,二手房,2009
金州区小平岛B组团4号楼3号商铺,大连,安达圣岛开发有限公司,高新园区,20190708,39.05643299166072,121.78943558267059,小平岛亲海园,66,17451,大连凯尔富物业管理有限公司,1.3,辽宁,2,二手房,2007
中山区清溪南街11号,大连,无开发商,中山,20190708,38.88919604283904,121.66466481004835,小龙街,15,17738,无物业管理服务,0.5,辽宁,2,二手房,1985
金州新区八一路金都嘉园1号楼1号公建,大连,大连天程置业有限公司,金州,20190708,39.05525210261778,121.74865634199398,御河壹號,12,10077,大连天程置业有限公司,1.2,辽宁,2,二手房,2015
甘井子区金家街17-7号,大连,暂无信息,甘井子,20190708,38.97493697764367,121.60110987128529,金一街,19,20286,无物业管理服务,-,辽宁,2,二手房,1958
无门店信息,大连,暂无信息,金州,20190708,34.52713835999158,118.76812980670795,金石明珠,112,8965,街道办事处（居委会）代管物业,1,辽宁,2,二手房,2009
中山区南山路59号1层4号,大连,无开发商,中山,20190708,38.91992239075882,121.6479206962747,祝胜街（昆明街）,6,17139,无物业管理服务,-,辽宁,2,二手房,1988
金州新区先进街道渤海街7-4号1-2层、7-3号1-2层,大连,无开发商,金州,20190708,39.09342713035472,121.74590886291374,金莲怡园,11,7901,街道办事处（居委会）代管物业,-,辽宁,2,二手房,2000
中山区中青街87号一单元107,大连,大连亿达房地产股份有限公司,中山,20190708,38.90213494248529,121.65806522267005,青云林海,48,22331,亿达物业管理有限公司,1,辽宁,2,二手房,2001
西岗区长春路334号,大连,大连天源房屋开发有限公司,西岗,20190708,38.89807766522607,121.63221082858387,天源山庄,37,9853,大连弘益达物业管理有限公司,0.2,辽宁,2,二手房,1997
莲花山路89-3号,大连,无开发商,沙河口,20190708,38.902848261803356,121.6041720815823,拥民巷,4,10932,无物业管理服务,-,辽宁,2,二手房,1998
中山区华乐街71号公建,大连,暂无信息,中山,20190708,38.923187679200566,121.6843197903016,东港印象DE区,17,14646,大连众和物业管理有限公司,1.2,辽宁,2,二手房,2008
大连市开发区裕民新苑42-7,大连,无开发商,开发区,20190708,39.070771020021674,121.85093056856022,澳东世纪,30,11426,街道办事处（居委会）代管物业,0.5,辽宁,2,二手房,2012
高新园区红凌路732-4号,大连,大华集团大连置业有限公司,高新园区,20190708,38.90204708664442,121.53244406374695,大华锦绣华城二期,47,25998,大连大华物业管理有限公司,2.5,辽宁,2,二手房,2010
经济技术开发区城润万家4-5号公建,大连,诠盛置业（大连）有限公司,开发区,20190708,39.05716325096989,121.75946281983826,清都记忆,45,12252,金科物业服务集团有限公司,0.5,辽宁,2,二手房,2010
西岗区八一路196号2-1-12号,大连,无开发商,西岗,20190708,38.92047268927287,121.61862512554262,八一路（八一路商圈）,20,11213,无物业管理服务,-,辽宁,2,二手房,1990
无门店信息,大连,大连融和房地产开发有限公司,开发区,20190708,34.52713835999158,118.76812980670795,岚山著作,38,9765,大连昌和物业管理有限公司,1.3,辽宁,2,二手房,2012
沙河口区黄浦路18号—5号公建,大连,大连良运房地产开发有限公司,高新园区,20190708,38.8771225143479,121.54427480390662,翰林观海,32,22918,大连良运物业管理有限公司,0.8,辽宁,2,二手房,2003
甘井子区汇达园26号,大连,大连市大钢集团,甘井子,20190708,38.99704654604941,121.59758808878767,华南沃尔玛六平路,18,12337,街道办事处（居委会）代管物业,0.5,辽宁,2,二手房,1990
中山区高尚路28-1号,大连,大连家园建设集团有限公司,中山,20190708,38.892673425111305,121.67148833870213,卡纳意乡,50,21874,大连四季物业服务有限公司,1.8,辽宁,2,二手房,2007
金州区同济路44号,大连,大连新界置业有限公司,金州,20190708,39.10476859984152,121.71234684495865,新青年印象,72,7877,大连新青年物业管理有限公司,1.3,辽宁,2,二手房,2008
甘井子区汇仁街22号,大连,中铁建（大连）置业有限公司,甘井子,20190708,38.99712640764999,121.58834420439493,动力院景二期汇善南园,24,16076,大连铁龙安居物业管理有限公司,0.7,辽宁,2,二手房,2007
中山区益民街16号1层1号,大连,大连三鑫房地产开发有限公司,中山,20190708,38.93092761298906,121.66470740073377,金和苑,16,22523,大连报业物业管理有限公司三鑫分公司,3.5,辽宁,2,二手房,2004
中山区民建街10号1单元1号,大连,无开发商,中山,20190708,38.925444479476894,121.66915026954452,建华巷（三八广场）,11,14560,无物业管理服务,-,辽宁,2,二手房,1990
无门店信息,大连,暂无信息,甘井子,20190708,34.52713835999158,118.76812980670795,盐岛湖,89,11051,无物业管理服务,0.2,辽宁,2,二手房,2000
大连市金州新区中长街道碧海尚城5-4号1-2层,大连,无开发商,金州,20190708,39.100290954587514,121.7304796052032,于洼小区,64,7147,街道办事处（居委会）代管物业,0.1,辽宁,2,二手房,1980
开发区兴城路29-81层,大连,大连华宇房地产开发有限公司,开发区,20190708,39.050214252167194,121.75835946441768,华宇梧桐苑,16,13276,大连永嘉物业管理公司,1.9,辽宁,2,二手房,2012
开发区红星海B区212-1,大连,远洋地产有限公司,开发区,20190708,39.027851194371685,121.80327394132297,红星海时光的岸,73,13551,大连远洋基业物业管理有限公司,2.2,辽宁,2,二手房,2013
大连市沙河口区知邻街50号,大连,大连软件园开发有限公司,沙河口,20190708,38.913544290955585,121.59450670056631,宅语原,69,20376,亿达物业管理有限公司,2,辽宁,2,二手房,2008
沙河口区知心园10号公建,大连,大连软件园开发有限公司,高新园区,20190708,38.893977135945136,121.55667141994431,亿达国际新城,45,22530,亿达物业管理有限公司,1,辽宁,2,二手房,2003
无门店信息,大连,大连永高房屋开发有限公司,西岗,20190708,34.52713835999158,118.76812980670795,功勋街（胜利桥北商圈）,18,12057,无物业管理服务,-,辽宁,2,二手房,1990
甘井子区泉水P3区35-2号,大连,大连鑫成置业有限公司,甘井子,20190708,39.01530162252779,121.63546089163083,欧尚广场,39,17462,大连宏华物业服务有限公司,1.5,辽宁,2,二手房,2013
大连市甘井子区泉水N2区3-13号,大连,大连半岛集团有限公司,甘井子,20190708,39.021116079001885,121.64659997607325,半岛泉水欣座,30,14978,大连半岛物业管理有限公司,1.5,辽宁,2,二手房,2010
莲花山路89-3号,大连,无开发商,沙河口,20190708,38.902848261803356,121.6041720815823,新华街,16,13312,无物业管理服务,-,辽宁,2,二手房,1999
沙河口区联合路133号,大连,无开发商,沙河口,20190708,38.91608561262676,121.60480987310456,联合路,4,11562,无物业管理服务,-,辽宁,1,二手房,1995
中山区中青街87号一单元107,大连,无开发商,中山,20190708,38.90213494248529,121.65806522267005,中青街,4,16040,无物业管理服务,-,辽宁,1,二手房,1996
中山区中青街87号一单元107,大连,无开发商,中山,20190708,38.90213494248529,121.65806522267005,光华巷,4,11105,无物业管理服务,-,辽宁,1,二手房,1990
沙河口区红旗东路18-22号2单元1楼3号,大连,大连渤海红旗集团有限公司,沙河口,20190708,38.913544290955585,121.59450670056631,马栏南街,0,11854,大连辽南物业管理有限公司,0.2,辽宁,1,二手房,1990
莲花山路89-3号,大连,大连建兴房屋开发有限公司,沙河口,20190708,38.902848261803356,121.6041720815823,府佳家园,4,16975,大连富佳物业管理有限公司,0.6,辽宁,1,二手房,2001
西岗区绕山路31号公建一层东侧,大连,暂无信息,沙河口,20190708,38.90257514466717,121.61412736644739,山庄南二巷,3,11429,暂无信息,-,辽宁,1,二手房,1990
无门店信息,大连,暂无信息,沙河口,20190708,34.52713835999158,118.76812980670795,第八干休所,0,14007,暂无信息,-,辽宁,1,二手房,-
中山区金城街26号一楼,大连,暂无信息,中山,20190708,38.922282529515634,121.65214466263014,昆明街（一德街）,0,14375,暂无信息,-,辽宁,1,二手房,1992
西岗区胜利路33号,大连,暂无信息,西岗,20190708,38.91309771954841,121.62500886627636,34中云山街,2,36903,暂无信息,-,辽宁,1,二手房,1990
西岗区八一路102号,大连,无开发商,西岗,20190708,38.92047268927287,121.61862512554262,华林巷,0,14151,无物业管理服务,-,辽宁,1,二手房,-
中山区武昌街武昌公寓6号公建,大连,无开发商,中山,20190708,38.912280913445784,121.64921130527547,绿山俪城,5,15704,无物业管理服务,-,辽宁,2,二手房,1995
中山区同心街72号1楼公建,大连,无开发商,中山,20190708,38.91979245940674,121.64769198230202,胜利东路,0,15125,无物业管理服务,-,辽宁,1,二手房,1988
金州区凤翔路220号,大连,大连鸿玮置业有限公司,金州,20190708,39.08410553937731,121.77700083356399,鸿玮澜山二期,53,14483,大连鸿玮物业服务有限公司,1.8,辽宁,2,二手房,2010
金州区凤翔路220号,大连,大连鸿玮置业有限公司,金州,20190708,39.08410553937731,121.77700083356399,鸿玮澜山一期,32,15588,大连鸿玮物业服务有限公司,1.8,辽宁,2,二手房,2009
金州区同济路44号,大连,大连市金州区光明房地产开发有限公司,金州,20190708,39.10476859984152,121.71234684495865,绿苑小区,38,7231,街道办事处（居委会）代管物业,0.5,辽宁,2,二手房,2000
甘井子区泉水H3区15号3单元1层2号,大连,大连新型房地产开发有限公司,甘井子,20190708,39.00158439075201,121.62616882572375,龙畔金泉三期,57,13499,大连新型物业管理有限公司,0.5,辽宁,2,二手房,2003
沙河口区联合路133号,大连,大连新型房地产开发有限公司,沙河口,20190708,38.91608561262676,121.60480987310456,21中天兴花园一期,38,19568,大连万泰物业管理有限公司,0.5,辽宁,2,二手房,1998
开发区黄海西路201号107公建,大连,无开发商,开发区,20190708,39.04942604506828,121.80126318235419,倚平里,46,8183,街道办事处（居委会）代管物业,0.5,辽宁,2,二手房,2000
中山区鲁迅路184号1层B—A,大连,无开发商,中山,20190708,38.92590875965419,121.67594393403164,北斗街（寺儿沟商圈）,1,14109,无物业管理服务,-,辽宁,1,二手房,1988
西岗区鞍山路65-5号,大连,无开发商,沙河口,20190708,38.926971569913064,121.60260230348328,美辰臻品,10,18067,大连众和物业管理有限公司,1,辽宁,1,二手房,2007
中山区南山路59号1层4号,大连,无开发商,中山,20190708,38.91992239075882,121.6479206962747,南山路（昆明街商圈）,1,18372,无物业管理服务,-,辽宁,1,二手房,1982
沙河口区兰田街33号,大连,无开发商,沙河口,20190708,38.926138912221084,121.56486022834609,西苑新区,4,13858,街道办事处（居委会）代管物业,0.3,辽宁,1,二手房,2000
沙河口区兰田街33号,大连,大连万合房地产开发有限公司,沙河口,20190708,38.926138912221084,121.56486022834609,万合新家园,10,17689,大连佳宜物业管理有限公司,0.6,辽宁,1,二手房,2004
西岗区绕山路31号公建一层东侧,大连,无开发商,西岗,20190708,38.90257514466717,121.61412736644739,彩云路,11,9732,无物业管理服务,-,辽宁,1,二手房,1990
中山区民建街10号1单元1号,大连,暂无信息,中山,20190708,38.925444479476894,121.66915026954452,39中港湾街,2,20124,无物业管理服务,-,辽宁,1,二手房,1994
中山区共建巷61号,大连,暂无信息,中山,20190708,38.91828093658718,121.66259221532148,山林街（三八商圈）,2,25626,无物业管理服务,-,辽宁,1,二手房,1990
中山区金城街26号一楼,大连,无开发商,中山,20190708,38.922282529515634,121.65214466263014,友好路,5,15513,无物业管理服务,-,辽宁,1,二手房,1990
莲花山路89-3号,大连,暂无信息,沙河口,20190708,38.902848261803356,121.6041720815823,美丽巷,2,13812,无物业管理服务,-,辽宁,1,二手房,-
中山区金城街26号一楼,大连,暂无信息,中山,20190708,38.922282529515634,121.65214466263014,39中哈尔滨街,3,25036,无物业管理服务,-,辽宁,1,二手房,1981
中山区爱华街13号,大连,无开发商,中山,20190708,38.92541607518685,121.6535728031028,万民街（三八广场）,5,11796,无物业管理服务,-,辽宁,1,二手房,1990
莲花山路89-3号,大连,大连兴达房地产有限公司,西岗,20190708,38.902848261803356,121.6041720815823,香都花园,2,17048,大连香都物业管理有限公司,0.8,辽宁,1,二手房,1993
中山区山屏街116号1-1,大连,暂无信息,中山,20190708,38.90729438486833,121.68598159980013,山屏美境,6,17105,无物业管理服务,3.5,辽宁,1,二手房,2009
中山区杏林街66—5号,大连,无开发商,中山,20190708,38.92572771377599,121.66490555592502,39中丰阳巷,4,28584,街道办事处（居委会）代管物业,0.5,辽宁,1,二手房,1990
西岗区八一路102号,大连,无开发商,西岗,20190708,38.92047268927287,121.61862512554262,群英阁,2,17907,无物业管理服务,-,辽宁,1,二手房,2000
无门店信息,大连,大连裕安房地产开发有限公司,甘井子,20190708,34.52713835999158,118.76812980670795,金塘裕墅,6,27916,大连旺宇物业有限公司,3.5,辽宁,1,二手房,2014
甘井子区虹港路16号楼1层公建,大连,大连祥盛房屋开发有限公司,甘井子,20190708,38.9645939333502,121.553851837474,祥和新家园,16,16420,大连东特祥禾物业管理有限公司,0.5,辽宁,1,二手房,2002
甘井子区华北路花锦园28号23-3-1-2建筑物,大连,暂无信息,甘井子,20190708,38.951627958411166,121.5739439799003,周水子广场,0,14883,无物业管理服务,0.5,辽宁,1,二手房,1985
金州区光明街道育才街42-6号1-2层,大连,大连市金州区光明房地产开发有限公司,金州,20190708,39.109080894078986,121.7182584929096,学府世家,2,11679,大连永和物业管理有限公司,1.2,辽宁,1,二手房,2011
沙河口区黄河路883号,大连,无开发商,沙河口,20190708,38.919826721475204,121.57749657966676,黄河路（辽师商圈）,2,11596,大连辽南物业管理有限公司,0.5,辽宁,1,二手房,1970
金州区凤翔路220号,大连,暂无信息,金州,20190708,39.08410553937731,121.77700083356399,新起点公寓,6,5550,暂无信息,-,辽宁,1,二手房,2000
沙河口区鞍山路65号美都园7号1单元1层4号公建,大连,大连诚瑞项目管理有限公司,沙河口,20190708,38.92755211283745,121.60306664748275,万向城,37,11847,大连好管家物业管理有限公司,1.9,辽宁,1,二手房,2000
高新园区海苑街36号1单元2号公建,大连,大连海苑房屋开发有限公司,高新园区,20190708,20.06392317589085,110.32302599457326,海苑花园,23,14568,大连家园物业有限公司,0.3,辽宁,1,二手房,2000
中山区武昌街武昌公寓6号公建,大连,无开发商,中山,20190708,38.912280913445784,121.64921130527547,观象街（南山商圈）,10,21286,无物业管理服务,-,辽宁,1,二手房,1990
高新园区黄浦路901S号1单元1层3号,大连,大连金真源集团房地产开发有限公司,高新园区,20190708,38.85845801548294,121.51687109601923,山海一家三期,11,18047,大连龙海物业管理有限公司,1.2,辽宁,1,二手房,2010
中山区碧浪园4号-3号,大连,大连铁路房地产开发有限责任公司,中山,20190708,38.89147289460474,121.69329560326236,山水家园二期,2,22026,大连铁道物业管理有限责任公司,0.5,辽宁,1,二手房,2003
中山区山屏街116号1-1,大连,无开发商,中山,20190708,38.90729438486833,121.68598159980013,怡梦园,6,14869,无物业管理服务,-,辽宁,1,二手房,1900
甘井子区红旗中路143号1层4号,大连,亿海房地产开发有限公司,甘井子,20190708,38.93169566676921,121.5426632438217,水苑居,11,15992,大连万泰物业管理有限公司,0.6,辽宁,1,二手房,2003
大连市高新园区七贤中路63号,大连,大连全统房地产开发有限公司,高新园区,20190708,38.86053006357667,121.53273606963094,君海阁,19,18702,大连城建开发集团物业管理有限公司,2.2,辽宁,1,二手房,2012
沙河口区西南路643号,大连,大连海昌房屋开发有限公司,沙河口,20190708,38.943483429804665,121.5833555851182,兴港花园,4,12499,大连永佳物业管理有限公司,0.3,辽宁,1,二手房,1999
西岗区长春路334号,大连,无开发商,西岗,20190708,38.89807766522607,121.63221082858387,西麓街,7,10177,无物业管理服务,-,辽宁,1,二手房,1982
甘井子区迎客路郭东街一品蓝天公建14号,大连,沈阳军区后勤部,甘井子,20190708,38.958456949708726,121.556756277476,虹桥干休所,7,13964,大连虹桥物业管理中心,0.1,辽宁,1,二手房,2000
无门店信息,大连,大连宸泰房地产开发有限公司,旅顺口,20190708,34.52713835999158,118.76812980670795,丽水佳园,9,8291,暂无信息,-,辽宁,1,二手房,-
大连市金州区友谊街道南金华城25号1-2层1号,大连,大连金华房地产开发有限公司,金州,20190708,39.128677228885614,121.71356109978767,金华小区四期,4,10517,大连金华兴物业有限公司,1.5,辽宁,1,二手房,2014
大连市沙河口区西南路875号1层21号,大连,暂无信息,沙河口,20190708,38.94485969061231,121.58418648447764,春柳中心,3,13297,大连新兴物业管理有限公司,0.1,辽宁,1,二手房,1985
大连市高新园区七贤中路63号,大连,大连鑫亿房屋开发有限公司,高新园区,20190708,38.86053006357667,121.53273606963094,瑞丰园,16,14933,无物业管理服务,0.8,辽宁,1,二手房,1999
高新园区海苑街36号1单元2号公建,大连,大连宜兴房地产开发有限公司,高新园区,20190708,20.06392317589085,110.32302599457326,彼得公寓,4,13182,宜兴物业管理有限公司,1,辽宁,1,二手房,2008
西岗区中山路158号唐山街市场外14号,大连,暂无信息,西岗,20190708,38.91688106727098,121.63201298398174,34中安宁巷,2,29893,无物业管理服务,-,辽宁,1,二手房,1985
无门店信息,大连,大连益海房屋开发有限公司,甘井子,20190708,34.52713835999158,118.76812980670795,益海美利山,12,13200,大连溪谷阳光物业服务有限公司,1.5,辽宁,1,二手房,2016
中山区爱华街13号,大连,无开发商,中山,20190708,38.92541607518685,121.6535728031028,九中爱华街,10,39141,无物业管理服务,-,辽宁,1,二手房,1988
沙河口区鞍山路65号美都园7号1单元1层4号公建,大连,大连良运房地产开发有限公司,沙河口,20190708,38.92755211283745,121.60306664748275,良运缤纷四季,39,21750,大连良运物业管理有限公司,0.8,辽宁,1,二手房,2005
沙河口区南沙街36号台二2号1-1-37,大连,大连三寰房屋开发有限公司,沙河口,20190708,38.90741410359388,121.57685699961822,南平花园,11,18272,大连上达物业管理有限公司,0.3,辽宁,1,二手房,2001
甘井子区促进路30号2-1-1,大连,大连泰安房地产开发有限公司,沙河口,20190708,38.954133128707575,121.58355746311207,春柳园,18,10709,街道办事处（居委会）代管物业,0.5,辽宁,1,二手房,1995
"西岗区泰公街20号2层7号 西岗区久寿街22号1层14号""",大连,大连安大房屋开发有限公司,西岗,20190708,38.92600196862723,121.62141976476381,万达公寓,6,9442,庄河金城物业管理有限公司,0.8,辽宁,1,二手房,1997
西岗区新田巷11号三单元103,大连,大连市中联房地产开发有限公司,西岗,20190708,38.89276612016956,121.64190731791966,卧龙山庄,7,13396,大连健龙物业管理有限公司,0.5,辽宁,1,二手房,2001
中山区高尚路28-1号,大连,大连丰源房地产有限公司,中山,20190708,38.892673425111305,121.67148833870213,丰源海景,11,16062,大连丰源海景物业管理有限公司,0.5,辽宁,1,二手房,2000
沙河口区兰田街33号,大连,无开发商,沙河口,20190708,38.926138912221084,121.56486022834609,兰玉小区,4,11074,街道办事处（居委会）代管物业,0.4,辽宁,1,二手房,1990
无门店信息,大连,无开发商,西岗,20190708,34.52713835999158,118.76812980670795,万众里小区（胜利桥北商圈）,6,11000,大连大众物业管理有限公司,0.5,辽宁,1,二手房,1975
莲花山路89-3号,大连,大连安邦房屋开发公司,沙河口,20190708,38.902848261803356,121.6041720815823,金地海景,17,13487,无物业管理服务,-,辽宁,1,二手房,2003
中山区清溪南街11号,大连,大连澳南房屋开发有限公司,中山,20190708,38.88919604283904,121.66466481004835,清溪南苑,3,19391,大连中园房地产物业公司,0.6,辽宁,1,二手房,2003
无门店信息,大连,暂无信息,金州,20190708,34.52713835999158,118.76812980670795,三里公安家属楼,12,7378,暂无信息,-,辽宁,1,二手房,1996
沙河口区富静街26号1单元1层5号,大连,大连远东房屋开发有限公司,沙河口,20190708,38.908727606250466,121.58667844684369,世嘉星海,35,28427,大连瑞信物业管理有限公司,1.6,辽宁,1,二手房,2007
甘井子区华东路33-5号,大连,暂无信息,甘井子,20190708,38.97497080220593,121.59479866243332,松江路（80中）,29,13292,大连新华物业管理有限公司,-,辽宁,1,二手房,1993
无门店信息,大连,无开发商,金州,20190708,34.52713835999158,118.76812980670795,伟桥嘉园,6,7776,无物业管理服务,0.5,辽宁,1,二手房,2008
沙河口区长江路738号,大连,大连春达房屋开发有限公司,西岗,20190708,38.913544290955585,121.59450670056631,春江花园,2,17341,无物业管理服务,-,辽宁,1,二手房,2002
中山区高尚路28-1号,大连,无开发商,中山,20190708,38.892673425111305,121.67148833870213,高福街,11,11275,无物业管理服务,-,辽宁,1,二手房,1993
西岗区中山路158号唐山街市场外14号,大连,暂无信息,西岗,20190708,38.91688106727098,121.63201298398174,34中畅通街,3,28390,无物业管理服务,-,辽宁,1,二手房,1980
西岗区绕山路31号公建一层东侧,大连,无开发商,西岗,20190708,38.90257514466717,121.61412736644739,康庄街,4,10219,无物业管理服务,-,辽宁,1,二手房,1988
甘井子区凌秀路37号-1链家地产,大连,大连汇基房地产开发有限公司,高新园区,20190708,38.883794285403965,121.52361997548515,学仕名府,18,20009,大连意美物业服务有限公司,2.4,辽宁,1,二手房,2014
金州区拥政街道733号-8号1-2层,大连,无开发商,金州,20190708,39.11690610445662,121.73030803603723,建兴苑,31,7508,街道办事处（居委会）代管物业,0.5,辽宁,1,二手房,1999
高新园敬贤街23-11号,大连,暂无信息,高新园区,20190708,38.869456648212356,121.53023725049893,中海紫御观邸四期,10,20406,大连中海物业管理有限公司,2.6,辽宁,1,二手房,2012
沙河口区华北路404号,大连,大连元泰房屋开发有限公司,沙河口,20190708,38.8862815932937,121.59082948696123,福居家园,9,16118,渤海吉祥物业管理有限公司,0.5,辽宁,1,二手房,2003
金州区南棉路310号,大连,暂无信息,金州,20190708,39.09939229372624,121.72414976100345,连胜小区,6,6490,无物业管理服务,0.5,辽宁,1,二手房,1995
开发区小孤山西里3栋-11号,大连,大连光伸房地产开发有限公司,开发区,20190708,39.02715282297674,121.80682183666346,绿洲半岛二期,23,8912,大连经济技术开发区光伸物业服务有限公司,1,辽宁,1,二手房,2004
沙河口区绿清街12号,大连,大连绿波房屋开发集团有限公司,沙河口,20190708,38.93851335419565,121.57334844377094,绿波公寓,6,9068,大连绿波建设发展有限公司,0.5,辽宁,1,二手房,1999
金州新区八一路金都嘉园1号楼1号公建,大连,大连金园房地产开发有限公司,金州,20190708,39.05525210261778,121.74865634199398,金园名城,18,7692,街道办事处（居委会）代管物业,0.5,辽宁,1,二手房,2009
中山区中南路226号,大连,万科中山置业有限公司,中山,20190708,38.90029610333926,121.68178899957817,万科中南府,2,28418,大连万科物业服务有限公司,5,辽宁,1,二手房,2015
甘井子区惠泽南园3-4号,大连,大连全统房地产开发有限公司,甘井子,20190708,38.939326611323615,121.52337842113351,全统西山丽水,14,15483,大连新华物业管理有限公司,0.5,辽宁,1,二手房,2008
中山区民运巷 47号1层2号,大连,无开发商,中山,20190708,38.905955122300846,121.64798148011702,葵英街（武昌街商圈）,6,12852,无物业管理服务,-,辽宁,1,二手房,1990
中山区北斗街53号1层1号,大连,无开发商,中山,20190708,38.92727355733075,121.67002970974048,丹东街（二七商圈）,8,14028,无物业管理服务,-,辽宁,1,二手房,1993
中山区同心街72号1楼公建,大连,无开发商,中山,20190708,38.91979245940674,121.64769198230202,万家巷（昆明街）,13,16688,无物业管理服务,-,辽宁,1,二手房,1980
沙河口区富民路249号,大连,大连浩胜房地产开发有限公司,沙河口,20190708,38.93341510428133,121.5770130002514,万棵树,12,19769,大连华安物业管理有限公司,2.1,辽宁,1,二手房,2016
甘井子区柳树南街45-11号,大连,大连顺达房屋开发有限公司,甘井子,20190708,38.92567666296449,121.4841330254372,顺达温泉花园二期,21,11667,大连顺达物业服务有限公司,0.6,辽宁,1,二手房,2004
甘井子区华东路22号公建,大连,暂无信息,甘井子,20190708,38.97736184953593,121.5935814234334,经一街,2,12072,无物业管理服务,-,辽宁,1,二手房,1990
金州区南棉路310号,大连,大连金连房地产开发有限公司,金州,20190708,39.09939229372624,121.72414976100345,金连领地,29,7918,街道办事处（居委会）代管物业,0.5,辽宁,1,二手房,1995
沙河口区黑石礁街5号1层1号,大连,大连鹏生房地产开发有限公司,沙河口,20190708,38.879813345473714,121.56313742300513,鹏辉广场,13,18638,大连新兴物业管理有限公司,0.5,辽宁,1,二手房,2000
沙河口区黄河路883号,大连,大连安邦房地产开发有限公司,沙河口,20190708,38.919826721475204,121.57749657966676,阳光小筑,6,19155,大连远洋基业物业管理有限公司,0.8,辽宁,1,二手房,2007
西岗区鞍山路29号龙畔锦城东门,大连,大连万达房地产开发有限公司,西岗,20190708,38.92763470697088,121.61498923399098,长春花园,22,18019,大连万达物业管理有限公司,0.5,辽宁,1,二手房,1996
开发区松苑街23号,大连,大连天安房地产开发有限公司,开发区,20190708,22.52087435807652,113.40156105086167,天安海景花园,20,14220,大连港力物业管理有限公司,1.2,辽宁,1,二手房,1987
沙河口区黄浦路18号—5号公建,大连,无开发商,高新园区,20190708,38.8771225143479,121.54427480390662,东电小区,18,14510,大连凌电物业管理有限公司,0.3,辽宁,1,二手房,1992
无门店信息,大连,大连航宇房屋开发有限公司,甘井子,20190708,34.52713835999158,118.76812980670795,西郊棠梨园,15,12417,渤海吉祥物业管理有限公司,0.5,辽宁,1,二手房,2006
大连市高新园区软件园路1A-3号,大连,无开发商,高新园区,20190708,38.89360013642285,121.54653763548625,中辰国际公寓,5,16465,大连阿尔滨汇城物业服务有限公司,2.5,辽宁,1,二手房,2005
金州区南棉路310号,大连,大连阿尔滨集团房地产开发有限公司,金州,20190708,39.09939229372624,121.72414976100345,荣盛小区,9,8928,街道办事处（居委会）代管物业,1,辽宁,1,二手房,1999
"西岗区泰公街20号2层7号 西岗区久寿街22号1层14号""",大连,无开发商,西岗,20190708,38.92600196862723,121.62141976476381,银华双厦,9,11191,无物业管理服务,-,辽宁,1,二手房,1994
中山区解放路471-22号,大连,无开发商,中山,20190708,38.901309943567504,121.65419095766659,广兴巷,6,12465,街道办事处（居委会）代管物业,-,辽宁,1,二手房,1980
中山区爱华街13号,大连,暂无信息,中山,20190708,38.92541607518685,121.6535728031028,九中杏林街,7,41532,无物业管理服务,6,辽宁,1,二手房,1995
中山区共建巷61号,大连,大连新型房地产开发总公司,中山,20190708,38.91828093658718,121.66259221532148,南山苑,8,33035,大连新型物业管理有限公司,1.5,辽宁,1,二手房,1990
沙河口区杨树街4-4号公建,大连,无开发商,高新园区,20190708,38.88444587249751,121.55130620045541,育明高中,10,18836,无物业管理服务,-,辽宁,1,二手房,1998
中山区解放路471-22号,大连,大连长策房屋开发有限公司,西岗,20190708,38.901309943567504,121.65419095766659,捷山观海,9,19628,大连鑫晟物业管理有限公司,2,辽宁,1,二手房,2008
中山区北斗街53号1层1号,大连,无开发商,中山,20190708,38.92727355733075,121.67002970974048,鲁迅路（二七商圈）,5,11998,无物业管理服务,-,辽宁,1,二手房,1996
西岗区绕山路31号公建一层东侧,大连,大连胜利路拓宽改造工程建设有限公司,西岗,20190708,38.90257514466717,121.61412736644739,星海绿山城D区,13,21286,无物业管理服务,1.5,辽宁,1,二手房,2015
开发区杏花里13#楼-7号,大连,大连经济技术开发区城市建设开发有限公司,开发区,20190708,31.31075067906954,120.63127837058457,杏林山庄一期,17,9259,大连经济技术开发区杏林物业管理有限公司,0.8,辽宁,1,二手房,2004
中山区鲁迅路184号1层B—A,大连,无开发商,中山,20190708,38.92590875965419,121.67594393403164,民寿里,11,14045,无物业管理服务,-,辽宁,1,二手房,1990
甘井子区海口路77—5号,大连,暂无信息,甘井子,20190708,38.960286398428124,121.60305183172997,鹏辉新世纪五期,12,19394,大连鹏辉物业管理有限公司,0.6,辽宁,1,二手房,2009
甘井子区西南路芳茗园30号楼,大连,大连泰华房地产开发有限公司,甘井子,20190708,38.961395177040636,121.59546002818708,泰华府邸,17,18764,大连华安物业管理有限公司,1.5,辽宁,1,二手房,2009
甘井子区芳韵街31号,大连,亿达集团大连房地产开发有限公司,甘井子,20190708,38.95628814568166,121.59125586946814,亿达世纪城,58,24489,亿达物业管理有限公司,0.9,辽宁,1,二手房,2002
西岗区康平街2号（5号楼3-1-3号）,大连,暂无信息,西岗,20190708,38.91044414697888,121.61980769264477,34中果园巷,7,27045,暂无信息,-,辽宁,1,二手房,1993
中山区北斗街53号1层1号,大连,大连名仕房地产开发有限公司,中山,20190708,38.92727355733075,121.67002970974048,名仕财富中心,66,11326,holiday inn酒店物业管理有限公司,4.3,辽宁,1,二手房,2004
大连市高新园区七贤中路63号,大连,大连招宇房地产有限公司,高新园区,20190708,38.86053006357667,121.53273606963094,招商兰溪谷,32,22793,招商局物业管理有限公司大连分公司,2.6,辽宁,1,二手房,2010
开发区杏树里10栋-14,大连,大连经济技术开发区城市建设开发有限公司,开发区,20190708,39.08113818354046,121.78505742127606,颐馨园,12,9203,大连经济技术开发区杏林物业管理有限公司,0.8,辽宁,1,二手房,2005
中山区共建巷61号,大连,无开发商,中山,20190708,38.91828093658718,121.66259221532148,39中明泽街,14,23962,无物业管理服务,-,辽宁,1,二手房,1990
无门店信息,大连,暂无信息,金州,20190708,34.52713835999158,118.76812980670795,九苑小区,67,6368,无物业管理服务,0.5,辽宁,1,二手房,2008
无门店信息,大连,大连树源世嘉房地产开发有限公司,金州,20190708,34.52713835999158,118.76812980670795,龙山小区,32,6503,民盛集团物业管理有限公司,0.5,辽宁,1,二手房,1998
大连市甘井子区燕南园50号,大连,大连鑫园房屋开发有限公司,高新园区,20190708,38.90172480153224,121.5363466289672,新新园一期,22,15013,大连理工物业管理中心,0.3,辽宁,1,二手房,2000
无门店信息,大连,暂无信息,金州,20190708,34.52713835999158,118.76812980670795,金馨园一区,2,6821,暂无信息,-,辽宁,1,二手房,-
甘井子区红凌路109号,大连,无开发商,甘井子,20190708,38.923388478439314,121.54860212120927,红凌小区,5,9527,无物业管理服务,-,辽宁,1,二手房,1995
金州新区八一路金都嘉园1号楼1号公建,大连,无开发商,金州,20190708,39.05525210261778,121.74865634199398,老街坊小区,17,8792,街道办事处（居委会）代管物业,0.5,辽宁,1,二手房,1997
开发区松苑街23号,大连,大连西太平洋家属楼,开发区,20190708,22.52087435807652,113.40156105086167,松平里,18,13550,街道办事处（居委会）代管物业,0.5,辽宁,1,二手房,1995
无门店信息,大连,大连泰达新城建设发展有限公司,甘井子,20190708,34.52713835999158,118.76812980670795,泰达青筑,32,11561,大连三和住邦物业管理有限公司,2.2,辽宁,1,二手房,2012
中山区东港龙湖水晶郦湾7-102,大连,大连一方东港置地有限公司,中山,20190708,38.924700620463895,121.70344398518496,中庚当代艺术,21,24936,大连中庚物业管理有限公司,4.5,辽宁,1,二手房,2015
金州区凤翔路220号,大连,大连德泰控股有限公司,金州,20190708,39.08410553937731,121.77700083356399,德泰岭秀逸城,62,11002,大连德泰物业管理有限公司,1.9,辽宁,1,二手房,2007
金州新区先进街道渤海街7-4号1-2层、7-3号1-2层,大连,大连金连房地产开发有限公司,金州,20190708,39.09342713035472,121.74590886291374,金纺馨公寓,17,7045,金州区物业管理有限公司,-,辽宁,1,二手房,2005
沙河口区中山路417A-4号,大连,无开发商,沙河口,20190708,38.90740323140171,121.59484801084653,星海造船楼,15,12823,无物业管理服务,-,辽宁,1,二手房,1996
西岗区新田巷27号1-2,大连,无开发商,西岗,20190708,38.893215932589385,121.64103065169111,新丽街,13,9644,无物业管理服务,-,辽宁,1,二手房,1992
沙河口区五四路207-1-9号,大连,大连建兴房屋开发有限公司,沙河口,20190708,38.913544290955585,121.59450670056631,建兴花园小区,9,13015,大连建兴物业管理有限公司,0.4,辽宁,1,二手房,1997
中山区解放路471-22号,大连,大连圣北开发有限公司,中山,20190708,38.901309943567504,121.65419095766659,亿达云集公寓,56,30329,亿达物业管理有限公司,2.9,辽宁,1,二手房,2015
中山区鲁迅路184号1层B—A,大连,大连绿地新城置业有限公司,中山,20190708,38.92590875965419,121.67594393403164,大连绿地中心,19,18855,上海科瑞物业管理发展有限公司大连第二分公司,4.2,辽宁,1,二手房,2015
中山区益民街16号1层1号,大连,大连上方房地产开发有限公司,中山,20190708,38.93092761298906,121.66470740073377,上方港景,35,17899,北京世邦魏理仕物业管理服务有限公司大连分公司,3.5,辽宁,1,二手房,2011
甘井子区华东路33-5号,大连,大连宜和房地产开发有限公司,甘井子,20190708,38.97497080220593,121.59479866243332,松江路,3,10998,大连新华物业管理有限公司,-,辽宁,1,二手房,1993
西岗区黄河路90号公建部分,大连,大连民兴房地产开发有限公司,西岗,20190708,38.92234529815978,121.62829331825485,前城国际一期,24,24211,大连前城花园物业管理有限公司,1,辽宁,1,二手房,2003
开发区黄海西路201号107公建,大连,大连开建房地产开发有限公司,开发区,20190708,39.04942604506828,121.80126318235419,芙蓉花园(开发区),45,7029,嘉兴物业管理有限公司,0.4,辽宁,1,二手房,2001
西岗区绕山路31号公建一层东侧,大连,远洋地产有限公司,沙河口,20190708,38.90257514466717,121.61412736644739,莲花小区,31,11609,无物业管理服务,-,辽宁,1,二手房,1996
大连市甘井子区逸林南园1-1号,大连,暂无信息,甘井子,20190708,38.95800216293212,121.53151895549547,三鼎春天A区,23,24654,瑞联德（大连）物业管理有限公司,3.2,辽宁,1,二手房,2015
中山区华乐街93—1号,大连,大连鸿雁房地产开发公司,中山,20190708,38.921950924512124,121.68673151242629,海之恋花园,29,17403,大连鸿雁物业有限公司,0.8,辽宁,1,二手房,2001
经济技术开发区红星海-A区81-2号1层,大连,远洋地产有限公司,开发区,20190708,39.027851194371685,121.80327394132297,红星海二期领墅,37,26505,大连远洋基业物业管理有限公司,0.5,辽宁,1,二手房,2009
无门店信息,大连,大连普照房地产开发有限公司,中山,20190708,34.52713835999158,118.76812980670795,普照假日广场,25,14746,第一太平戴维斯物业顾问（北京）有限公司大连分公司,3.7,辽宁,1,二手房,2000
无门店信息,大连,大连三寰房地产开发有限公司,中山,20190708,34.52713835999158,118.76812980670795,碧涛北园,21,11790,大连虎滩置业物业管理有限公司,0.2,辽宁,1,二手房,1997
无门店信息,大连,暂无信息,西岗,20190708,34.52713835999158,118.76812980670795,34中茂田巷,8,29639,无物业管理服务,-,辽宁,1,二手房,1984
沙河口区联合路133号,大连,大连新型房地产开发有限公司,沙河口,20190708,38.91608561262676,121.60480987310456,五四小区,9,14678,大连新晨物业管理有限公司,0.5,辽宁,1,二手房,1996
高新园区书香街1A#1-1-2,大连,大连金弘基房地产开发有限公司,高新园区,20190708,38.880372108393104,121.55218773010999,弘基一期,27,20501,大连金弘基物业管理有限公司,0.6,辽宁,1,二手房,2000
无门店信息,大连,大连永高房屋开发有限公司,西岗,20190708,34.52713835999158,118.76812980670795,北海胜利公社(宁海街),12,12847,大连永高物业管理有限公司,0.8,辽宁,1,二手房,2005
沙河口区五四路207-1-9号,大连,大连华邦房地产开发有限公司,沙河口,20190708,38.913544290955585,121.59450670056631,华邦上都,20,18984,大连华邦物业有限公司,1.7,辽宁,1,二手房,2004
沙河口区长江路738号,大连,无开发商,西岗,20190708,38.913544290955585,121.59450670056631,21中五一广场,29,20609,无物业管理服务,-,辽宁,1,二手房,1976
经济技术开发区红星海-A区81-2号1层,大连,无开发商,开发区,20190708,39.027851194371685,121.80327394132297,西雅图,44,10532,大连维泰物业管理有限公司,0.8,辽宁,1,二手房,2002
沙河口区五四路207-1-9号,大连,无开发商,沙河口,20190708,38.913544290955585,121.59450670056631,连胜街,6,12819,无物业管理服务,-,辽宁,1,二手房,1992
开发区金马路169-2-6号房屋,大连,大连亿锋集团有限公司,开发区,20190708,39.057398235688176,121.78261137849105,铜锣湾,41,10737,亿锋豪景物业管理有限公司,1.2,辽宁,1,二手房,2004
开发区金源南里14栋-11号一层部分，14号-12号一层部分,大连,大连开建房地产开发有限公司,开发区,20190708,39.06148862675436,121.82503941311765,金北花园小区,31,8299,嘉兴物业管理有限公司,0.3,辽宁,1,二手房,1997
大连市金州新区中长街道碧海尚城5-4号1-2层,大连,无开发商,金州,20190708,39.100290954587514,121.7304796052032,体育场小区,70,7422,街道办事处（居委会）代管物业,2,辽宁,1,二手房,1995
经济技术开发区城润万家4-5号公建,大连,志广房地产有限公司,开发区,20190708,39.05716325096989,121.75946281983826,恒安花园,20,9415,大连志广物业管理有限责任公司,0.9,辽宁,1,二手房,2002
无门店信息,大连,暂无信息,中山,20190708,34.52713835999158,118.76812980670795,明秀庄园一期,14,43387,大连澳邦致和物业服务有限公司,3.2,辽宁,1,二手房,2012
无门店信息,大连,大连奥泰房地产开发有限公司,金州,20190708,34.52713835999158,118.76812980670795,亿达蓝筹海,26,8101,大连奥泰物业服务有限公司,1.6,辽宁,1,二手房,2008
中山区中青街43号,大连,大连亿达房地产股份有限公司,中山,20190708,38.90150598268117,121.65711014604845,青云映山,20,26674,亿达物业管理有限公司,1.3,辽宁,1,二手房,2005
西岗区八一路196号1-3,大连,无开发商,西岗,20190708,38.92047268927287,121.61862512554262,靠山巷,12,10280,无物业管理服务,-,辽宁,1,二手房,1990
大连经济技术开发区同和里7栋-9号,大连,无开发商,开发区,20190708,39.04901984220615,121.7885236929847,新星里,46,8240,大连广谊物业管理有限公司,0.3,辽宁,1,二手房,1998
中山区民建街10号1单元1号,大连,无开发商,中山,20190708,38.925444479476894,121.66915026954452,39中学士街,38,19565,无物业管理服务,-,辽宁,1,二手房,1995
无门店信息,大连,无开发商,金州,20190708,34.52713835999158,118.76812980670795,香山翌景,21,7353,街道办事处（居委会）代管物业,0.5,辽宁,1,二手房,2000
西岗区新田巷27号1-2,大连,无开发商,西岗,20190708,38.893215932589385,121.64103065169111,新环巷,4,11212,无物业管理服务,-,辽宁,1,二手房,1990
大连市甘井子区逸林南园1-1号,大连,暂无信息,甘井子,20190708,38.95800216293212,121.53151895549547,三鼎春天B区,44,28280,瑞联德（大连）物业管理有限公司,3.2,辽宁,1,二手房,2015
甘井子区华东路33-5号,大连,暂无信息,甘井子,20190708,38.97497080220593,121.59479866243332,小野田,9,12904,大连新华物业管理有限公司,-,辽宁,1,二手房,1992
金州新区站前街道生辉第一城5号楼1-2层4号,大连,大连博洋房地产开发有限公司,金州,20190708,39.05819721414208,121.74650438736514,金洋小区,25,6651,街道办事处（居委会）代管物业,0.1,辽宁,1,二手房,2000
开发区东北三街94号1层,大连,开发区城建局,开发区,20190708,39.05723508011585,121.80570768630555,倚园里小区,60,7606,大连佳兴物业管理有限公司,0.3,辽宁,1,二手房,1998
西岗区新田巷27号1-2,大连,无开发商,西岗,20190708,38.893215932589385,121.64103065169111,新秀街（新起屯商圈）,11,10785,无物业管理服务,-,辽宁,1,二手房,1992
中山区职工街96号1-3层公建,大连,大连名仕房地产开发有限公司,中山,20190708,38.92565613737007,121.66193575790903,名仕国际公寓,26,10952,大连名流物业有限公司,3.8,辽宁,1,二手房,2002
沙河口区黑石礁街5号1层1号,大连,大连鹏生房地产开发有限公司,沙河口,20190708,38.879813345473714,121.56313742300513,鹏莱花园,13,15027,大连新兴物业管理有限公司,0.3,辽宁,1,二手房,1998
金州新区先进街道五一路350-1号1-2层,大连,辽宁宝林集团大连房地产开发公司,金州,20190708,39.078667146419825,121.77094423323935,宝林凤凰城,22,9154,宝林集团物业管理有限公司,0.5,辽宁,1,二手房,2012
金州区光明街道育才街42-6号1-2层,大连,无开发商,金州,20190708,39.109080894078986,121.7182584929096,味食小区,29,8161,大连大众物业管理有限公司,0.5,辽宁,1,二手房,1988
高新园区敬贤街25-9,大连,大连海逸房地产开发有限公司,高新园区,20190708,38.86879447142154,121.53007349209936,海逸诺丁山,29,20032,大连耕海物业服务有限公司,2.5,辽宁,1,二手房,2014
沙河口区新生路万客园3-7,大连,暂无信息,沙河口,20190708,38.94412875710208,121.57006756704837,中海天赋山二期,24,19797,大连中海物业管理有限公司,2.8,辽宁,1,二手房,2013
甘井子区甘井子路32号楼1单元1楼9号,大连,暂无信息,甘井子,20190708,38.982488275116516,121.63345389253514,锦联樱花园,16,13494,街道办事处（居委会）代管物业,0.5,辽宁,1,二手房,2010
西岗区八一路102号,大连,无开发商,西岗,20190708,38.92047268927287,121.61862512554262,智勇东巷,16,9176,无物业管理服务,-,辽宁,1,二手房,1990
无门店信息,大连,暂无信息,西岗,20190708,34.52713835999158,118.76812980670795,民航大连疗养院,1,15124,无物业管理服务,-,辽宁,1,二手房,1990
沙河口区五一路219-1,大连,大连圣北房地产有限公司,沙河口,20190708,38.913544290955585,121.59450670056631,电业花园,13,14375,大连市沙河口房产物业管理有限公司,0.3,辽宁,1,二手房,1999
开发区金源南里14栋-11号一层部分，14号-12号一层部分,大连,商金源地产,开发区,20190708,39.06148862675436,121.82503941311765,金苑新居,20,8643,嘉兴物业管理有限公司,0.3,辽宁,1,二手房,2004
沙河口区五一路109-4号,大连,大连正源房地产开发有限公司,沙河口,20190708,38.913544290955585,121.59450670056631,幸福e家一期,23,31618,大连正源物业服务有限公司,0.8,辽宁,1,二手房,2001
金州区同济路44号,大连,大连金世纪房地产经纪有限公司,金州,20190708,39.10476859984152,121.71234684495865,教师公寓,11,8647,大连恒天物业管理公司,-,辽宁,1,二手房,2007
开发区东北三街94号1层,大连,无开发商,开发区,20190708,39.05723508011585,121.80570768630555,倚山花园,12,9400,街道办事处（居委会）代管物业,1.1,辽宁,1,二手房,2000
甘井子区惠泽南园3-7号,大连,大连利丰房地产开发有限公司,甘井子,20190708,38.939326611323615,121.52337842113351,国安宜居,10,18910,大连易明物业服务有限公司,2,辽宁,1,二手房,2014
甘井子区华龙南园12-4-3-1-3,大连,大连瑞祥房地产开发有限公司,甘井子,20190708,38.98528794231248,121.61028969481718,今都小区,48,12428,大连泰安物业管理有限公司,0.2,辽宁,1,二手房,1996
无门店信息,大连,大连康阳房屋开发有限公司,甘井子,20190708,34.52713835999158,118.76812980670795,南岭新城三期,29,14318,大连鸿诚物业管理有限公司,0.4,辽宁,1,二手房,2004
中山区岭前街53-5,大连,大连铭泰房地产开发有限公司,中山,20190708,38.89487069426055,121.65795959631497,锦府桃源,23,24165,大连意美物业服务有限公司,1.2,辽宁,1,二手房,2008
甘井子区千山路66号楼2单元1楼2号,大连,暂无信息,甘井子,20190708,38.985716774397915,121.58287796391829,蓝天小区,9,12970,大连新华物业管理有限公司,-,辽宁,1,二手房,1993
大连市甘井子区钻石湾和信园13-5,大连,远洋地产有限公司,甘井子,20190708,38.958699272665584,121.61903564217761,远洋钻石湾一期,85,24456,大连远洋基业物业管理有限公司,2.7,辽宁,1,二手房,2010
中山区南山路59号1层4号,大连,无开发商,中山,20190708,38.91992239075882,121.6479206962747,中原街（昆明街）,10,15843,无物业管理服务,-,辽宁,1,二手房,1989
西岗区康平街2号（5号楼3-1-3号）,大连,暂无信息,西岗,20190708,38.91044414697888,121.61980769264477,34中长春路,9,27553,无物业管理服务,-,辽宁,1,二手房,1990
无门店信息,大连,大连鹏辉房地产开发有限公司,甘井子,20190708,34.52713835999158,118.76812980670795,鹏辉新天居三期,55,14471,大连鹏辉物业管理有限公司,0.8,辽宁,1,二手房,2008
西岗区八一路102号,大连,无开发商,西岗,20190708,38.92047268927287,121.61862512554262,河沿巷,13,11662,无物业管理服务,-,辽宁,1,二手房,1990
西岗区八一路102号,大连,无开发商,西岗,20190708,38.92047268927287,121.61862512554262,杏红巷,8,10531,无物业管理服务,-,辽宁,1,二手房,1993
中山区武昌街武昌公寓6号公建,大连,大连宏济开发经济有限公司,中山,20190708,38.912280913445784,121.64921130527547,新兴巷,16,10134,无物业管理服务,-,辽宁,1,二手房,1980
无门店信息,大连,大连恒昇房地产开发有限公司,甘井子,20190708,34.52713835999158,118.76812980670795,福佳新城,34,11557,大连富嘉物业管理有限公司,1.6,辽宁,1,二手房,2011
甘井子区亿家缘虹韵路205,大连,暂无信息,甘井子,20190708,38.95647848453699,121.53130152244339,第五郡一号地公寓,36,16327,亿达物业管理有限公司,2,辽宁,1,二手房,2012
中山区鲁迅路204号百盛新药特药商店一楼西侧部分,大连,无开发商,中山,20190708,38.9258993614899,121.6768880001226,春港街,4,12285,无物业管理服务,-,辽宁,1,二手房,1988
沙河口区富国街34-3,大连,大连万达房地产开发有限公司,沙河口,20190708,38.90159716600704,121.58930603357904,星海自由港,18,20821,大连万景物业管理有限公司,1.2,辽宁,1,二手房,2002
甘井子区凌秀路37号-1链家地产,大连,无开发商,高新园区,20190708,38.883794285403965,121.52361997548515,海事附小,11,13495,街道办事处（居委会）代管物业,0.5,辽宁,1,二手房,1990
西岗区康平街2号（5号楼3-1-3号）,大连,大连新型房地产开发有限公司,西岗,20190708,38.91044414697888,121.61980769264477,新华公寓,8,15776,大连新型物业管理有限公司,0.5,辽宁,1,二手房,1997
沙河口区连山街10号2-1-2,大连,大连三业房屋开发有限公司,沙河口,20190708,38.89637522563413,121.57143690983219,龙山花园,4,13612,无物业管理服务,-,辽宁,1,二手房,1999
大连市甘井子区丰收路3-5号,大连,大连邦德房屋开发有限公司,甘井子,20190708,38.965377255081755,121.58288415324094,芙蓉人家,49,19687,大连广丰物业管理有限公司,0.9,辽宁,1,二手房,2006
金州区南棉路310号,大连,无开发商,金州,20190708,39.09939229372624,121.72414976100345,金色华庭,26,7007,大连阿尔滨集团物业管理有限公司,-,辽宁,1,二手房,2005
无门店信息,大连,大连铁龙房地产开发有限公司,甘井子,20190708,34.52713835999158,118.76812980670795,连海金源,26,13991,大连铁龙安居物业管理有限公司,1.3,辽宁,1,二手房,2010
沙河口区中山路417A-4号,大连,无开发商,沙河口,20190708,38.90740323140171,121.59484801084653,太原街,6,12229,无物业管理服务,-,辽宁,1,二手房,1959
中山区鲁迅路184号1层B—A,大连,无开发商,中山,20190708,38.92590875965419,121.67594393403164,荣民街（二七商圈）,7,12543,无物业管理服务,-,辽宁,1,二手房,1996
甘井子区汇仁街19号12号楼1单元102室,大连,大连华南房地产开发有限公司,甘井子,20190708,38.99746297497168,121.58917714380617,名贵山庄华秋园,10,13551,大连弘益达物业管理有限公司,0.5,辽宁,1,二手房,2000
沙河口区昌黎街77号楼第1层公建,大连,大连金新房地产开发有限公司,沙河口,20190708,38.91974518366595,121.5902918379551,福佳新天地,77,14434,大连福佳物业管理有限公司,1.8,辽宁,1,二手房,2003
高新园敬贤街23-11号,大连,中海东丰地产（大连）有限公司,高新园区,20190708,38.869456648212356,121.53023725049893,中海紫御观邸三期,35,20646,大连中海物业管理有限公司,2.6,辽宁,1,二手房,2013
西岗区康平街2号（5号楼3-1-3号）,大连,大连北洋房屋开发公司,西岗,20190708,38.91044414697888,121.61980769264477,胜利花园,25,15314,大连宏成物业管理有限公司,0.5,辽宁,1,二手房,1997
无门店信息,大连,大连金州金德房地产开发有限公司,金州,20190708,34.52713835999158,118.76812980670795,新辉小区,68,7299,大连市金州金德物业管理有限公司,0.5,辽宁,1,二手房,2005
开发区黄海西路201号107公建,大连,无开发商,开发区,20190708,39.04942604506828,121.80126318235419,岗盛里小区,111,6976,街道办事处（居委会）代管物业,0.5,辽宁,1,二手房,1994
沙河口区锦江园30号1层公建,大连,大连市经济适用房建设发展中心,沙河口,20190708,38.949985113183935,121.56560955976859,锦绣园,29,13877,大连锦绣物业管理有限公司,0.5,辽宁,1,二手房,2000
红星海A区126-4,大连,大连光伸房地产开发有限公司,开发区,20190708,39.027851194371685,121.80327394132297,绿洲半岛三期,41,10134,大连经济技术开发区光伸物业服务有限公司,0.6,辽宁,1,二手房,2001
中山区华乐街71号公建,大连,大连新型房地产开发有限公司,中山,20190708,38.923187679200566,121.6843197903016,春海街,6,11225,无物业管理服务,-,辽宁,1,二手房,1992
无门店信息,大连,暂无信息,西岗,20190708,34.52713835999158,118.76812980670795,华良海景花园,7,22899,香港侨乐物业管理（中国）有限公司,1.5,辽宁,1,二手房,2004
沙河口区杨树街4—2号,大连,无开发商,高新园区,20190708,38.8832931099998,121.55440002481825,龙江路（学府商圈）,6,13995,无物业管理服务,-,辽宁,1,二手房,1992
沙河口区连山街44-2号半地下一层（地上一层部分）,大连,大连宏都房地产开发有限公司,沙河口,20190708,38.892991456958086,121.57299542767161,宏都筑景Ⅰ期,42,23229,大连东方百瑞物业管理有限公司,1.4,辽宁,1,二手房,2008
中山区共建巷61号,大连,无开发商,中山,20190708,38.91828093658718,121.66259221532148,39中七七街,11,24773,街道办事处（居委会）代管物业,0.5,辽宁,1,二手房,1995
中山区鲁迅路184号1层B—A,大连,无开发商,中山,20190708,38.92590875965419,121.67594393403164,海滨住宅小区（寺儿沟商圈）,8,11506,无物业管理服务,-,辽宁,1,二手房,1989
无门店信息,大连,大连光伸房地产开发有限公司,开发区,20190708,34.52713835999158,118.76812980670795,光伸卧龙港湾,20,9205,大连经济技术开发区光伸物业服务有限公司,1.5,辽宁,1,二手房,2010
沙河口区五一路109-4号,大连,大连正源房地产开发有限公司,沙河口,20190708,38.913544290955585,121.59450670056631,幸福e家二期,21,29551,大连正源物业服务有限公司,0.7,辽宁,1,二手房,2003
开发区黄海西路201号107公建,大连,无开发商,开发区,20190708,39.04942604506828,121.80126318235419,新云里,24,8404,街道办事处（居委会）代管物业,0.5,辽宁,1,二手房,1996
经济技术开发区城润万家4-5号公建,大连,恒安房地产,开发区,20190708,39.05716325096989,121.75946281983826,中环嘉园,6,9719,大连大连开发区杰佳物业管理有限公司,0.5,辽宁,1,二手房,2000
中山区民建街10号1单元1号,大连,大连安达房地产开发有限公司,中山,20190708,38.925444479476894,121.66915026954452,39中安达大厦,33,14848,大连凯尔物业管理有限责任公司,0.5,辽宁,1,二手房,2008
沙河口区民权街324号,大连,暂无信息,沙河口,20190708,38.92064616208148,121.59777611850379,79中民权小区,16,17059,大连福港物业管理有限公司,0.2,辽宁,1,二手房,1996
西岗区平等街21号1层2号,大连,无开发商,西岗,20190708,38.92251066253164,121.63236845125735,新成巷（大菜市商圈）,10,12264,街道办事处（居委会）代管物业,0.5,辽宁,1,二手房,1997
