address,city,developer,district,index_date,lat,lng,name,osv,price,property,property_fee,province,tv,type,year
沙河口区华新苑10号楼4号公建,大连,大连新型房地产开发有限公司,沙河口,20181104,38.921778341674376,121.58261780680284,侯一小区,121,10805,大连新兴物业管理有限公司,0.3,辽宁,35,二手房,1989
沙河口区沙能街101号1单元1层1号,大连,大连新型房地产开发有限公司,沙河口,20181104,38.9366316275348,121.59031205759763,侯二小区,146,10943,街道办事处（居委会）代管物业,0.1,辽宁,25,二手房,1985
大连经济技术开发区东城天下98-14,大连,大连乾豪集团有限公司,开发区,20181104,39.069195091289004,121.8502099927954,东城天下,282,8053,大连远洋基业物业管理有限公司,0.9,辽宁,31,二手房,2005
大连市金州区站前街道生辉第一城14-3号1-2层,大连,大连新希望家园房地产有限公司,金州,20181104,39.0569681786798,121.74773530665969,新希望家园,129,7881,大连新希望物业服务有限公司,1.2,辽宁,21,二手房,2009
甘井子区玉湖街25号2单元1层3号,大连,大连新型房地产开发有限公司,甘井子,20181104,38.97626265183615,121.54617349027997,泡崖四区,136,10295,大连新型物业管理有限公司,0.5,辽宁,22,二手房,2002
甘井子区榆林街37号-12公建,大连,大连新型房地产开发有限公司,甘井子,20181104,38.980133141940186,121.52779506952932,泡崖美林园,222,11374,大连新型物业管理有限公司,0.3,辽宁,25,二手房,2003
中山区中南路店212号门头房,大连,无开发商,中山,20181104,38.91149759691359,121.67700561077149,中南路,57,12304,街道办事处（居委会）代管物业,0.5,辽宁,15,二手房,1990
开发区湾里南12栋-16-17-18号,大连,大连金湾实业有限公司,开发区,20181104,39.070782084451,121.8506739675913,湾里南小区,247,8267,大连金湾物业管理有限公司,0.5,辽宁,35,二手房,2003
无门店信息,大连,大连益宁房地产开发有限公司,开发区,20181104,34.52713835999158,118.76812980670795,岭湾峰尚一期,113,7621,大连鸿达物业管理有限公司,1.3,辽宁,15,二手房,2011
甘井子区汇仁街22号,大连,远洋地产有限公司,甘井子,20181104,38.99712640764999,121.58834420439493,远洋广场,140,16919,大连远洋基业物业管理有限公司,1.4,辽宁,16,二手房,2010
大连经济技术开发区时代城4-3号1-2号,大连,远洋地产有限公司,开发区,20181104,39.0992481321252,121.83007860699459,远洋时代城一期,123,7817,大连远洋基业物业管理有限公司,1.5,辽宁,17,二手房,2012
西岗区香炉礁24号1-1,大连,无开发商,西岗,20181104,38.91336952993919,121.6258229781024,香炉礁,120,10726,街道办事处（居委会）代管物业,0.1,辽宁,21,二手房,1979
甘井子区宜居园10-1号房屋,大连,大连万科房地产开发有限公司,甘井子,20181104,39.000039431463165,121.52111738616489,万科魅力之城,166,14277,大连万科物业服务有限公司,1.5,辽宁,16,二手房,2012
开发区正恒园1-16,大连,大连华宇房地产开发有限公司,开发区,20181104,39.04823944344617,121.76165468797754,左岸经典,181,9227,大连豪之英物业管理有限公司,1.8,辽宁,19,二手房,2009
甘井子区玉丽街2号楼1单元4号公建,大连,大连新型房地产开发总公司,甘井子,20181104,38.98705071699301,121.55513043130172,泡崖康顺园,122,10556,大连新兴物业管理有限公司,0.5,辽宁,14,二手房,2007
金州新区站前街道生辉第一城5号楼1-2层4号,大连,大连公路工程集团生辉房地产开发有限公司,金州,20181104,39.05839688242313,121.74629383174005,生辉第一城,92,12334,大连生辉物业管理有限公司,1.2,辽宁,13,二手房,2007
沙河口区富民路120号4-1-1,大连,大连渤海红旗集团有限公司,沙河口,20181104,38.930937859528605,121.5647274237578,马栏小学南,59,10128,大连辽南物业管理有限公司,0.5,辽宁,12,二手房,1995
金州区金润花园B区47号1单元1层1号2号,大连,大连辽大房地产开发有限公司,金州,20181104,39.104347761505736,121.7451779647203,金润小区B区,119,8454,大连新兴物业管理有限公司,0.5,辽宁,12,二手房,2005
金州区金润小区B区861单元102,大连,大连辽大房地产开发有限公司,金州,20181104,39.10615165380565,121.74639264534615,金润小区A区,123,8141,大连新兴物业管理有限公司,0.5,辽宁,12,二手房,2005
开发区湾里南12栋-16-17-18号,大连,大连金湾实业有限公司,开发区,20181104,39.070782084451,121.8506739675913,湾里东,164,8222,大连金湾物业管理有限公司,0.5,辽宁,12,二手房,2004
甘井子区华北路花锦园28号23-3-1-2建筑物,大连,大连东特房地产开发有限公司,甘井子,20181104,38.951627958411166,121.5739439799003,东特新天地,29,16518,大连瑞祥物业管理有限公司,0.5,辽宁,13,二手房,2003
沙河口区富民路120号4-1-1,大连,大连渤海红旗集团有限公司,沙河口,20181104,38.930937859528605,121.5647274237578,马栏小学北,70,10208,街道办事处（居委会）代管物业,0.2,辽宁,13,二手房,1989
甘井子区玉丽街2号楼1单元4号公建,大连,大连新型房地产开发有限公司,甘井子,20181104,38.98705071699301,121.55513043130172,泡崖七区,96,10159,大连新兴物业管理有限公司,0.3,辽宁,13,二手房,1999
沙河口区西南路40号楼,大连,无开发商,沙河口,20181104,38.94141605900714,121.58612100465703,星海公园,44,11202,无物业管理服务,0.5,辽宁,13,二手房,1990
金州区鹏程家园53#-8,大连,大连光伸房地产开发有限公司,开发区,20181104,39.0348243693741,121.81226722991913,绿洲半岛北岸,110,8960,大连经济技术开发区光伸物业服务有限公司,1.2,辽宁,12,二手房,2007
甘井子区红旗花园23号楼19-24轴公建,大连,大连红旗兴达房地产开发有限公司,甘井子,20181104,38.93108029984587,121.54902145022133,兴达花园,75,11960,大连万泰物业管理有限公司,0.3,辽宁,14,二手房,2000
无门店信息,大连,大连金湾实业有限公司,开发区,20181104,34.52713835999158,118.76812980670795,金湾山城,93,8482,大连金湾物业管理有限公司,0.1,辽宁,14,二手房,2009
大连市甘井子区柳林园8-7号,大连,大连万科置业有限公司,甘井子,20181104,38.91290525308349,121.47673750074993,万科溪之谷,125,13344,大连万科物业服务有限公司,1.2,辽宁,14,二手房,2007
大连开发区金马路169-2-8号,大连,大连亿锋房地产实业有限公司,开发区,20181104,39.055616222703364,121.78435683280883,亿锋现代城,130,9678,亿锋豪景物业管理有限公司,1.1,辽宁,14,二手房,2006
甘井子区红旗西路104-23,大连,大连万科房地产开发有限公司,甘井子,20181104,38.94011738361669,121.52831049836651,万科假日风景,64,16320,大连万科物业服务有限公司,1,辽宁,14,二手房,2007
开发区黄海西路54号,大连,大连凯伦房地产开发股份有限公司,开发区,20181104,39.047714586087785,121.76688238228269,凯伦凯悦,80,8351,大连凯悦物业管理有限公司,3.1,辽宁,12,二手房,2008
沙河口区西南路161号,大连,无开发商,沙河口,20181104,38.89269676588945,121.56639953951542,孙家沟,72,12503,无物业管理服务,-,辽宁,11,二手房,1990
开发区小孤山西里3栋-11号,大连,大连开建房地产开发有限公司,开发区,20181104,39.02715282297674,121.80682183666346,瑞仕尚城,46,10899,大连阿尔滨汇城物业服务有限公司,1.1,辽宁,11,二手房,2008
大连市开发区左岸经典正恒园1-17,大连,大连神洲众益集团有限公司,开发区,20181104,39.049057070649155,121.76187404250511,万国宫馆二期,85,13922,加拿大高力国际物业服务有限公司,2.4,辽宁,11,二手房,2009
甘井子区静林街34号4单元1层2,大连,大连祥盛房屋开发有限公司,甘井子,20181104,38.98321485010885,121.58185179833856,千山心城,106,15059,大连百特物业管理有限公司,0.5,辽宁,8,二手房,2003
金州区南棉路310号,大连,无开发商,金州,20181104,39.09939229372624,121.72414976100345,南棉小区,87,7282,街道办事处（居委会）代管物业,0.5,辽宁,9,二手房,1990
大连市开发区湾里东5-6号,大连,大连宏港房地产开发有限公司,开发区,20181104,39.07275772231556,121.85888789351343,都悦里,159,6863,大连宏港物业管理有限公司,0.3,辽宁,9,二手房,1998
金州新区先进街道渤海街7-4号1-2层、7-3号1-2层,大连,原金州纺织厂房地产公司,金州,20181104,39.09342713035472,121.74590886291374,金纺小区,103,7326,街道办事处（居委会）代管物业,0.5,辽宁,9,二手房,1985
高新园区火炬路18号,大连,大连海脉房地产开发有限公司,高新园区,20181104,38.937738080520404,117.39340752036043,MINI印象,108,15669,大连豪斯威物业管理有限公司,2.2,辽宁,9,二手房,2012
甘井子区千山路26号,大连,大连市大钢集团,甘井子,20181104,38.985697948031984,121.58768860037272,山东路,65,11237,街道办事处（居委会）代管物业,0.2,辽宁,9,二手房,1986
开发区黄海西路54号,大连,中国铁路十三局,开发区,20181104,39.047714586087785,121.76688238228269,翠竹小区,105,7953,大连经济技术开发区中强物业管理有限公司,0.3,辽宁,9,二手房,1996
沙河口区西南路643号,大连,无开发商,沙河口,20181104,38.943483429804665,121.5833555851182,交通大学,57,11433,无物业管理服务,-,辽宁,10,二手房,1955
沙河口区前程街46号4—1—2号,大连,大连台安房屋开发有限公司开发,甘井子,20181104,38.921778341674376,121.58261780680284,彩虹园,31,10348,渤海吉祥物业管理有限公司,0.4,辽宁,9,二手房,2000
开发区安盛里5栋-4,大连,大连开建集团有限公司,开发区,20181104,23.112106678834838,113.27801046214822,开建阳光馨苑,69,9192,大连开利物业管理有限公司,1.2,辽宁,10,二手房,2009
开发区润海园中区62-9,大连,大连金广嘉亿置地有限公司,开发区,20181104,39.04047273176333,121.76392358042445,大连海湾城一期、二期,120,11793,大连金广物业服务有限公司,2.6,辽宁,9,二手房,2012
沙河口区昌黎街22号,大连,大连城市建设集团有限公司,沙河口,20181104,38.91975785098891,121.59109628369768,北昌平小区,104,10652,无物业管理服务,-,辽宁,10,二手房,1983
无门店信息,大连,大连乾豪集团有限公司,开发区,20181104,34.52713835999158,118.76812980670795,格林小镇,142,7277,沈阳瑞码阁物业管理有限公司大连分公司,0.5,辽宁,10,二手房,2002
沙河口区华北路448号楼1-4公建,大连,无开发商,沙河口,20181104,38.903224944733765,121.56809734950556,刘家桥,58,10444,街道办事处（居委会）代管物业,0.1,辽宁,10,二手房,1981
沙河口区锦江园30号1层公建,大连,大连锦绣房地产开发有限公司,沙河口,20181104,38.921778341674376,121.58261780680284,锦江园,70,9565,大连锦绣物业管理有限公司,0.3,辽宁,10,二手房,1983
中山区职工街96号1-3层公建,大连,大连嘉和房地产集团有限公司,中山,20181104,38.92565613737007,121.66193575790903,嘉和广场,60,22273,大连华安物业管理有限公司,3.8,辽宁,10,二手房,2014
开发区鹏程家园66#-6、66#-7公建,大连,大连海富花园开发有限公司,开发区,20181104,38.90045524508753,121.63339362744885,海富经典,110,10108,大连银帆物业管理有限公司,1.2,辽宁,10,二手房,2009
沙河口区富民路249号,大连,大连文路建设集团有限公司,沙河口,20181104,38.93341510428133,121.5770130002514,阳光月秀,45,14331,大连丰泽物业管理有限公司,0.6,辽宁,10,二手房,2006
沙河口区新生路万科园7—1号,大连,大连绿波房屋开发集团有限公司,沙河口,20181104,38.94440370819716,121.57117928210005,绿波小区,125,10584,大连绿波建设发展有限公司,0.2,辽宁,10,二手房,1998
大连市金州新区中长街道碧海尚城5-4号1-2层,大连,无开发商,金州,20181104,39.1001690968934,121.73061017121415,碧海尚城,87,7944,街道办事处（居委会）代管物业,0.8,辽宁,8,二手房,2007
沙河口区马栏北街186号,大连,大连渤海红旗集团有限公司,甘井子,20181104,38.921778341674376,121.58261780680284,马栏北街,36,10251,大连辽南物业管理有限公司,0.2,辽宁,11,二手房,1993
中山区中青街43号,大连,大连圣北开发有限公司,中山,20181104,38.90150598268117,121.65711014604845,亿达云集公寓,39,21719,亿达物业管理有限公司,2.9,辽宁,7,二手房,2016
甘井子区圣林南园3-3号,大连,大连广泰房屋开发有限公司,甘井子,20181104,38.95187275584195,121.54422808213874,美树日记,61,20491,大连华安物业管理有限公司,1.6,辽宁,7,二手房,2009
沙河口区西南路643号,大连,大连泰安房地产开发有限公司,沙河口,20181104,38.943483429804665,121.5833555851182,幸福小区(沙河口),37,10812,大连三宝物业发展有限公司,0.3,辽宁,7,二手房,1998
开发区润海园中区62-9,大连,华润（大连）房地产有限公司,开发区,20181104,39.04047273176333,121.76392358042445,华润海中国四期,117,13616,华润物业（大连）有限公司,3.1,辽宁,7,二手房,2014
金州新区润海园中区18#2号,大连,华润置地（大连）有限公司,开发区,20181104,39.04047273176333,121.76392358042445,华润海中国二期,136,13160,华润物业（大连）有限公司,2.8,辽宁,7,二手房,2011
沙河口区数码路北段18—20号,大连,大连软景房地产开发有限公司,高新园区,20181104,38.89150610253657,121.55065097641645,软景E居,67,23257,亿达物业管理有限公司,2.6,辽宁,7,二手房,2011
甘井子区山东路315号14栋1单元1跃2层13号,大连,华润置地（大连）开发有限公司,甘井子,20181104,39.00206212579579,121.59357231641214,华润置地广场一期,49,18976,华润物业（大连）有限公司,2.8,辽宁,7,二手房,2013
沙河口区前程街46号4—1—2号,大连,大连银地置业发展有限公司,沙河口,20181104,38.921778341674376,121.58261780680284,观山满庭芳,62,17058,大连新展物业管理有限公司,1,辽宁,7,二手房,2008
甘井子区芳林街17号1单元1层1号,大连,大连亿达房地产股份有限公司,甘井子,20181104,38.96091976856697,121.58863625429588,唯美品格,57,29127,亿达物业管理有限公司,1.5,辽宁,7,二手房,2009
无门店信息,大连,大连金地房地产开发有限公司,金州,20181104,34.52713835999158,118.76812980670795,金地新里程,38,7061,大连金铭物业管理有限公司,0.5,辽宁,8,二手房,2008
西岗区香炉礁24号1-1,大连,无开发商,西岗,20181104,38.91336952993919,121.6258229781024,工人村,40,9206,街道办事处（居委会）代管物业,0.5,辽宁,8,二手房,1980
无门店信息,大连,大连万德房地产集团有限公司,开发区,20181104,34.52713835999158,118.76812980670795,万德悦城,71,7602,大连万德物业管理有限公司,1.5,辽宁,8,二手房,2010
沙河口区兰田街33号,大连,无开发商,沙河口,20181104,38.926138912221084,121.56486022834609,辽师,30,12249,无物业管理服务,-,辽宁,8,二手房,1970
甘井子区新兴路36号3-1-3,大连,大连新型房地产开发有限公司,甘井子,20181104,38.95546176066109,121.5285003794903,泡崖一区,81,9824,大连新兴物业管理有限公司,0.5,辽宁,8,二手房,1992
无门店信息,大连,大连一方生态城房地产开发有限公司,开发区,20181104,34.52713835999158,118.76812980670795,一方天鹅湖,45,7004,大连一方物业管理有限公司,2,辽宁,8,二手房,2010
沙河口区南沙街36号台二2号1-1-37,大连,无开发商,沙河口,20181104,38.90741410359388,121.57685699961822,南沙,67,10030,无物业管理服务,1,辽宁,8,二手房,1995
甘井子区玉云路27-3-1-3,大连,大连新型房地产开发有限公司,甘井子,20181104,38.97896234099927,121.55865563488358,泡崖三区,54,9409,大连新兴物业管理有限公司,0.5,辽宁,8,二手房,1995
无门店信息,大连,大连乐启房地产开发有限公司,甘井子,20181104,34.52713835999158,118.76812980670795,三寰融创城,62,11248,融创物业,2.2,辽宁,8,二手房,2015
沙河口区红凌路137号,大连,大连大实企业集团房屋开发有限公司,甘井子,20181104,38.922699288974506,121.54713601744747,泊林阳光A区,11,13779,大连弘实物业管理有限公司,0.6,辽宁,8,二手房,2007
沙河口区五一路270-274号,大连,无开发商,高新园区,20181104,38.89104111985908,121.55325426578435,由家村,25,11822,无物业管理服务,-,辽宁,6,二手房,1990
经济技术开发区城润万家4-5号公建,大连,大连山河永好置业有限公司,开发区,20181104,39.05716325096989,121.75946281983826,山河秀景,31,9598,大连山河物业管理有限公司,1.5,辽宁,8,二手房,2010
西岗区平等街21号1层2号,大连,暂无信息,西岗,20181104,38.92251066253164,121.63236845125735,实验小学英华街,86,21098,无物业管理服务,-,辽宁,6,二手房,1989
开发区润海园中区65-7号1-2号,大连,华润（大连）房地产有限公司,开发区,20181104,39.04047273176333,121.76392358042445,华润海中国五期,75,14023,华润物业（大连）有限公司,3.1,辽宁,6,二手房,2015
开发区红梅小区19栋-2-1-1号,大连,香港北海集团,开发区,20181104,29.906498897603264,121.5913630631805,君悦豪庭,49,10764,街道办事处（居委会）代管物业,1.2,辽宁,6,二手房,2004
沙河口区红凌路137号,大连,大连大实企业集团房屋开发有限公司,甘井子,20181104,38.922699288974506,121.54713601744747,叠翠骏景,8,12220,大连弘实物业管理有限公司,0.4,辽宁,6,二手房,2004
甘井子区柳树南街45-11号,大连,中海新海汇（大连）置业有限公司,甘井子,20181104,38.93107538811559,121.48785133651938,中海御湖熙谷,34,14131,大连中海物业管理有限公司,2.2,辽宁,6,二手房,2014
甘井子区锦城西园4#3-1-1,大连,大连锦绣房地产开发有限公司,沙河口,20181104,38.95286223185571,121.55129044777,锦霞北园,74,10220,大连锦绣物业管理有限公司,0.3,辽宁,6,二手房,1998
高新园区火炬路18号,大连,大连奥泰房地产开发有限公司,高新园区,20181104,38.937738080520404,117.39340752036043,因特摩尔,43,17386,大连奥泰物业服务有限公司,2.6,辽宁,6,二手房,2011
沙河口区星海广场B3区20—3号,大连,大连飞通房地产开发有限公司,沙河口,20181104,38.888054001818844,121.58662952422732,东方星海,79,18429,大连兆恒物业管理有限公司,2.9,辽宁,6,二手房,2009
甘井子区哲林北园17-6号,大连,大连恒德房屋开发有限公司,甘井子,20181104,38.9600267109581,121.53876726228256,恒德橄榄季,47,20641,大连恒德物业服务有限公司,1.4,辽宁,6,二手房,2009
甘井子区红旗西路104-7,大连,大连盛华房地产开发有限公司,甘井子,20181104,38.940012695252975,121.52780738260293,水映西山,32,14420,大连长青物业管理中心,0.9,辽宁,6,二手房,2007
高新园区聚贤路36号5幢1单元1层1号,大连,大连金真源集团房地产开发有限公司,高新园区,20181104,32.31472011562832,119.46141263909165,山海一家一期,47,13710,大连龙海物业管理有限公司,0.6,辽宁,6,二手房,2005
大连市甘井子中华路街道汇畅街48号,大连,远洋地产有限公司,甘井子,20181104,39.00552323996268,121.59684207363269,远洋荣域,93,16683,远洋亿家物业服务股份有限公司大连分公司,2.8,辽宁,6,二手房,2016
西岗区平等街21号1层2号,大连,无开发商,西岗,20181104,38.92251066253164,121.63236845125735,实验小学同庆街,65,19213,无物业管理服务,-,辽宁,6,二手房,1990
甘井子区锦城西园4#3-1-1,大连,大连锦绣房地产开发有限公司,沙河口,20181104,38.95286223185571,121.55129044777,锦华北园,66,12747,大连锦绣物业管理有限公司,0.6,辽宁,6,二手房,2002
甘井子区千山路66号楼2单元1楼2号,大连,大连宜和房地产开发有限公司,甘井子,20181104,38.985716774397915,121.58287796391829,盛世闲庭,51,13874,大连衡德物业管理有限公司,0.5,辽宁,6,二手房,2003
甘井子区祥溢园4号1单元1层9号公建,大连,大连长鹭房屋开发有限公司,甘井子,20181104,38.92981664067587,121.54940314023253,亲亲家园,69,13379,渤海吉祥物业管理有限公司,0.5,辽宁,6,二手房,2004
金州新区先进街道五一路350-1号1-2层,大连,无开发商,金州,20181104,39.095023587156554,121.74333264248519,康居小区,35,5696,街道办事处（居委会）代管物业,-,辽宁,6,二手房,1998
中山区同心街72号1楼公建,大连,大连泰宸房地产开发有限责任公司,中山,20181104,38.91979245940674,121.64769198230202,伊景华园,54,23654,街道办事处（居委会）代管物业,2.2,辽宁,5,二手房,2006
无门店信息,大连,大连天启房地产开发有限公司,高新园区,20181104,34.52713835999158,118.76812980670795,百合IT家园,26,12122,大连亮泰安邦物业有限公司,0.6,辽宁,5,二手房,2008
无门店信息,大连,大连亚联房地产开发有限公司,甘井子,20181104,34.52713835999158,118.76812980670795,翡翠春城,33,15114,大连亚联物业管理有限公司,1.6,辽宁,5,二手房,2012
甘井子区虹韵路114号,大连,大连亿达美加房地产开发有限公司,甘井子,20181104,38.95653310483457,121.5329869995972,第五郡五号地,70,22933,亿达物业管理有限公司,2,辽宁,5,二手房,2009
开发区润海园中区18#2号,大连,大连布鲁科房地产开发有限公司,开发区,20181104,39.04047273176333,121.76392358042445,热岛黄金海岸,145,10685,大连戴德梁行物业管理有限公司,1.6,辽宁,5,二手房,2010
开发区松苑街23号,大连,大连盛和房地产开发有限公司,开发区,20181104,22.52087710763645,113.40156104777168,北欧假日,85,10114,大连鸿达物业管理有限公司,1.1,辽宁,5,二手房,2005
开发区润海园中区30-1,大连,华润置地（大连）开发有限公司,开发区,20181104,39.04047273176333,121.76392358042445,华润海中国一期,108,15515,华润物业（大连）有限公司,1.8,辽宁,5,二手房,2009
甘井子区泉水K2区1号-7,大连,大连新型房地产开发有限公司,甘井子,20181104,39.01148211821007,121.63131997900962,龙畔金泉五期K4区,100,12452,大连新兴物业管理有限公司,0.5,辽宁,5,二手房,2008
甘井子区知音园20号3单元1层1号,大连,亿达房地产开发有限公司,高新园区,20181104,38.95546176066109,121.5285003794903,软件园小区,43,14639,业主自筹物业,0.2,辽宁,5,二手房,1995
沙河口区恒利园42号-8,大连,大连天河房地产开发集团有限公司,沙河口,20181104,38.93357562498634,121.57914091532649,天河新苑,25,11292,大连天河物业管理有限公司,0.4,辽宁,5,二手房,2000
甘井子区惠泽南园3-4号,大连,大连鹏德房屋开发有限公司,甘井子,20181104,38.939326611323615,121.52337842113351,西山阳光水岸,38,14874,大连三和住邦物业管理有限公司,1,辽宁,5,二手房,2007
沙河口区恒利园42号-8,大连,大连新华房屋开发有限公司,沙河口,20181104,38.93357562498634,121.57914091532649,新华同仁轩,36,17537,大连新华物业管理有限公司,0.6,辽宁,5,二手房,2000
中山区华乐街107-115号1单元1层2号,大连,大连金广地产集团有限公司,中山,20181104,38.92093821499401,121.68879267531725,金广东海岸,71,21343,大连金广物业有限公司,2.2,辽宁,5,二手房,2009
甘井子区泉水A2区10-3号,大连,源祥房地产开发有限公司,甘井子,20181104,39.00419463553784,121.61128690376383,美域盛景,140,12084,大连新华物业管理有限公司,0.8,辽宁,5,二手房,2008
金州区先进街道陶然居公建2-2号1层,大连,大连金信集团房地产有限公司,金州,20181104,39.08283372756215,121.76170982507143,桃园小区,94,6021,街道办事处（居委会）代管物业,0.5,辽宁,6,二手房,1992
无门店信息,大连,暂无信息,甘井子,20181104,34.52713835999158,118.76812980670795,金二街,49,19361,无物业管理服务,-,辽宁,6,二手房,1970
无门店信息,大连,暂无信息,甘井子,20181104,34.52713835999158,118.76812980670795,泉水N1区,73,8993,无物业管理服务,0.5,辽宁,6,二手房,2008
大连市金州新区中长街道碧海尚城5-4号1-2层,大连,无开发商,金州,20181104,39.1001690968934,121.73061017121415,体育场小区,36,6257,街道办事处（居委会）代管物业,-,辽宁,6,二手房,1995
金州区先进街道陶然居公建2-2号1层,大连,大连金信集团房地产有限公司,金州,20181104,39.08283372756215,121.76170982507143,金信陶然居,36,8861,北京瑞思特物业管理有限公司,0.5,辽宁,6,二手房,2007
大连市开发区左岸经典正恒园1-17,大连,大连神洲众益集团有限公司,开发区,20181104,39.049057070649155,121.76187404250511,万国宫馆一期,99,13010,加拿大高力国际物业服务有限公司,2.4,辽宁,5,二手房,2009
无门店信息,大连,大连环宇置业有限公司,开发区,20181104,34.52713835999158,118.76812980670795,环宇品阁,43,5409,大连环宇物业管理有限公司,1.5,辽宁,6,二手房,2010
大连市金州区站前街道生辉第一城14-3号1-2层,大连,大连新天润企业集团有限公司,开发区,20181104,39.0569681786798,121.74773530665969,凯旋国际,77,6365,第一东方(大连)物业服务有限公司,3,辽宁,6,二手房,2008
无门店信息,大连,无开发商,甘井子,20181104,34.52713835999158,118.76812980670795,石油六闾,72,8816,街道办事处（居委会）代管物业,0.5,辽宁,5,二手房,1995
开发区景和园1-7,大连,无开发商,开发区,20181104,30.41892168817929,120.30896459202738,古耕景和园,24,8865,街道办事处（居委会）代管物业,0.5,辽宁,5,二手房,2008
沙河口区华北路448号楼1-4公建,大连,无开发商,甘井子,20181104,38.903224944733765,121.56809734950556,周山街,14,13862,街道办事处（居委会）代管物业,0.5,辽宁,5,二手房,1989
沙河口区兰田街33号,大连,无开发商,沙河口,20181104,38.926138912221084,121.56486022834609,马栏广场东,19,9743,大连辽南物业管理有限公司,0.2,辽宁,5,二手房,1995
甘井子区玉丽街2号楼1单元4号公建,大连,大连新型房地产开发有限公司,甘井子,20181104,38.98705071699301,121.55513043130172,泡崖康居园,44,9824,大连新兴物业管理有限公司,0.5,辽宁,5,二手房,2000
开发区大开高吉里33栋6号,大连,大连金港集团有限公司,开发区,20181104,39.07355836059941,121.8280439450145,高祥里,40,8011,街道办事处（居委会）代管物业,0.3,辽宁,5,二手房,1992
无门店信息,大连,大连运达房地产集团有限公司,甘井子,20181104,34.52713835999158,118.76812980670795,运达诺维溪谷二期,18,13441,大连运达物业有限公司,1.8,辽宁,5,二手房,2012
开发区杏树里10栋-14,大连,大连名城房地产开发有限公司,开发区,20181104,39.08113818354046,121.78505742127606,名城和顺人家,43,8586,大连君悦天下物业管理中心,0.5,辽宁,5,二手房,2010
沙河口区锦石路8号,大连,大连运腾房地产开发有限公司,沙河口,20181104,38.94771288948481,121.56110903658733,锦云南园,49,9724,大连锦绣物业管理有限公司,0.3,辽宁,5,二手房,1996
中山区虎滩路176号4-1-2,大连,大连三寰房地产开发有限公司,中山,20181104,38.890884710033156,121.69257379232747,碧涛北园,31,11161,大连虎滩置业物业管理有限公司,0.2,辽宁,5,二手房,1997
开发区湾里南12栋-16-17-18号,大连,无开发商,开发区,20181104,39.070782084451,121.8506739675913,东城国际,43,8305,大连乾豪物业管理有限公司,1,辽宁,5,二手房,2006
甘井子区千山路26号,大连,大连嘉兴房地产开发有限公司,甘井子,20181104,38.985697948031984,121.58768860037272,千山路,72,10946,无物业管理服务,0.5,辽宁,5,二手房,1989
西岗区康平街2号（5号楼3-1-3号）,大连,无开发商,西岗,20181104,38.91044414697888,121.61980769264477,教师大厦,12,10949,大连教师大厦物业管理有限公司,0.2,辽宁,5,二手房,1995
无门店信息,大连,大连中海新城置业有限公司,甘井子,20181104,34.52713835999158,118.76812980670795,中海凤凰熙岸,21,12033,大连中海物业管理有限公司,2.3,辽宁,5,二手房,2016
天河路173-2号 华润考拉22号公建,大连,大连世隆房地产开发有限公司,甘井子,20181104,23.147151253133927,113.3277313198351,桑尼小镇,13,15264,大连大家物业管理有限公司,1.9,辽宁,5,二手房,2014
甘井子区红旗西路104-7,大连,大连盛达实业总公司,甘井子,20181104,38.940012695252975,121.52780738260293,盛新园,19,11734,大连盛新物业管理有限公司,0.3,辽宁,5,二手房,2000
沙河口区黄埔路427号,大连,无开发商,高新园区,20181104,38.921778341674376,121.58261780680284,凌源街,32,13595,大连凌电物业管理有限公司,0.1,辽宁,5,二手房,1981
沙河口区长江路738号,大连,勋业（大连）置业有限公司,西岗,20181104,38.92379936592553,121.61207696256155,远洋风景,58,20901,大连远洋风景物业服务中心,1.1,辽宁,4,二手房,2007
甘井子区泉水H3区15号3单元1层2号,大连,大连新型房地产开发有限公司,甘井子,20181104,39.00158439075201,121.62616882572375,龙畔金泉二期,78,11520,大连新型物业管理有限公司,0.5,辽宁,4,二手房,2004
开发区兴城路29-81层,大连,大连亿锋房地产实业有限公司,开发区,20181104,39.05020829677517,121.7578103751747,亿锋广场二期,39,13752,大连广恒物业管理有限公司,2.5,辽宁,4,二手房,2015
甘井子区柳树南街45-10号,大连,中体产业集团大连乐百年置业有限公司,甘井子,20181104,38.92567666296449,121.4841330254372,中体奥林匹克花园,46,13222,广东中奥物业有限公司大连分公司,1.9,辽宁,4,二手房,2010
甘井子区红旗西路104-23,大连,大连鹏德房屋开发有限公司,甘井子,20181104,38.94011738361669,121.52831049836651,逸林派,17,13929,大连三和住邦物业管理有限公司,1.6,辽宁,4,二手房,2011
甘井子区亿家缘虹韵路205,大连,大连亿达美加房地产开发有限公司,甘井子,20181104,38.95759554613104,121.5279376157567,第五郡一号地,35,22054,亿达物业管理有限公司,2,辽宁,4,二手房,2012
甘井子区华龙南园12-4-3-1-3,大连,大连瑞祥房地产开发有限公司,甘井子,20181104,38.98528794231248,121.61028969481718,今都小区,59,11580,大连泰安物业管理有限公司,0.2,辽宁,4,二手房,1996
沙河口区前程街46号4—1—2号,大连,大连欧兰房地产开发有限公司,甘井子,20181104,38.921778341674376,121.58261780680284,耕海山尚,17,16475,大连耕海物业管理有限公司,1.5,辽宁,4,二手房,2010
甘井子区金北路17号,大连,无开发商,甘井子,20181104,38.97553393692831,121.59969720502335,76中学桥北,52,16370,无物业管理服务,-,辽宁,4,二手房,1970
西岗区九三街64号,大连,润德集团有限公司,西岗,20181104,38.92094787642578,121.62081970746283,润德广场,60,14557,大连润德物业管理有限公司,3.8,辽宁,4,二手房,2011
甘井子区亿家缘虹韵路205,大连,大连亿达美加房地产开发有限公司,甘井子,20181104,38.95759554613104,121.5279376157567,第五郡四号地,40,32546,亿达物业管理有限公司,2,辽宁,4,二手房,2010
大连市甘井子区软件园路122号,大连,大连鑫园房屋开发有限公司,高新园区,20181104,38.89286578891647,121.53266600180116,新新园二期,14,14662,大连理工物业管理中心,0.5,辽宁,4,二手房,2005
甘井子区红旗中路143号1层4号,大连,大连红旗兴达房地产开发有限公司,甘井子,20181104,38.93169566676921,121.5426632438217,兴达依山居,34,12358,大连金诚物业管理有限公司,0.3,辽宁,4,二手房,2004
大连市沙河口区文萃街1号1-2-2；大连市沙河口区由家五小区五号楼1单元2层1,大连,大连理工科技城建设开发有限公司,高新园区,20181104,38.88596852074166,121.54389553303217,文萃轩小区,27,16870,街道办事处（居委会）代管物业,0.2,辽宁,4,二手房,1990
大连市甘井子区辛如街35号1单元1层1号,大连,大连新星房地产开发有限公司,甘井子,20181104,38.96862607066881,121.52294869064194,新星绿城五期,50,13835,大连生生物业有限公司,0.8,辽宁,4,二手房,2009
西岗区八一路102号,大连,暂无信息,中山,20181104,38.891094924332045,121.65327483516513,胜鼎桃源,32,19439,暂无信息,0.5,辽宁,4,二手房,2015
大连市沙河口区黄河路729号,大连,无开发商,沙河口,20181104,38.91710565765228,121.58954758972729,南昌平小区,44,11035,街道办事处（居委会）代管物业,0.5,辽宁,4,二手房,1986
甘井子区泉水D6区51号,大连,大连金广集团,甘井子,20181104,39.00897610161069,121.61789300655198,枫丹丽城,63,14353,大连金广物业有限公司,1.5,辽宁,4,二手房,2012
沙河口区新生路万客园3-7,大连,大连鹏生房地产开发有限公司,沙河口,20181104,38.94412875710208,121.57006756704837,枫林绿洲,34,13688,大连鹏辉物业管理有限公司,0.3,辽宁,4,二手房,2008
无门店信息,大连,大连乾豪集团有限公司,开发区,20181104,34.52713835999158,118.76812980670795,乾豪新界,39,10266,大连乾豪物业管理有限公司,1.7,辽宁,4,二手房,2015
大连市甘井子区燕南园50号,大连,大连软件园发展有限公司,高新园区,20181104,38.90172480153224,121.5363466289672,东方圣克拉二期,34,25583,亿达物业管理有限公司,2.6,辽宁,4,二手房,2011
沙河口区锦石路8号,大连,大连锦绣房地产开发有限公司,沙河口,20181104,38.94771288948481,121.56110903658733,锦泉中园,22,9688,大连锦绣物业管理有限公司,0.3,辽宁,4,二手房,1996
甘井子区山东路170—7号,大连,大连市大钢集团,甘井子,20181104,38.98379863132532,121.58715890734231,华中街,28,12084,街道办事处（居委会）代管物业,0.5,辽宁,4,二手房,1986
沙河口区兰田街33号,大连,无开发商,沙河口,20181104,38.926138912221084,121.56486022834609,兰玉街,14,10801,街道办事处（居委会）代管物业,0.4,辽宁,4,二手房,1990
无门店信息,大连,大连宏鼎房地产开发有限公司,旅顺口,20181104,34.52713835999158,118.76812980670795,国宝星月湾,35,11278,大连星海国宝物业管理有限公司,2.5,辽宁,4,二手房,2015
甘井子区虹港路16号楼1层公建,大连,无开发商,甘井子,20181104,38.96457808198196,121.55421052098279,迎客路（机场商圈）,34,13176,街道办事处（居委会）代管物业,0.2,辽宁,4,二手房,1990
中山区北斗街53号1层1号,大连,大连名仕房地产开发有限公司,中山,20181104,38.92727355733075,121.67002970974048,名仕财富中心,54,11034,holiday inn酒店物业管理有限公司,4.3,辽宁,4,二手房,2006
沙河口区西南路643号,大连,无开发商,沙河口,20181104,38.943483429804665,121.5833555851182,西关街,33,10594,无物业管理服务,-,辽宁,4,二手房,1995
开发区黄海西路54号,大连,开发区城建局,开发区,20181104,39.047714586087785,121.76688238228269,青松南里,63,7567,大连经济技术开发区中强物业管理有限公司,0.5,辽宁,4,二手房,2003
中山区中南路店212号门头房,大连,峰尚房屋开发有限公司,中山,20181104,38.91149759691359,121.67700561077149,峰尚中南,12,14216,大连银洲物业管理有限公司,2.2,辽宁,4,二手房,2011
甘井子区华北路花锦园28号23-3-1-2建筑物,大连,大连东特房地产开发有限公司,甘井子,20181104,38.951627958411166,121.5739439799003,东特爱俪舍,23,15838,大连东特祥禾物业管理有限公司,0.6,辽宁,4,二手房,2004
甘井子区甘井子路32号楼1单元1楼9号,大连,无开发商,甘井子,20181104,38.982488275116516,121.63345389253514,文体街,113,9200,街道办事处（居委会）代管物业,0.1,辽宁,4,二手房,1985
金州区同济路44号,大连,大连金宸集团,金州,20181104,39.10476859984152,121.71234684495865,连大文润金宸三期,37,10289,大连四通物业管理有限公司,1,辽宁,4,二手房,2010
无门店信息,大连,大连明和房地产开发有限公司,开发区,20181104,34.52713835999158,118.76812980670795,知语山园,24,10505,大连大众物业管理有限公司,1.3,辽宁,4,二手房,2012
大连经济技术开发区时代城4-3号1-2号,大连,远洋地产有限公司,开发区,20181104,39.0992481321252,121.83007860699459,远洋时代城四期,30,8079,大连远洋基业物业管理有限公司,1.5,辽宁,4,二手房,2012
开发区杏树里10栋-14,大连,大连华宇房地产开发有限公司,开发区,20181104,39.08113818354046,121.78505742127606,华宇凤凰城,53,7105,大连华宇物业管理有限公司,1,辽宁,4,二手房,2009
开发区安盛里5栋-4,大连,大连华宇房地产开发有限公司,开发区,20181104,23.112106678834838,113.27801046214822,叠翠花香,34,8686,大连经济技术开发区永嘉物业管理有限公司,0.3,辽宁,4,二手房,2000
经济技术开发区红星海-A区81-2号1层,大连,远洋地产有限公司,开发区,20181104,39.027851194371685,121.80327394132297,红星海三期境界,69,12133,大连远洋基业物业管理有限公司,2.2,辽宁,4,二手房,2012
沙河口区锦石路8号,大连,大连锦绣房地产开发有限公司,沙河口,20181104,38.94771288948481,121.56110903658733,锦泉南园,47,10427,大连锦绣物业管理有限公司,0.3,辽宁,4,二手房,1996
金州区金润花园B区47号1单元1层1号2号,大连,暂无信息,金州,20181104,39.104347761505736,121.7451779647203,民馨小区,58,6635,暂无信息,0.5,辽宁,4,二手房,-
无门店信息,大连,暂无信息,甘井子,20181104,34.52713835999158,118.76812980670795,泉水N2区,46,9466,无物业管理服务,0.5,辽宁,4,二手房,2009
无门店信息,大连,暂无信息,甘井子,20181104,34.52713835999158,118.76812980670795,八十中红咀街,71,14008,街道办事处（居委会）代管物业,0.2,辽宁,4,二手房,1988
金州区先进街道渤海街1-4号1-2层,大连,无开发商,金州,20181104,39.09512910553563,121.74578812616167,金元小区,45,7126,街道办事处（居委会）代管物业,0.1,辽宁,4,二手房,1993
开发区红梅小区19栋-2-1-1号,大连,大连新财富中心大厦有限公司,开发区,20181104,29.906498897603264,121.5913630631805,新财富大厦,18,9245,街道办事处（居委会）代管物业,1.5,辽宁,4,二手房,2007
金州区站前街道盛滨花园B区13号楼2号公建,大连,大连阿尔滨集团房地产开发有限公司,金州,20181104,39.09609011892329,121.7335816409767,盛滨花园A区,20,5724,大连阿尔滨集团物业管理有限公司,0.4,辽宁,4,二手房,2001
金州区拥政街道733号-8号1-2层,大连,无开发商,金州,20181104,39.11690610445662,121.73030803603723,花园小区,7,6950,大连四通物业管理有限公司,0.1,辽宁,4,二手房,1993
无门店信息,大连,暂无信息,金州,20181104,34.52713835999158,118.76812980670795,天鸿展视界,12,6382,暂无信息,-,辽宁,4,二手房,-
金州区站前街道盛滨花园B区13号楼2号公建,大连,大连阿尔滨集团房地产开发有限公司,金州,20181104,39.09609011892329,121.7335816409767,盛滨花园B区,25,7187,大连阿尔滨集团物业管理有限公司,0.4,辽宁,4,二手房,2000
无门店信息,大连,暂无信息,西岗,20181104,34.52713835999158,118.76812980670795,34中纪念街,60,27546,暂无信息,-,辽宁,4,二手房,1990
大连市沙河口区西南路875号1层21号,大连,无开发商,沙河口,20181104,38.94485969061231,121.58418648447764,华北路（春柳商圈）,6,10589,街道办事处（居委会）代管物业,0.1,辽宁,4,二手房,1981
大连市开发区东北三街103号公建,大连,开发区城建局,开发区,20181104,39.05621858250137,121.80658750738304,倚园里小区,45,6889,大连佳兴物业管理有限公司,0.3,辽宁,4,二手房,1999
大连市金州区友谊街道南金华城25号1-2层1号,大连,大连友谊合升房地产开发有限公司,金州,20181104,39.128677228885614,121.71356109978767,恒达花园,32,7807,街道办事处（居委会）代管物业,0.5,辽宁,4,二手房,2004
西岗区长春路334号,大连,无开发商,西岗,20181104,38.89807766522607,121.63221082858387,石葵路（石道街商圈）,6,11435,街道办事处（居委会）代管物业,0.5,辽宁,4,二手房,1995
西岗区新田巷11号三单元103,大连,无开发商,西岗,20181104,38.89276612016956,121.64190731791966,新船巷,27,7967,无物业管理服务,-,辽宁,4,二手房,1992
金州区金润小区B区861单元102,大连,大连中连房地产开发有限公司,金州,20181104,39.10615165380565,121.74639264534615,自然天城B区,59,6512,大连新生活物业管理有限公司,0.4,辽宁,4,二手房,2010
金州区南棉路310号,大连,无开发商,金州,20181104,39.09939229372624,121.72414976100345,劳动局小区,48,7958,无物业管理服务,0.1,辽宁,4,二手房,1990
大连市甘井子区七贤路8-3号,大连,大连瑞恒置业有限公司,高新园区,20181104,38.86659077085588,121.5392980566355,未名山,44,20996,大连龙湖物业服务有限公司,3,辽宁,3,二手房,2015
高新园区火炬路18号,大连,大连嘉创房地产开发有限公司,高新园区,20181104,38.937738080520404,117.39340752036043,嘉创E人国际,48,14838,大连紫金物业管理有限公司,2,辽宁,3,二手房,2011
"西岗区泰公街20号2层7号 西岗区久寿街22号1层14号""",大连,大连万达房地产开发有限公司,西岗,20181104,38.92600196862723,121.62141976476381,新春小区,9,13862,大连长青物业管理中心,0.2,辽宁,3,二手房,1997
中山区杏林街66—5号,大连,嘉和房地产集团有限公司,中山,20181104,38.9244189768098,121.6630029448549,嘉和花样年华三期,38,24110,大连嘉和物业管理有限公司,3.5,辽宁,3,二手房,2007
甘井子区红旗西路104-7,大连,大连安邦房地产开发有限公司,甘井子,20181104,38.940012695252975,121.52780738260293,水畔香谷,15,13947,大连万科绿色家园物业有限公司,1,辽宁,3,二手房,2007
中山区武昌街武昌公寓6号公建,大连,大连武昌房地产开发有限公司,中山,20181104,38.912280913445784,121.64921130527547,部居逸阁,20,12715,大连宜佳物业管理有限公司,1,辽宁,3,二手房,2005
沙河口区红旗东路18-22号2单元1楼3号,大连,无开发商,甘井子,20181104,38.921778341674376,121.58261780680284,天泉山庄,12,10091,大连铁龙安居物业管理有限公司,0.5,辽宁,3,二手房,2000
高新园区硅谷假日小区25号楼地下室,大连,大连志恒房地产开发有限公司,高新园区,20181104,38.865995717263544,121.53771220335938,菁英汇,49,16211,大连海创物业管理有限公司,1.2,辽宁,3,二手房,2007
甘井子区红旗中路143号1层4号,大连,大连长鹭房屋开发有限公司,甘井子,20181104,38.93169566676921,121.5426632438217,西街晶品,21,17750,大连万泰物业管理有限公司,0.8,辽宁,3,二手房,2006
西岗区鞍山路65-5号,大连,大连万达房地产开发有限公司,沙河口,20181104,38.92701992456326,121.60258216167713,79中广电中心,78,28312,无物业管理服务,-,辽宁,3,二手房,1988
沙河口区黄河路535号,大连,大连首星房地产开发有限公司,沙河口,20181104,38.91773777159567,121.60217159922856,金色年华公馆,36,27651,大连首星物业管理有限公司,2.8,辽宁,3,二手房,2011
高新园区海苑街36号1单元2号公建,大连,大连鸿越房地产开发有限公司,高新园区,20181104,20.06392317589085,110.32302599457326,康桥小镇,22,16448,大连长青物业管理中心,1.3,辽宁,3,二手房,2010
西岗区八一路196号2-1-12号,大连,大连欧美亚房地产开发有限公司,西岗,20181104,38.89127420834314,121.6483201412943,中华名城,28,17846,大连峰霖物业管理有限公司,1.5,辽宁,3,二手房,2003
甘井子区泉水D1区37-7号,大连,大连运腾房地产开发有限公司,甘井子,20181104,39.013992871679214,121.61921940045104,锦泉源D2区,171,13134,大连佳泰物业管理有限公司,0.5,辽宁,3,二手房,2005
甘井子区红旗花园23号楼19-24轴公建,大连,大连银泰房地产有限公司,甘井子,20181104,38.93108029984587,121.54902145022133,祥和园,19,13812,无物业管理服务,-,辽宁,3,二手房,2002
沙河口区中山路417A-4号,大连,大连新希望家园房地产有限公司,沙河口,20181104,38.90734671814175,121.59482182703752,新希望花园,25,18404,大连乾峰物业管理有限公司,1.3,辽宁,3,二手房,2003
沙河口区黄河路535号,大连,大连城市建设集团有限公司,沙河口,20181104,38.91773777159567,121.60217159922856,79中至诚小区,40,29056,大连天河物业管理有限公司,0.1,辽宁,3,二手房,1958
中山区中青街43号,大连,大连亿达房地产股份有限公司,中山,20181104,38.90150598268117,121.65711014604845,青云映山,16,24906,亿达物业管理有限公司,1.3,辽宁,3,二手房,2005
大连市沙河口区知邻街50号,大连,大连软件园开发有限公司,沙河口,20181104,38.921778341674376,121.58261780680284,宅语原,32,19411,亿达物业管理有限公司,2,辽宁,3,二手房,2008
甘井子区泉水D6区51号,大连,大连锦丰和源祥房地产开发有限公司,甘井子,20181104,39.00897610161069,121.61789300655198,泉水人家幸福里,89,14111,大连泽霖物业管理有限公司,0.9,辽宁,3,二手房,2009
高新园区海苑街30号1单元1号公建,大连,大连大有文园房屋开发有限公司,高新园区,20181104,20.06392317589085,110.32302599457326,大有文园,47,17839,大连大有恬园物业管理有限公司,2,辽宁,3,二手房,2012
开发区小孤山西里27栋-7号,大连,远洋地产有限公司,开发区,20181104,39.0278711398559,121.8095276927579,红星海四期城市别馆二号,59,12309,大连远洋基业物业管理有限公司,3.5,辽宁,3,二手房,2012
甘井子区柳树南街45-10号,大连,中体产业集团大连乐百年置业有限公司,甘井子,20181104,38.92567666296449,121.4841330254372,水木清华,15,11564,大连辰谊物业管理有限公司,1.2,辽宁,3,二手房,2009
大连市甘井子区软件园路122号,大连,大连理工科技城建设开发有限公司,高新园区,20181104,38.89286578891647,121.53266600180116,理工园,17,13789,街道办事处（居委会）代管物业,1,辽宁,3,二手房,2000
经济技术开发区红星海-A区81-2号1层,大连,无开发商,开发区,20181104,39.027851194371685,121.80327394132297,西雅图,27,9999,大连维泰物业管理有限公司,0.8,辽宁,3,二手房,2004
甘井子区泡崖六小区6号楼1单元1层2号,大连,大连新型房地产开发有限公司,甘井子,20181104,38.98033159306754,121.55920598894072,泡崖六区,30,10201,大连新型物业管理有限公司,0.3,辽宁,3,二手房,2002
甘井子区玉丽街35号4单元-1-2,大连,大连新型房地产开发有限公司,甘井子,20181104,38.98487421584909,121.55236707590676,玉浓街,49,10022,大连新兴物业管理有限公司,0.2,辽宁,3,二手房,2002
沙河口区兰田街33号,大连,大连万合房地产开发有限公司,沙河口,20181104,38.926138912221084,121.56486022834609,万合新家园,8,16755,大连佳宜物业管理有限公司,0.6,辽宁,3,二手房,2004
大连市甘井子区丰收路3-5号,大连,无开发商,甘井子,20181104,38.965377255081755,121.58288415324094,王家桥,40,13509,大连铁路物业管理有限公司,0.2,辽宁,3,二手房,1989
中山区民运巷 47号1层2号,大连,大连新型房地产开发总公司,中山,20181104,38.905955122300846,121.64798148011702,葵英小区,5,10187,街道办事处（居委会）代管物业,0.3,辽宁,3,二手房,1999
沙河口区红凌路137号,大连,大连大实企业集团房屋开发有限公司,甘井子,20181104,38.922699288974506,121.54713601744747,叠翠山庄,23,10169,大连弘实物业管理有限公司,0.4,辽宁,3,二手房,2000
甘井子区山东路398号,大连,华润置地（大连）开发有限公司,甘井子,20181104,38.99821826443242,121.59274974973462,华润置地广场三期,45,19336,华润物业（大连）有限公司,2.9,辽宁,3,二手房,2016
沙河口区红凌路137号,大连,大连大实企业集团房屋开发有限公司,甘井子,20181104,38.922699288974506,121.54713601744747,泊林映山,11,12346,大连弘实物业管理有限公司,1.2,辽宁,3,二手房,2011
中山区三八广场5号,大连,大连宏正房地产开发有限公司,中山,20181104,38.92540000551715,121.6642911149562,宏都嘉园,1,20732,大连宏进物业管理有限公司,0.5,辽宁,3,二手房,2002
大连市甘井子区辛如街35号1单元1层1号,大连,大连新星房地产开发有限公司,甘井子,20181104,38.96862607066881,121.52294869064194,新星绿城六期,29,14236,大连生生物业管理有限公司,1,辽宁,3,二手房,2008
中山区中南路226号,大连,大连亿泰房屋开发有限公司,中山,20181104,38.90029610333926,121.68178899957817,亿泰庄园,13,13585,大连远洋基业物业管理有限公司,0.7,辽宁,3,二手房,1999
沙河口区富国街14号1-1-2,大连,大连永辉房地产开发有限公司,沙河口,20181104,38.901027106600836,121.59047734850638,百年汇,57,14058,大连百年城物业管理有限公司,2.8,辽宁,3,二手房,2007
甘井子辛吉街150号-7号,大连,大连金马房屋开发有限公司,甘井子,20181104,38.96309956105142,121.52341678860995,金马圣隆,23,12622,大连金马圣隆物业管理有限公司,0.5,辽宁,3,二手房,2006
西岗区香炉礁24号1-1,大连,大连新型房地产开发有限公司,西岗,20181104,38.91336952993919,121.6258229781024,金海花园东园,22,12827,大连新兴物业管理有限公司,0.5,辽宁,3,二手房,2001
促进路30号2单元1楼1号,大连,中信集团大连中信房地产开发公司,甘井子,20181104,38.954133128707575,121.58355746311207,和兴家园,12,14475,大连中信物业管理有限公司,0.5,辽宁,3,二手房,2003
中山区中南路226号,大连,大连海王府房地产开发有限公司,中山,20181104,38.90029610333926,121.68178899957817,海王府现代城,13,15249,街道办事处（居委会）代管物业,1,辽宁,3,二手房,2004
甘井子祥龙街2号1-1-1,大连,大连美辰房地产开发有限公司,甘井子,20181104,39.00554266797988,121.6172971605072,美辰香醒,42,15651,大连众和物业管理有限公司,1.4,辽宁,3,二手房,2012
甘井子区甘井子路32号楼1单元1楼9号,大连,无开发商,甘井子,20181104,38.982488275116516,121.63345389253514,松江小区,32,10524,街道办事处（居委会）代管物业,0.5,辽宁,3,二手房,1995
开发区湾里南12栋-16-17-18号,大连,大连金湾实业有限公司,开发区,20181104,39.070782084451,121.8506739675913,湾里西,38,7211,广宜物业有限公司,0.2,辽宁,3,二手房,2003
无门店信息,大连,大连新兴海韵房地产开发有限公司,开发区,20181104,34.52713835999158,118.76812980670795,山海家园,12,11687,大连经济技术开发区通讯物业有限公司,0.5,辽宁,3,二手房,2004
无门店信息,大连,大连鲁能置业有限公司,金州,20181104,34.52713835999158,118.76812980670795,鲁能优山美地,48,9410,长城物业集团股份有限大连分公司,1.8,辽宁,3,二手房,2012
中山区解放路604号,大连,大连雅风房屋开发有限公司,中山,20181104,38.89026319122045,121.66407876092346,秀月风景,7,17923,大连风景物业管理有限公司,1,辽宁,3,二手房,1996
无门店信息,大连,无开发商,金州,20181104,34.52713835999158,118.76812980670795,滨海丰园,73,7561,街道办事处（居委会）代管物业,0.5,辽宁,3,二手房,2011
中山区山屏街116号1-1,大连,无开发商,中山,20181104,38.90729438486833,121.68598159980013,怡和街,30,11326,街道办事处（居委会）代管物业,0.5,辽宁,3,二手房,1990
无门店信息,大连,大连运达房地产集团有限公司,甘井子,20181104,34.52713835999158,118.76812980670795,运达诺维溪谷一期,21,13819,大连运达物业有限公司,1.8,辽宁,3,二手房,2010
开发区金源南里14栋-11号一层部分，14号-12号一层部分,大连,大连开建房地产开发有限公司,开发区,20181104,39.06148997014026,121.82510513314875,金源北里安居小区,44,8092,嘉兴物业管理有限公司,0.3,辽宁,3,二手房,1999
沙河口区西南路40号楼,大连,无开发商,沙河口,20181104,38.94141605900714,121.58612100465703,尖山街,11,11217,无物业管理服务,-,辽宁,3,二手房,1990
无门店信息,大连,大连经开万达广场投资有限公司,开发区,20181104,34.52713835999158,118.76812980670795,大连开发区万达广场,82,8659,大连万达物业管理有限公司,2.5,辽宁,3,二手房,2015
甘井子区泉水B5区27-9,大连,大连华智房地产开发有限公司,甘井子,20181104,39.014833760509994,121.60955220395961,华远新都汇广场,30,10656,街道办事处（居委会）代管物业,1,辽宁,3,二手房,2010
无门店信息,大连,大连安邦房地产开发有限公司,甘井子,20181104,34.52713835999158,118.76812980670795,安邦阳光润城,15,13652,无物业管理服务,-,辽宁,3,二手房,2011
沙河口区西南路643号,大连,无开发商,沙河口,20181104,38.943483429804665,121.5833555851182,恒达花园（沙河口）,15,10973,无物业管理服务,-,辽宁,3,二手房,1990
沙河口区西南路40号楼,大连,无开发商,沙河口,20181104,38.94141605900714,121.58612100465703,杭州街,17,10454,无物业管理服务,-,辽宁,3,二手房,1990
沙河口区沙能街101号1单元1层1号,大连,大连政府城区改造办公室,沙河口,20181104,38.9366316275348,121.59031205759763,新居佳园,8,12602,大连大力物业管理有限公司,1.5,辽宁,3,二手房,2012
经济技术开发区城润万家4-5号公建,大连,志广房地产有限公司,开发区,20181104,39.05716325096989,121.75946281983826,恒安花园,13,8682,大连志广物业管理有限责任公司,0.9,辽宁,3,二手房,2004
开发区大开高吉里33栋6号,大连,大连开建集团有限公司,开发区,20181104,39.07355836059941,121.8280439450145,高城花园,27,7388,嘉兴物业管理有限公司,0.2,辽宁,3,二手房,2002
沙河口区前程街46号4—1—2号,大连,大连渤海红旗集团有限公司,甘井子,20181104,38.921778341674376,121.58261780680284,兰丰巷,22,10765,大连辽南物业管理有限公司,0.2,辽宁,3,二手房,1992
西岗区长春路334号,大连,大连新型房地产开发总公司,西岗,20181104,38.89807766522607,121.63221082858387,林茂小区,25,9367,大连新型物业管理有限公司,0.2,辽宁,3,二手房,1995
沙河口区西南路40号楼,大连,无开发商,沙河口,20181104,38.94141605900714,121.58612100465703,黑石礁景山,17,10187,无物业管理服务,-,辽宁,3,二手房,1990
西岗区东北路160号1层2号,大连,大连天源房屋开发有限公司,西岗,20181104,38.89762838073334,121.63125053999369,天源山庄,33,9090,大连弘益达物业管理有限公司,0.2,辽宁,3,二手房,1997
开发区松苑街23号,大连,大连泰乐房地产开发有限公司,开发区,20181104,22.52087710763645,113.40156104777168,碧海华庭,20,6138,大连海滨物业管理有限公司,0.5,辽宁,3,二手房,2005
大连市经济技术开发区东城园98-14,大连,大连聚美房地产开发有限公司,开发区,20181104,39.0695450284039,121.85051433870218,聚美东湾,28,11281,大连聚美房地产开发有限公司,1.6,辽宁,3,二手房,2016
开发区东北三街94号1层,大连,大连欣达房地产开发有限公司,开发区,20181104,39.05723508011585,121.80570768630555,倚山里小区,133,6797,大连经济技术开发区聚盛达物业管理有限公司,0.2,辽宁,3,二手房,1996
金州区鹏程家园53#-8,大连,大连海富花园开发有限公司,开发区,20181104,39.0348243693741,121.81226722991913,鹏程家园（开发区）,15,7067,广宜物业有限公司,1.2,辽宁,3,二手房,2006
开发区大开高吉里33栋6号,大连,无开发商,开发区,20181104,39.07355836059941,121.8280439450145,高泰里,25,5626,无物业管理服务,-,辽宁,3,二手房,1998
西岗区绕山路28号1层1号,大连,无开发商,西岗,20181104,38.90352859160372,121.61547503761078,绕山路,11,10513,无物业管理服务,-,辽宁,3,二手房,1995
开发区高新里6栋-8,大连,无开发商,开发区,20181104,39.0710895068195,121.82860134358343,高志里小区,33,5912,街道办事处（居委会）代管物业,0.3,辽宁,3,二手房,1993
天河路173-2号 华润考拉22号公建,大连,无开发商,甘井子,20181104,23.147151253133927,113.3277313198351,七胜路,10,10316,街道办事处（居委会）代管物业,0.5,辽宁,3,二手房,1989
沙河口区富国街14号1-1-2,大连,无开发商,沙河口,20181104,38.901027106600836,121.59047734850638,西安路（和平广场商圈）,1,12285,无物业管理服务,-,辽宁,3,二手房,1996
沙河口区五四路207-1-9号,大连,无开发商,沙河口,20181104,38.906488732904506,121.5996637934482,集贤街,8,12488,无物业管理服务,-,辽宁,3,二手房,1990
无门店信息,大连,暂无信息,甘井子,20181104,34.52713835999158,118.76812980670795,76中学桥南,51,14440,大连新华物业管理有限公司,0.2,辽宁,3,二手房,1970
甘井子区华北路花锦园28号23-3-1-2建筑物,大连,无开发商,甘井子,20181104,38.951627958411166,121.5739439799003,久胜街,13,14916,街道办事处（居委会）代管物业,0.1,辽宁,3,二手房,1989
沙河口区西南路851号3单元1层3号,大连,无开发商,沙河口,20181104,38.94344210837944,121.58246796944378,李家街,29,11031,无物业管理服务,0.1,辽宁,3,二手房,1985
甘井子区玉丽街39号楼3号公建,大连,大连新型房地产开发有限公司,甘井子,20181104,38.98706755029984,121.55605471197089,玉丽街,58,9350,大连新兴物业管理有限公司,0.5,辽宁,3,二手房,2002
中山区中青街43号,大连,无开发商,中山,20181104,38.90150598268117,121.65711014604845,解放路（青云街商圈）,4,12012,街道办事处（居委会）代管物业,0.6,辽宁,3,二手房,1997
大连市甘井子区椒房街24号楼2-104链家地产,大连,无开发商,甘井子,20181104,38.985363789837166,121.61034055597686,椒房,78,13458,无物业管理服务,0.5,辽宁,3,二手房,1985
开发区黄海西路201号107公建,大连,大连中信海港投资有限公司,开发区,20181104,39.04942604506828,121.80126318235419,润泽园小区,37,8403,大连新华物业管理有限公司,1.9,辽宁,3,二手房,2010
中山区山屏街116号1-1,大连,大连中信海港投资有限公司,中山,20181104,38.90729438486833,121.68598159980013,山屏街,36,10469,大连大众物业管理有限公司,0.5,辽宁,3,二手房,1988
沙河口区兰田街33号,大连,无开发商,沙河口,20181104,38.926138912221084,121.56486022834609,兰田街,12,11899,街道办事处（居委会）代管物业,0.4,辽宁,3,二手房,1990
甘井子区泉水K2区1号-7,大连,暂无信息,甘井子,20181104,39.01148211821007,121.63131997900962,龙畔金泉五期K2区,47,11059,大连新兴物业管理有限公司,0.5,辽宁,3,二手房,2008
无门店信息,大连,大连九城房地产开发有限公司,开发区,20181104,34.52713835999158,118.76812980670795,新城丽景,12,9709,大连恒瑞物业管理有限公司,1.2,辽宁,3,二手房,2015
金州新区八一路金都嘉园1号楼1号公建,大连,大连元新房地产开发有限公司,金州,20181104,39.05525210261778,121.74865634199398,华夏金城,30,8724,大连元新物业管理有限公司,1.2,辽宁,3,二手房,2008
中山区中青街87号一单元107,大连,大连亿达房地产股份有限公司,中山,20181104,38.90213494248529,121.65806522267005,青云林海,44,20329,亿达物业管理有限公司,1,辽宁,2,二手房,2001
沙河口区恒利园42号-8,大连,大连三寰房屋开发有限公司,沙河口,20181104,38.93357562498634,121.57914091532649,三寰芳草园,17,13721,大连空港物业管理有限公司,0.4,辽宁,2,二手房,2003
沙河口区黄河路535号,大连,大连建园房地产开发有限公司,沙河口,20181104,38.91773777159567,121.60217159922856,79中城市公元,41,28588,大连斌弘物业管理有限公司,2.6,辽宁,2,二手房,2009
沙河口区锦虹北园38-3-1-1,大连,大连锦绣房地产开发有限公司,沙河口,20181104,38.95230821928003,121.55503724232328,锦城东园,23,16326,大连锦绣物业管理有限公司,0.6,辽宁,2,二手房,2006
甘井子区促进路30号2-1-1,大连,福佳集团有限公司,甘井子,20181104,38.954133128707575,121.58355746311207,府佳名都,29,15513,大连富佳物业管理有限公司,0.5,辽宁,2,二手房,2002
沙河口区富静街26号1单元1层5号,大连,大连正源房地产开发有限公司,沙河口,20181104,38.908727606250466,121.58667844684369,幸福e家五期,136,32295,大连正源物业服务有限公司,1.8,辽宁,2,二手房,2008
甘井子区西南路979-7号公建,大连,无开发商,甘井子,20181104,38.96275592929325,121.5958698791777,八十中,0,16790,街道办事处（居委会）代管物业,0.9,辽宁,2,二手房,1999
甘井子区汇仁街22号,大连,大连永高房屋开发有限公司,甘井子,20181104,38.99712640764999,121.58834420439493,加州洋房,59,13288,大连怡和物业服务有限公司,0.9,辽宁,2,二手房,2008
西岗区黄河路362号公建,大连,大连万峰房地产开发有限公司,西岗,20181104,38.91819905243802,121.61365779430986,万达华府一期,57,26762,大连万景物业管理有限公司,1.3,辽宁,2,二手房,2005
高新园区书香街1A#1-1-2,大连,大连金弘基房地产开发有限公司,高新园区,20181104,38.880372108393104,121.55218773010999,弘基三期,46,19569,大连金弘基物业管理有限公司,0.5,辽宁,2,二手房,2005
中山区高尚路28-1号,大连,无开发商,中山,20181104,38.892673425111305,121.67148833870213,高寿街,11,9068,无物业管理服务,-,辽宁,3,二手房,1991
无门店信息,大连,暂无信息,甘井子,20181104,34.52713835999158,118.76812980670795,八十中周家街,41,16049,街道办事处（居委会）代管物业,0.2,辽宁,3,二手房,1990
无门店信息,大连,无开发商,金州,20181104,34.52713835999158,118.76812980670795,香山翌景,19,6812,街道办事处（居委会）代管物业,0.5,辽宁,3,二手房,2010
无门店信息,大连,大连顺浩置业有限公司,开发区,20181104,34.52713835999158,118.76812980670795,上品公馆,9,6582,大连顺浩置业物业有限公司,3.8,辽宁,3,二手房,2013
大连经济技术开发区时代城4-3号1-2号,大连,暂无信息,开发区,20181104,39.0992481321252,121.83007860699459,摩宿公寓,23,7664,大连远洋基业物业管理有限公司,1.5,辽宁,3,二手房,2012
大连市金州新区友谊街道和平路59-10号1-2层公建,大连,无开发商,金州,20181104,39.112168401852266,121.72006917947859,古城乙区,72,6501,无物业管理服务,-,辽宁,3,二手房,1992
大连市沙河口区西南路875号1层21号,大连,无开发商,沙河口,20181104,38.94485969061231,121.58418648447764,西南路（春柳商圈）,7,11655,大连三宝物业有限公司,0.5,辽宁,3,二手房,1990
西岗区八一路196号1-3,大连,无开发商,西岗,20181104,38.89127420834314,121.6483201412943,靠山巷,11,10175,无物业管理服务,-,辽宁,3,二手房,1990
沙河口区华北路404号,大连,无开发商,沙河口,20181104,38.8862815932937,121.59082948696123,园丁巷,3,10734,街道办事处（居委会）代管物业,0.3,辽宁,3,二手房,1990
开发区黄海西路201号107公建,大连,开发区城建局,开发区,20181104,39.04942604506828,121.80126318235419,金湖里,25,6271,大连中信物业管理有限公司,0.1,辽宁,3,二手房,1998
无门店信息,大连,大连中连房地产开发有限公司,金州,20181104,34.52713835999158,118.76812980670795,憬园河畔,18,6769,大连新生活物业管理有限公司,0.5,辽宁,3,二手房,2000
无门店信息,大连,大连金州金德房地产开发有限公司,金州,20181104,34.52713835999158,118.76812980670795,新辉小区,21,7532,大连市金州金德物业管理有限公司,0.5,辽宁,3,二手房,2005
沙河口区华新苑10号楼4号公建,大连,大连新型房地产开发有限公司,沙河口,20181104,38.921778341674376,121.58261780680284,华新苑,3,13517,大连新型物业管理有限公司,0.5,辽宁,2,二手房,2003
甘井子区迎客路郭东街一品蓝天公建14号,大连,大连福田房屋开发有限公司,甘井子,20181104,38.958456949708726,121.556756277476,隽佳欣苑,42,14788,大连安洁物业管理服务有限公司,0.5,辽宁,2,二手房,2007
开发区红梅小区19栋-2-1-1号,大连,大开中和祥房地产开发有限公司,开发区,20181104,29.906498897603264,121.5913630631805,金丰大厦,32,9034,新加坡物业管理有限公司,1.9,辽宁,3,二手房,2012
甘井子区亿家缘虹韵路205,大连,大连耕海置业有限公司,甘井子,20181104,38.95759554613104,121.5279376157567,国民院子,23,20710,大连耕海物业管理有限公司,2,辽宁,2,二手房,2012
无门店信息,大连,大连软件园瑞安发展有限公司,高新园区,20181104,34.52713835999158,118.76812980670795,大连天地悦翠台,47,13234,暂无信息,1,辽宁,2,二手房,2013
无门店信息,大连,大华集团大连置业有限公司,高新园区,20181104,34.52713835999158,118.76812980670795,大华锦绣华城四期,25,23106,大连大华物业管理有限公司,2.5,辽宁,2,二手房,2015
高新园区聚贤路36号5幢1单元1层1号,大连,大连金真源集团房地产开发有限公司,高新园区,20181104,32.31472011562832,119.46141263909165,山海一家三期,11,17240,大连龙海物业管理有限公司,1.2,辽宁,2,二手房,2010
大连市甘井子区逸林南园1-1号,大连,大连三联置业有限公司,甘井子,20181104,38.95546176066109,121.5285003794903,三鼎春天,61,21266,瑞联德（大连）物业管理有限公司,2.8,辽宁,2,二手房,2015
沙河口区五一路326号,大连,无开发商,高新园区,20181104,38.88949370884506,121.5496388331407,双语学校,17,22609,无物业管理服务,0.2,辽宁,2,二手房,1998
沙河口区黄浦路18号—5号公建,大连,大连高新技术产业园区建设开发总公司,高新园区,20181104,38.8771225143479,121.54427480390662,学府1+1,4,18371,街道办事处（居委会）代管物业,0.5,辽宁,2,二手房,2007
甘井子辛吉街150号-7号,大连,大连新星房地产开发有限公司,甘井子,20181104,38.96309956105142,121.52341678860995,新星帕尔美娜,42,14938,大连生生物业有限公司,1,辽宁,2,二手房,2009
甘井子区哲林北园17-6号,大连,大连亿达美加房地产开发有限公司,甘井子,20181104,38.9600267109581,121.53876726228256,第五郡三号地,53,23028,亿达物业管理有限公司,2.2,辽宁,2,二手房,2012
开发区红梅小区19栋-2-1-1号,大连,开发区城建局,开发区,20181104,29.906498897603264,121.5913630631805,红梅小区,45,9559,街道办事处（居委会）代管物业,0.3,辽宁,2,二手房,1995
西岗区鞍山路65-5号,大连,大连华阳房地产开发有限公司,沙河口,20181104,38.92701992456326,121.60258216167713,华阳风尚,10,14243,北京凯莱物业管理有限公司大连分公司,1.2,辽宁,2,二手房,2009
甘井子区红南东街7-7号,大连,大连良运房地产开发有限公司,甘井子,20181104,38.92880462247992,121.54144910207062,山居笔记,23,15361,大连良运物业管理有限公司,1.5,辽宁,2,二手房,2009
沙河口区锦虹北园38-3-1-1,大连,大连锦绣房地产开发有限公司,沙河口,20181104,38.95230821928003,121.55503724232328,锦城园C区,23,12259,大连锦绣物业管理有限公司,0.6,辽宁,2,二手房,2006
无门店信息,大连,大连软件园安博开发有限公司,高新园区,20181104,34.52713835999158,118.76812980670795,亿达普罗旺斯,46,18743,亿达物业管理有限公司,2.6,辽宁,2,二手房,2014
甘井子区西南路979-7号公建,大连,大连祥盛房屋开发有限公司,甘井子,20181104,38.96275592929325,121.5958698791777,金盛家园,27,17286,大连宏华物业管理有限公司,0.5,辽宁,2,二手房,2001
甘井子区中华路泉水A1区86号4单元1层1号,大连,大连科技园房地产开发有限公司,甘井子,20181104,39.0040066317761,121.60658685435251,奥林园,55,13214,大连衡德物业管理有限公司,0.5,辽宁,2,二手房,2004
中山区爱华街13号,大连,大连汇邦置业有限公司,中山,20181104,38.92541607518685,121.6535728031028,汇邦中心,25,46015,大连新昌物业管理有限公司,4.2,辽宁,2,二手房,2012
中山区华乐街93—1号,大连,大连环海房地产开发有限公司,中山,20181104,38.921950924512124,121.68673151242629,华乐环海花园,17,21158,大连景和物业管理有限公司,1.1,辽宁,2,二手房,2004
高新园区聚贤路36号5幢1单元1层1号,大连,大连海创房地产开发有限公司,高新园区,20181104,32.31472011562832,119.46141263909165,谷歌里,41,13776,大连海创物业管理有限公司,1.2,辽宁,2,二手房,2009
开发区润海园中区30-1,大连,华润（大连）房地产有限公司,开发区,20181104,39.04047273176333,121.76392358042445,华润海中国三期,134,13335,华润物业（大连）有限公司,3.1,辽宁,2,二手房,-
沙河口区南沙街36号台二2号1-1-37,大连,大连康加立置业有限公司,沙河口,20181104,38.90741410359388,121.57685699961822,台四小区,37,12657,大连弘达物业管理有限公司,-,辽宁,2,二手房,1996
开发区兴城路29-81层,大连,大连亿锋集团有限公司,开发区,20181104,39.05020829677517,121.7578103751747,亿锋广场三期,38,14027,大连广恒物业管理有限公司,2.8,辽宁,2,二手房,2015
西岗区大同街125号,大连,大连新型房地产开发有限公司,西岗,20181104,38.920458602340894,121.61445835429899,银寰花园,23,9754,街道办事处（居委会）代管物业,0.5,辽宁,2,二手房,1995
大连市甘井子区燕南园50号,大连,大连鑫园房屋开发有限公司,高新园区,20181104,38.90172480153224,121.5363466289672,新新园一期,17,13252,大连理工物业管理中心,0.3,辽宁,2,二手房,2000
高新园区敬贤街25-9,大连,大连东盛房地产开发有限公司,高新园区,20181104,38.86877373541043,121.52975162654023,东盛启城,23,16761,大连东盛物业管理有限公司,2.3,辽宁,2,二手房,2012
高新园区敬贤街25-9,大连,大连邦盛发展有限公司,高新园区,20181104,38.86877373541043,121.52975162654023,雯君庭,24,19965,大连意美物业服务有限公司,2.3,辽宁,2,二手房,2013
甘井子区泉水P3区35-2号,大连,大连天意房地产开发有限公司,甘井子,20181104,39.01527710332192,121.63580499384456,金地檀溪,71,14810,大连金地物业管理有限公司,2.8,辽宁,2,二手房,2014
甘井子区红南东街7-7号,大连,大连大实企业集团房屋开发有限公司,甘井子,20181104,38.92880462247992,121.54144910207062,泊林和山,24,12314,大连弘实物业管理有限公司,0.6,辽宁,2,二手房,2007
甘井子辛吉街150号-7号,大连,大连新星房地产开发有限公司,甘井子,20181104,38.96309956105142,121.52341678860995,新星绿城三期,45,12309,大连生生物业管理有限公司,0.5,辽宁,2,二手房,2006
沙河口区新生路万客园3-7,大连,大连中海兴业房地产开发有限公司,沙河口,20181104,38.94412875710208,121.57006756704837,中海天赋山一期,18,21370,大连中海物业管理有限公司,2.8,辽宁,2,二手房,2016
中山区共建巷61号,大连,大连恒盛房屋开发有限公司,中山,20181104,38.91828093658718,121.66259221532148,月恒花园,6,28040,大连佳捷物业管理有限公司,0.8,辽宁,2,二手房,2001
甘井子区红旗西路104-7,大连,大连盛达基业房地产开发有限公司,甘井子,20181104,38.940012695252975,121.52780738260293,依山云水,21,14106,大连盛新物业管理有限公司,0.4,辽宁,2,二手房,2004
无门店信息,大连,大连软件园世通开发有限公司,高新园区,20181104,34.52713835999158,118.76812980670795,亿达普罗旺斯二期,50,16367,亿达物业管理有限公司,2.6,辽宁,2,二手房,2014
甘井子区锦城东园1号3单元1层2号,大连,大连鹏生房地产开发有限公司,甘井子,20181104,38.952805477462775,121.55656194973994,鹏辉新纪元,18,15803,大连鹏辉物业管理有限公司,0.5,辽宁,2,二手房,2006
西岗区鞍山路65-5号,大连,大连恒利房屋开发有限公司,沙河口,20181104,38.92701992456326,121.60258216167713,中长花园,15,12628,大连金星物业管理中心,0.5,辽宁,2,二手房,2000
大连市甘井子区椒房街24号楼2-104链家地产,大连,大连圣韬房地产开发有限公司,甘井子,20181104,38.985363789837166,121.61034055597686,万福山庄,21,13744,大连海旭物业管理有限公司,0.5,辽宁,2,二手房,2005
西岗区香炉礁24号1-1,大连,中瑞置业（大连）有限公司,西岗,20181104,38.91336952993919,121.6258229781024,香周首府,42,16812,中融物业管理有限公司,3,辽宁,2,二手房,2014
甘井子区泉水D6区51号,大连,大连时代房地产开发有限公司,甘井子,20181104,39.00897610161069,121.61789300655198,富士庄园,55,14146,大连佳泰物业管理有限公司,1.2,辽宁,2,二手房,2006
甘井子区泉水E1区27号-3公建,大连,大连百思泰置业有限公司,甘井子,20181104,39.002846129004375,121.61312453141336,钰桥中央庭院,38,15883,大连百嘉物业管理有限公司,1.8,辽宁,2,二手房,2014
中山区北斗街53号1层1号,大连,大连万众房屋开发有限公司,中山,20181104,38.92727355733075,121.67002970974048,清华园(中山),19,17322,大连万众物业有限公司,1.7,辽宁,2,二手房,2003
沙河口区星海广场B3区14-2号1层,大连,大连万达房地产开发有限公司,沙河口,20181104,38.88693148294673,121.58735631267305,大连明珠,49,22694,大连万象美物业管理有限公司,3.5,辽宁,2,二手房,2008
中山区华乐街107-115号1单元1层2号,大连,大连华旭置业有限公司,中山,20181104,38.92093821499401,121.68879267531725,东港第,18,26069,大连华锐世纪物业管理有限公司,3,辽宁,2,二手房,2015
沙河口区黄浦路18号—5号公建,大连,大连高新技术产业园区建设开发总公司,高新园区,20181104,38.8771225143479,121.54427480390662,学府1+1公寓,11,15088,街道办事处（居委会）代管物业,0.6,辽宁,2,二手房,2007
西岗区黄河路90号公建部分,大连,无开发商,西岗,20181104,38.92234529815978,121.62829331825485,37中合谊街,9,15060,无物业管理服务,-,辽宁,2,二手房,1993
中山区同心街72号1楼公建,大连,无开发商,中山,20181104,38.91979245940674,121.64769198230202,南山里,13,14327,无物业管理服务,-,辽宁,2,二手房,1990
沙河口区连山街44-2号半地下一层（地上一层部分）,大连,大连亿达房地产股份有限公司,沙河口,20181104,38.892991456958086,121.57299542767161,星海小区,15,11720,无物业管理服务,-,辽宁,2,二手房,1996
甘井子区泉水D1区10-2#1-1-7,大连,大连运达房地产集团有限公司,甘井子,20181104,39.014763910942854,121.61661407462454,锦泉源B4区,33,11669,大连佳泰物业管理有限公司,0.5,辽宁,2,二手房,2002
金州区小平岛B组团4号楼3号商铺,大连,大连圣岛房地产开发有限公司,高新园区,20181104,39.2986190718601,121.95658248043723,小平岛揽海名寓,22,18274,大连凯尔富物业管理有限公司,1.7,辽宁,2,二手房,2010
中山区爱华街13号,大连,无开发商,中山,20181104,38.92541607518685,121.6535728031028,39中安阳街,31,25031,无物业管理服务,-,辽宁,2,二手房,1993
大连市甘井子区融田西园52-11,大连,大连圣安房地产开发有限公司,甘井子,20181104,38.95546176066109,121.5285003794903,亿达春田晴湾,58,15352,亿达物业管理有限公司,2.2,辽宁,2,二手房,2013
中山区民运巷 47号1层2号,大连,大连连城房地产开发有限公司,中山,20181104,38.905955122300846,121.64798148011702,葵英林苑,4,17598,无物业管理服务,-,辽宁,2,二手房,2005
沙河口区兰田街33号,大连,渤海恒达房屋开发有限公司,沙河口,20181104,38.926138912221084,121.56486022834609,西苑小区,22,11059,大连西苑物业管理有限公司,0.3,辽宁,2,二手房,1997
高新园区红凌路732-4号,大连,大华集团大连房地产开发有限公司,高新园区,20181104,38.90158813547366,121.53265954348016,大华爱琴湾,21,19630,大连大华物业管理有限公司,1.8,辽宁,2,二手房,2010
金州区小平岛B组团4号楼3号商铺,大连,大连圣岛房地产开发有限公司,高新园区,20181104,39.2986190718601,121.95658248043723,小平岛海悦山,49,18461,大连凯尔富物业管理有限公司,1.3,辽宁,2,二手房,2011
沙河口区黑石礁街5号1层1号,大连,无开发商,沙河口,20181104,38.879813345473714,121.56313742300513,黑石礁广场,29,12722,无物业管理服务,-,辽宁,2,二手房,1992
甘井子区虹城路503号1-1号,大连,大连易和房地产集团有限公司,甘井子,20181104,38.981193588625004,121.49964051837122,岭秀滨城悦和中园,31,14310,大连易兴物业服务有限公司,1.3,辽宁,2,二手房,2009
甘井子区山东路398号,大连,大连盛铭资产管理有限公司,甘井子,20181104,38.99821826443242,121.59274974973462,亿合城,62,17955,大连盛安物业管理有限公司,1.5,辽宁,2,二手房,2013
大连市甘井子区钻石湾和信园13-5,大连,远洋地产有限公司,甘井子,20181104,38.95806887148857,121.62117199773128,远洋钻石湾二期,35,21655,大连远洋基业物业管理有限公司,3.2,辽宁,2,二手房,2015
西岗区黄河路90号公建部分,大连,暂无信息,西岗,20181104,38.92234529815978,121.62829331825485,实验小学市场街,44,23437,无物业管理服务,-,辽宁,2,二手房,1990
西岗区平等街21号1层2号,大连,辽宁宁安房地产开发有限公司,西岗,20181104,38.92251066253164,121.63236845125735,赛维利大厦,20,19377,大连良玖物业管理有限责任公司,1.5,辽宁,2,二手房,2004
沙河口区民权街324号,大连,暂无信息,沙河口,20181104,38.92064616208148,121.59777611850379,79中民权小区,15,14484,大连福港物业管理有限公司,0.2,辽宁,2,二手房,1997
经济技术开发区红星海-A区81-2号1层,大连,远洋地产有限公司,开发区,20181104,39.027851194371685,121.80327394132297,红星海一期城市别馆,80,12510,大连远洋基业物业管理有限公司,0.5,辽宁,2,二手房,2010
大连市沙河口区五四路199-4号,大连,中航国际中航地产,沙河口,20181104,38.907987066040505,121.60249214877012,中航国际广场,21,21202,中航物业管理有限公司大连分公司,2.5,辽宁,2,二手房,2017
甘井子区虹城路503号1-1号,大连,大连易和房地产集团有限公司,甘井子,20181104,38.981193588625004,121.49964051837122,岭秀滨城悦和西园,16,12193,大连易兴物业服务有限公司,1.3,辽宁,2,二手房,2009
甘井子区惠泽南园3-4号,大连,大连全统房地产开发有限公司,甘井子,20181104,38.939326611323615,121.52337842113351,全统西山丽水,14,13195,大连新华物业管理有限公司,0.5,辽宁,2,二手房,2008
甘井子区佳林北园2-7号,大连,大连加尔伦房地产开发有限公司,甘井子,20181104,38.96331610956877,121.52802328494242,万科金域华府,26,20780,大连万科物业服务有限公司,3,辽宁,2,二手房,2016
沙河口区锦霞南园1号1层公建,大连,大连锦绣房地产开发有限公司,沙河口,20181104,38.921778341674376,121.58261780680284,锦虹南园,16,9690,大连锦绣物业管理有限公司,0.3,辽宁,2,二手房,1998
沙河口区西南路643号,大连,无开发商,沙河口,20181104,38.943483429804665,121.5833555851182,北甸街,36,10571,无物业管理服务,-,辽宁,2,二手房,1985
中山区同心街72号1楼公建,大连,大连振屹房屋开发有限公司,中山,20181104,38.91979245940674,121.64769198230202,城市广场,25,15027,大连振屹物业有限公司,3.5,辽宁,2,二手房,2006
甘井子区宜居园10-1号房屋,大连,大连万科置业有限公司,甘井子,20181104,39.000039431463165,121.52111738616489,万科现在城,7,14726,暂无信息,2.2,辽宁,2,二手房,2015
金州区同济路44号,大连,大连永乐房地产开发有限公司,金州,20181104,39.10476859984152,121.71234684495865,永乐金庭,26,8382,大连天河物业管理有限公司,0.8,辽宁,2,二手房,2006
开发区鹏程家园66#-6、66#-7公建,大连,大连新天润企业集团有限公司,开发区,20181104,38.90045524508753,121.63339362744885,水御兰庭,26,9810,大连港力物业管理有限公司,1.1,辽宁,2,二手房,2007
甘井子区泉水P3区35-2号,大连,大连鑫成置业有限公司,甘井子,20181104,39.01527710332192,121.63580499384456,欧尚广场,42,15576,大连宏华物业服务有限公司,1.5,辽宁,2,二手房,2014
中山区民运巷 47号1层2号,大连,无开发商,中山,20181104,38.905955122300846,121.64798148011702,民运巷,16,9583,无物业管理服务,-,辽宁,2,二手房,1996
沙河口区红凌路137号,大连,大连大实企业集团房屋开发有限公司,甘井子,20181104,38.922699288974506,121.54713601744747,泊林阳光B区,8,13573,大连弘实物业管理有限公司,0.6,辽宁,2,二手房,2007
开发区金马路169-2-6号房屋,大连,大连亿锋集团有限公司,开发区,20181104,39.055616222703364,121.78435683280883,铜锣湾,31,10839,亿锋豪景物业管理有限公司,1.5,辽宁,2,二手房,2004
中山区金城街26号一楼,大连,无开发商,中山,20181104,38.922282529515634,121.65214466263014,39中南山街,7,23976,无物业管理服务,-,辽宁,2,二手房,1995
大连市甘井子区丰收路3-5号,大连,大连铁路房地产开发有限责任公司,甘井子,20181104,38.965377255081755,121.58288415324094,王家桥小区,19,11525,大连铁路物业管理有限公司,0.1,辽宁,2,二手房,1990
开发区红星海-B区89-1号,大连,暂无信息,开发区,20181104,39.027851194371685,121.80327394132297,红星海一期艺墅,43,14569,大连远洋基业物业管理有限公司,0.5,辽宁,2,二手房,2009
无门店信息,大连,大连唐银盛兴置业有限公司,开发区,20181104,34.52713835999158,118.76812980670795,钻石9座,31,9733,大连佳家物业管理有限公司,1.5,辽宁,2,二手房,2014
沙河口区数码路(北段)20-6号,大连,大连软景房地产开发有限公司,高新园区,20181104,38.890045799133254,121.55191912957606,亿达软景中心,17,20757,亿达物业管理有限公司,3.5,辽宁,2,二手房,2014
沙河口区前程街46号4—1—2号,大连,大连渤海红旗集团有限公司,甘井子,20181104,38.921778341674376,121.58261780680284,彩霞园,10,10329,渤海吉祥物业管理有限公司,0.4,辽宁,2,二手房,2000
中山区安居巷7号,大连,大连长荣房屋开发有限公司,中山,20181104,38.900436431991984,121.67796628922625,休斯顿公寓,19,12585,大连长荣物业管理有限公司,2.6,辽宁,2,二手房,2003
开发区杏花里13#楼-7号,大连,大连经济技术开发区城市建设开发有限公司,开发区,20181104,31.31075067906954,120.63127837058457,颐华园,15,7952,大连经济技术开发区杏林物业管理有限公司,0.3,辽宁,2,二手房,2005
无门店信息,大连,暂无信息,沙河口,20181104,34.52713835999158,118.76812980670795,中海天赋山二期,15,17962,大连中海物业管理有限公司,2.8,辽宁,2,二手房,2017
沙河口区中山路552-1-1公建,大连,大连绿城房地产开发有限公司,沙河口,20181104,38.90339064542996,121.593567176308,深蓝中心,21,16810,绿城物业服务集团有限公司大连分公司,4.9,辽宁,2,二手房,2012
沙河口区前程街46号4—1—2号,大连,大连渤海红旗集团有限公司,甘井子,20181104,38.921778341674376,121.58261780680284,里程巷,22,9264,大连台安物业管理中心,0.4,辽宁,2,二手房,1990
开发区高新里6栋-8,大连,无开发商,开发区,20181104,39.0710895068195,121.82860134358343,怡海花园二期,25,7369,街道办事处（居委会）代管物业,0.2,辽宁,2,二手房,2002
无门店信息,大连,大连航宇房屋开发有限公司,甘井子,20181104,34.52713835999158,118.76812980670795,西郊棠梨园,17,11091,渤海吉祥物业管理有限公司,0.5,辽宁,2,二手房,2007
开发区安盛里5栋-4,大连,大连万晟房地产开发有限公司,开发区,20181104,23.112106678834838,113.27801046214822,宜家大院,16,8933,大连万晟置业有限公司,0.8,辽宁,2,二手房,2002
沙河口区绿清街12号,大连,无开发商,沙河口,20181104,38.93851335419565,121.57334844377094,绿波B区,18,9046,街道办事处（居委会）代管物业,0.1,辽宁,2,二手房,1992
金州区凤翔路220号,大连,大连鸿玮置业有限公司,金州,20181104,39.08410553937731,121.77700083356399,鸿玮澜山一期,19,13458,大连鸿玮物业服务有限公司,1.8,辽宁,2,二手房,2009
甘井子区山东路127-2号,大连,无开发商,甘井子,20181104,38.99065559549029,121.59126483545545,七迎路,21,11098,街道办事处（居委会）代管物业,0.2,辽宁,2,二手房,1995
中山区民建街10号1单元1号,大连,无开发商,中山,20181104,38.925444479476894,121.66915026954452,39中金域朝阳,4,16048,无物业管理服务,-,辽宁,2,二手房,2000
中山区职工街96号1-3层公建,大连,无开发商,中山,20181104,38.92565613737007,121.66193575790903,39中开源巷,9,23763,街道办事处（居委会）代管物业,0.5,辽宁,2,二手房,1990
开发区大开高吉里33栋6号,大连,大连开建集团有限公司,开发区,20181104,39.07355836059941,121.8280439450145,高城北花园,25,7361,大连经济技术开发区聚盛达物业管理有限公司,0.2,辽宁,2,二手房,1998
甘井子区泉水P3区35-2号,大连,大连半岛集团有限公司,甘井子,20181104,39.01527710332192,121.63580499384456,半岛泉水欣座,20,14382,大连半岛物业管理有限公司,1.5,辽宁,2,二手房,2010
中山区清溪南街11号,大连,大连锦绣房地产开发有限公司,中山,20181104,38.88919604283904,121.66466481004835,秀月广场,18,11035,无物业管理服务,0.5,辽宁,2,二手房,1994
沙河口区西南路643号,大连,大连澳南房屋开发公司,沙河口,20181104,38.943483429804665,121.5833555851182,金福小区,13,10652,无物业管理服务,-,辽宁,2,二手房,2000
中山区解放路604号,大连,无开发商,中山,20181104,38.89026319122045,121.66407876092346,鸣鹤街,3,13793,街道办事处（居委会）代管物业,0.5,辽宁,2,二手房,1998
开发区翠竹小区33栋4-1-1号,大连,暂无信息,开发区,20181104,30.635492106460237,119.69169575745704,翠竹中区,26,8584,嘉兴物业管理有限公司,0.3,辽宁,2,二手房,1996
大连市金州新区友谊街道和平路59-10号1-2层公建,大连,无开发商,金州,20181104,39.112168401852266,121.72006917947859,和平小区,19,8151,街道办事处（居委会）代管物业,0.5,辽宁,2,二手房,1996
甘井子区红旗中路143号1层4号,大连,大连科宏房屋开发有限公司,甘井子,20181104,38.93169566676921,121.5426632438217,海港楼,21,7888,大连科海物业有限公司,0.2,辽宁,2,二手房,1996
沙河口区锦江园33号公建5-8轴,大连,大连锦绣房地产开发有限公司,沙河口,20181104,38.921778341674376,121.58261780680284,锦绣小高层,6,12963,大连锦绣物业管理有限公司,0.6,辽宁,2,二手房,2000
开发区红梅小区19栋-2-1-1号,大连,大连开发区世元房地产开发有限公司,开发区,20181104,29.906498897603264,121.5913630631805,世元国际公寓,39,10258,大连世元物业管理有限公司,2,辽宁,2,二手房,2009
甘井子区祥龙街2号楼1单元1楼1号,大连,暂无信息,甘井子,20181104,38.988045874482445,121.60439401971377,华南商业大厦,11,7332,暂无信息,1.4,辽宁,2,二手房,2007
西岗区长春路334号,大连,无开发商,西岗,20181104,38.89807766522607,121.63221082858387,新城街（石道街商圈）,7,9619,无物业管理服务,-,辽宁,2,二手房,1989
金州区站前街道盛滨花园B区13号楼2号公建,大连,大连阿尔滨集团房地产开发有限公司,金州,20181104,39.09609011892329,121.7335816409767,盛滨花园C区,14,7322,大连阿尔滨集团物业管理有限公司,0.4,辽宁,2,二手房,1999
中山区山屏街116号1-1,大连,无开发商,中山,20181104,38.90729438486833,121.68598159980013,怡梦园,5,13532,无物业管理服务,-,辽宁,2,二手房,1900
甘井子区山东路137号,大连,无开发商,甘井子,20181104,38.99129404608926,121.59172125999353,天河路,10,10010,街道办事处（居委会）代管物业,0.1,辽宁,2,二手房,1998
中山区山屏街116号1-1,大连,大连中信海港投资有限公司,中山,20181104,38.90729438486833,121.68598159980013,山峦街,6,12375,无物业管理服务,-,辽宁,2,二手房,1990
西岗区长春路334号,大连,无开发商,西岗,20181104,38.89807766522607,121.63221082858387,石峰街,14,10012,大连大众物业管理有限公司,0.3,辽宁,2,二手房,1995
金州区同济路44号,大连,大连阿尔滨中辰置业有限公司,金州,20181104,39.10476859984152,121.71234684495865,瀛海金洲,54,7999,大连阿尔滨汇城物业服务有限公司,0.5,辽宁,2,二手房,2011
金州区同济路44号,大连,无开发商,金州,20181104,39.10476859984152,121.71234684495865,永乐铭庭,12,7502,无物业管理服务,-,辽宁,2,二手房,2010
开发区黄海西路201号107公建,大连,无开发商,开发区,20181104,39.04942604506828,121.80126318235419,倚平里,15,7958,街道办事处（居委会）代管物业,0.5,辽宁,2,二手房,2000
无门店信息,大连,暂无信息,甘井子,20181104,34.52713835999158,118.76812980670795,山宝花园,29,19309,无物业管理服务,-,辽宁,2,二手房,1995
沙河口区连山街10号2-1-2,大连,大连城市建设集团有限公司,沙河口,20181104,38.89637522563413,121.57143690983219,星苑小区,13,10338,大连城建开发集团物业管理有限公司,0.2,辽宁,2,二手房,1994
开发区正恒园1-16,大连,大连富华房地产有限公司,开发区,20181104,39.04823944344617,121.76165468797754,正泰园A区,16,11355,嘉泰物业管理有限公司,1.9,辽宁,2,二手房,2012
开发区兴城路29-81层,大连,中合北大荒（大连）置业有限公司,开发区,20181104,39.05020829677517,121.7578103751747,银帆国际,14,10162,大连中合物业管理有限公司,2,辽宁,2,二手房,2015
无门店信息,大连,大连圣北开发有限公司,中山,20181104,34.52713835999158,118.76812980670795,亿达云集,78,19706,亿达物业管理有限公司,1.9,辽宁,2,二手房,2015
无门店信息,大连,大连海脉房地产开发有限公司,金州,20181104,34.52713835999158,118.76812980670795,海脉未来城,16,8186,大连豪斯威物业管理有限公司,1,辽宁,2,二手房,2013
开发区东北三街94号1层,大连,大连万瑞达房地产投资有限公司,开发区,20181104,39.05723508011585,121.80570768630555,万瑞达国际公馆,6,7303,大连万瑞达物业管理公司,1.2,辽宁,2,二手房,2012
甘井子区甘井子路32号楼1单元1楼9号,大连,无开发商,甘井子,20181104,38.982488275116516,121.63345389253514,新街,19,8949,无物业管理服务,-,辽宁,2,二手房,1988
西岗区绕山路31号公建一层东侧,大连,无开发商,西岗,20181104,38.90257514466717,121.61412736644739,和云巷,8,10640,无物业管理服务,-,辽宁,2,二手房,1990
无门店信息,大连,暂无信息,甘井子,20181104,34.52713835999158,118.76812980670795,鹏辉新世纪四期,49,14726,大连鹏辉物业管理有限公司,0.6,辽宁,2,二手房,2003
中山区鲁迅路184号1层B—A,大连,大连绿地新城置业有限公司,中山,20181104,38.92590875965419,121.67594393403164,大连绿地中心,9,16852,上海科瑞物业管理发展有限公司大连第二分公司,4.2,辽宁,2,二手房,2015
中山区北斗街53号1层1号,大连,暂无信息,中山,20181104,38.92727355733075,121.67002970974048,39中港湾街,3,20521,暂无信息,-,辽宁,2,二手房,-
无门店信息,大连,暂无信息,甘井子,20181104,34.52713835999158,118.76812980670795,松江路（80中）,28,12709,大连新华物业管理有限公司,-,辽宁,2,二手房,1993
甘井子区华北路花锦园28号23-3-1-2建筑物,大连,无开发商,甘井子,20181104,38.951627958411166,121.5739439799003,华北路（周水子商圈）,2,14409,无物业管理服务,-,辽宁,2,二手房,1995
南山路50号,大连,无开发商,中山,20181104,38.92027296196962,121.6483012768786,友好路,7,17856,无物业管理服务,-,辽宁,2,二手房,1990
无门店信息,大连,暂无信息,旅顺口,20181104,34.52713835999158,118.76812980670795,荷塘悦色,16,9139,暂无信息,-,辽宁,2,二手房,-
金州区南棉路310号,大连,大连阿尔滨集团房地产开发有限公司,金州,20181104,39.09939229372624,121.72414976100345,荣盛小区,3,9446,街道办事处（居委会）代管物业,1,辽宁,2,二手房,2009
无门店信息,大连,无开发商,金州,20181104,34.52713835999158,118.76812980670795,永安四季,18,6437,无物业管理服务,0.5,辽宁,2,二手房,2012
西岗区八一路102号,大连,无开发商,西岗,20181104,38.891094924332045,121.65327483516513,长春街,7,10834,无物业管理服务,-,辽宁,2,二手房,1997
中山区高尚路28-1号,大连,无开发商,中山,20181104,38.892673425111305,121.67148833870213,宪卫里,25,9430,无物业管理服务,0.5,辽宁,2,二手房,1994
中山区同心街72号1楼公建,大连,无开发商,中山,20181104,38.91979245940674,121.64769198230202,万家巷（昆明街）,11,15385,无物业管理服务,0.5,辽宁,2,二手房,1991
甘井子区华东路33-5号,大连,无开发商,甘井子,20181104,38.97497080220593,121.59479866243332,华东路（金三角商圈）,9,9731,无物业管理服务,0.5,辽宁,2,二手房,1995
开发区黄海西路201号107公建,大连,无开发商,开发区,20181104,39.04942604506828,121.80126318235419,岗松里小区,41,7342,大连经济技术开发区海青物业有限公司,0.5,辽宁,2,二手房,2000
中山区鲁迅路184号1层B—A,大连,无开发商,中山,20181104,38.92590875965419,121.67594393403164,海滨住宅小区（寺儿沟商圈）,8,12923,无物业管理服务,-,辽宁,2,二手房,1995
金州区同济路44号,大连,大连金州金山房地产开发有限公司,金州,20181104,39.10476859984152,121.71234684495865,金山小区,47,6791,大连金山物业管理有限公司,-,辽宁,2,二手房,2009
金州新区八一路金都嘉园1号楼1号公建,大连,大连市金州区房屋开发公司,金州,20181104,39.05525210261778,121.74865634199398,古城丁区,56,7292,街道办事处（居委会）代管物业,0.1,辽宁,2,二手房,1993
沙河口区西南路851号3单元1层3号,大连,暂无信息,沙河口,20181104,38.94344210837944,121.58246796944378,凌山三街,2,10171,暂无信息,-,辽宁,2,二手房,-
西岗区绕山路28号1层1号,大连,无开发商,西岗,20181104,38.90352859160372,121.61547503761078,连界巷,1,11748,无物业管理服务,-,辽宁,2,二手房,1991
西岗区八一路102号,大连,无开发商,中山,20181104,38.891094924332045,121.65327483516513,光风街,1,9778,无物业管理服务,-,辽宁,2,二手房,1993
金州区站前街道盛滨花园B区13号楼2号公建,大连,无开发商,金州,20181104,39.09609011892329,121.7335816409767,金源花园小区,14,6994,街道办事处（居委会）代管物业,0.5,辽宁,2,二手房,1998
金州新区八一路金都嘉园1号楼1号公建,大连,无开发商,金州,20181104,39.05525210261778,121.74865634199398,永安小区,16,6234,无物业管理服务,0.5,辽宁,2,二手房,1999
金州新区八一路金都嘉园1号楼1号公建,大连,无开发商,金州,20181104,39.05525210261778,121.74865634199398,古城丙区,21,7573,街道办事处（居委会）代管物业,0.5,辽宁,2,二手房,1997
金州区站前街道盛滨花园B区13号楼2号公建,大连,无开发商,金州,20181104,39.09609011892329,121.7335816409767,联胜小区,23,6533,街道办事处（居委会）代管物业,0.5,辽宁,2,二手房,1995
西岗区黄河路82号,大连,无开发商,西岗,20181104,38.92243503020161,121.6287927913896,双兴北巷,11,9212,街道办事处（居委会）代管物业,0.5,辽宁,2,二手房,1995
中山区中青街87号一单元107,大连,无开发商,中山,20181104,38.90213494248529,121.65806522267005,中青街,5,11894,无物业管理服务,-,辽宁,2,二手房,1996
无门店信息,大连,暂无信息,甘井子,20181104,34.52713835999158,118.76812980670795,鹏辉新世纪三期北园,26,16789,大连鹏辉物业管理有限公司,0.6,辽宁,2,二手房,2003
西岗区八一路196号1-3,大连,无开发商,西岗,20181104,38.89127420834314,121.6483201412943,三环街（八一路商圈）,3,12104,无物业管理服务,-,辽宁,2,二手房,1990
金州区拥政街道733号-8号1-2层,大连,大连市金州区房屋开发公司,金州,20181104,39.11690610445662,121.73030803603723,桂林小区,36,6785,街道办事处（居委会）代管物业,0.5,辽宁,2,二手房,1993
金州区南棉路310号,大连,无开发商,金州,20181104,39.09939229372624,121.72414976100345,金色华庭,23,6811,大连阿尔滨集团物业管理有限公司,-,辽宁,2,二手房,2008
中山区高尚路28-1号,大连,大连华南地产开发有限公司,中山,20181104,38.892673425111305,121.67148833870213,环山街,11,9715,街道办事处（居委会）代管物业,0.5,辽宁,2,二手房,1994
沙河口区西南路851号3单元1层3号,大连,无开发商,沙河口,20181104,38.94344210837944,121.58246796944378,春柳街,7,10501,街道办事处（居委会）代管物业,0.1,辽宁,2,二手房,1985
沙河口区黄河路535号,大连,大连城市建设集团有限公司,沙河口,20181104,38.91773777159567,121.60217159922856,79中金光小区,45,31056,无物业管理服务,-,辽宁,1,二手房,1993
甘井子区玉湖街25号2单元1层3号,大连,暂无信息,甘井子,20181104,38.97626265183615,121.54617349027997,玉水街,6,8252,无物业管理服务,-,辽宁,2,二手房,1988
无门店信息,大连,暂无信息,西岗,20181104,34.52713835999158,118.76812980670795,34中民众街,10,24604,暂无信息,-,辽宁,2,二手房,1990
高新园区书香街1A#1-1-2,大连,大连金弘基房地产开发有限公司,高新园区,20181104,38.880372108393104,121.55218773010999,弘基一期,22,18373,大连金弘基物业管理有限公司,0.6,辽宁,1,二手房,2001
沙河口区联合路133号,大连,无开发商,沙河口,20181104,38.91608561262676,121.60480987310456,79中永平,100,28729,无物业管理服务,-,辽宁,1,二手房,1994
沙河口区联合路133号,大连,大连新型房地产开发有限公司,沙河口,20181104,38.91608561262676,121.60480987310456,21中天兴花园一期,21,17632,大连万泰物业管理有限公司,0.5,辽宁,1,二手房,1998
沙河口区联合路133号,大连,大连万达房地产开发有限公司,沙河口,20181104,38.91608561262676,121.60480987310456,79中万泰花园,31,27098,大连万泰物业管理有限公司,0.8,辽宁,1,二手房,1998
高新园区敬贤街25-9,大连,中海东丰地产（大连）有限公司,高新园区,20181104,38.86877373541043,121.52975162654023,中海紫御观邸一期,9,23449,大连中海物业管理有限公司,2.6,辽宁,1,二手房,2013
西岗区北岗街新康巷19-1号公建,大连,大连铁路房地产开发有限责任公司,西岗,20181104,38.9306759109621,121.61509567690577,龙畔锦城,36,20691,大连亚航物业管理有限公司,1.2,辽宁,1,二手房,2009
高新园区硅谷假日小区25号楼地下室,大连,大连鑫亿房屋开发有限公司,高新园区,20181104,38.865995717263544,121.53771220335938,硅谷假日,50,18257,大连斌弘物业管理有限公司,0.8,辽宁,1,二手房,2005
沙河口区五一路177-1-1-1,大连,大华集团大连房地产开发有限公司,沙河口,20181104,38.90485271510574,121.57313607267041,大华御庭,38,17609,大连乐尔居物业服务有限公司,1.4,辽宁,1,二手房,2009
中山区华乐街107-115号1单元1层2号,大连,大连海昌房地产开发有限公司,中山,20181104,38.92093821499401,121.68879267531725,海昌欣城,76,16053,大连海昌欣城物业管理有限公司,1.2,辽宁,1,二手房,2002
甘井子区西南路芳茗园30号楼,大连,大连东北房屋开发有限公司,甘井子,20181104,38.961395177040636,121.59546002818708,东北名苑,39,16024,大连国合物业管理有限公司,0.5,辽宁,1,二手房,2000
沙河口区兰田街33号,大连,大连运达房地产集团有限公司,沙河口,20181104,38.926138912221084,121.56486022834609,兰溪文苑,24,18767,大连运达物业管理有限公司,0.8,辽宁,1,二手房,2004
"西岗区泰公街20号2层7号 西岗区久寿街22号1层14号""",大连,大连润德君城房地产开发有限公司,西岗,20181104,38.92600196862723,121.62141976476381,北京公园,25,22238,大连润德物业管理有限公司,2.2,辽宁,1,二手房,2010
西岗区中山路158号唐山街市场外14号,大连,大连胜利路拓宽改造工程建设有限公司,西岗,20181104,38.91835355789945,121.63274981188985,星海绿山城,34,26339,无物业管理服务,-,辽宁,1,二手房,2015
沙河口区黄河路535号,大连,大连民兴房地产开发有限公司,沙河口,20181104,38.91773777159567,121.60217159922856,79中民兴花园二期,32,25487,大连衡德物业管理有限公司,1.2,辽宁,1,二手房,2003
沙河口区中山路417A-4号,大连,大连海孚房地产开发有限公司,沙河口,20181104,38.90734671814175,121.59482182703752,华业玫瑰东方,46,23269,深圳华业物业管理有限公司大连分公司,3.5,辽宁,1,二手房,2011
沙河口区鞍山路65号美都园7号1单元1层4号公建,大连,大连良运房地产开发有限公司,沙河口,20181104,38.92727525772336,121.60296423346817,良运缤纷四季,29,19187,大连良运物业管理有限公司,0.8,辽宁,1,二手房,2006
甘井子区促进路200号,大连,大连亿达房地产股份有限公司,甘井子,20181104,38.95810188892782,121.58530036264898,林语家话,20,22472,亿达物业管理有限公司,1.2,辽宁,1,二手房,2005
沙河口区五一路326号,大连,大连亿达房地产股份有限公司,高新园区,20181104,38.88949370884506,121.5496388331407,亿达学清园,21,23718,大连软件园物业管理有限公司,0.5,辽宁,1,二手房,2001
沙河口区知心园10号公建,大连,大连软件园开发有限公司,高新园区,20181104,38.893977135945136,121.55667141994431,亿达国际新城,26,21302,亿达物业管理有限公司,1,辽宁,1,二手房,2004
沙河口区长江路738号,大连,大连大和中盛房地产有限公司,西岗,20181104,38.92379936592553,121.61207696256155,颐和香榭,22,26891,大连颐和物业管理有限公司,2.5,辽宁,1,二手房,2008
沙河口区杨树街4-4号公建,大连,大连金弘基房地产开发有限公司,高新园区,20181104,38.88444587249751,121.55130620045541,弘基二期,30,23613,大连金弘基物业管理有限公司,0.6,辽宁,1,二手房,2003
沙河口区鞍山路65号美都园7号1单元1层4号公建,大连,大连美辰房地产开发有限公司,沙河口,20181104,38.92727525772336,121.60296423346817,丽景春天,23,17021,大连远洋基业物业管理有限公司,0.8,辽宁,1,二手房,2003
甘井子区海口路77-4号公建,大连,大连圣韬房地产开发有限公司,甘井子,20181104,38.960286398428124,121.60305183172997,万福居,51,17053,大连圣韬物业管理有限公司,0.5,辽宁,1,二手房,2006
沙河口区民权街324号,大连,大连城市建设集团有限公司,沙河口,20181104,38.92064616208148,121.59777611850379,天兴新家园,15,28454,大连天兴物业管理有限公司,0.5,辽宁,1,二手房,1999
高新园敬贤街23-11号,大连,中海东丰地产（大连）有限公司,高新园区,20181104,38.86956637166276,121.5301657390922,中海华庭,59,18703,大连中海物业管理有限公司,2,辽宁,1,二手房,2009
甘井子区锦城西园4#3-1-1,大连,大连锦绣房地产开发有限公司,甘井子,20181104,38.95286223185571,121.55129044777,锦城西园,16,17232,大连锦绣物业管理有限公司,0.6,辽宁,1,二手房,2006
西岗区康平街2号（5号楼3-1-3号）,大连,大连北洋房屋开发公司,西岗,20181104,38.91044414697888,121.61980769264477,胜利花园,18,12280,大连宏成物业管理有限公司,0.5,辽宁,1,二手房,1997
高新园区聚贤路36号5幢1单元1层1号,大连,大连海创房地产开发有限公司,高新园区,20181104,32.31472011562832,119.46141263909165,海创半山壹号,54,16048,大连海创物业管理有限公司,1.8,辽宁,1,二手房,2011
沙河口区五一路109-4号,大连,大连正源房地产开发有限公司,沙河口,20181104,38.9089272537305,121.58289867190192,幸福e家二期,19,28626,大连正源物业服务有限公司,0.7,辽宁,1,二手房,2003
沙河口区富静街26号1单元1层5号,大连,大连远东房屋开发有限公司,沙河口,20181104,38.908727606250466,121.58667844684369,世嘉星海,25,24343,大连瑞信物业管理有限公司,1.6,辽宁,1,二手房,2007
沙河口区五一路109-4号,大连,大连正源房地产开发有限公司,沙河口,20181104,38.9089272537305,121.58289867190192,幸福e家一期,20,28312,大连正源物业服务有限公司,0.8,辽宁,1,二手房,2002
沙河口区黄河路562号,大连,大连新型房地产开发有限公司,沙河口,20181104,38.9167961764482,121.60352063132478,79中科学家公寓,49,22102,大连新兴物业管理有限公司,0.8,辽宁,1,二手房,1998
沙河口区成仁街91号,大连,大连万达房地产开发有限公司,沙河口,20181104,38.91539947107844,121.59585638842556,龙祥花园,18,23557,大连万达物业管理有限公司,0.8,辽宁,1,二手房,2001
沙河口区西南路96号1层2号,大连,大连宏都房地产开发有限公司,沙河口,20181104,38.890863095482466,121.56788114713203,宏都筑景Ⅰ期,36,19806,大连东方百瑞物业管理有限公司,1.4,辽宁,1,二手房,2008
沙河口区绿清街12号,大连,大连绿波房屋开发集团有限公司,沙河口,20181104,38.93851335419565,121.57334844377094,绿波花园,27,11749,大连绿波建设发展有限公司,0.6,辽宁,1,二手房,2001
西岗区胜利路33号,大连,大连万达房地产开发有限公司,西岗,20181104,38.91309771954841,121.62500886627636,信兴花园,3,23452,大连亿安物业管理有限公司,0.5,辽宁,1,二手房,1997
大连市甘井子区丰收路3-5号,大连,大连邦德房屋开发有限公司,甘井子,20181104,38.965377255081755,121.58288415324094,芙蓉人家,41,17992,大连广丰物业管理有限公司,0.5,辽宁,1,二手房,2002
高新园区海苑街30号1单元1号公建,大连,大连大有房屋开发有限公司,高新园区,20181104,20.06392317589085,110.32302599457326,大有恬园二期,40,16000,大连家园物业有限公司,1.2,辽宁,1,二手房,2010
沙河口区五一路110-4号,大连,大连市中联房地产开发有限公司,沙河口,20181104,38.90710946686282,121.58172564480427,星海中龙园,17,17914,大连斌弘物业管理有限公司,0.6,辽宁,1,二手房,2004
沙河口区长江路738号,大连,大连民兴房地产开发有限公司,沙河口,20181104,38.92379936592553,121.61207696256155,79中民兴花园一期,6,25228,大连衡德物业管理有限公司,1.2,辽宁,1,二手房,2002
沙河口区五一路270-274号,大连,大连誉园房地产开发有限公司,高新园区,20181104,38.89104111985908,121.55325426578435,斯坦福院落,14,20639,第一太平戴维斯物业顾问（北京）有限公司大连分公司,1.2,辽宁,1,二手房,2008
高新园区红凌路732-4号,大连,大华集团大连置业有限公司,高新园区,20181104,38.90158813547366,121.53265954348016,大华锦绣华城一期,41,23504,大连大华物业管理有限公司,2.5,辽宁,1,二手房,2010
沙河口区兰田街33号,大连,大连银地置业发展有限公司,沙河口,20181104,38.926138912221084,121.56486022834609,未来星城,13,15877,大连大力物业管理有限公司,0.5,辽宁,1,二手房,2002
高新园区黄浦路600-602号,大连,大连鑫亿房屋开发有限公司,高新园区,20181104,38.86342472318123,121.53493189660259,新科花园,27,17390,大连鑫晟物业管理有限公司,0.6,辽宁,1,二手房,2003
中山区杏林街66—5号,大连,大连万达房地产开发有限公司,中山,20181104,38.9244189768098,121.6630029448549,湖畔小区,37,22991,大连万达物业管理有限公司,0.2,辽宁,1,二手房,1995
大连市甘井子区燕南园50号,大连,大连软件园发展有限公司,高新园区,20181104,38.90172480153224,121.5363466289672,东方圣克拉一期,32,23723,亿达物业管理有限公司,2.6,辽宁,1,二手房,2010
大连市甘井子中华路街道汇畅街48号,大连,远洋地产有限公司,甘井子,20181104,39.00552323996268,121.59684207363269,远洋自然,54,15039,大连远洋基业物业管理有限公司,1.3,辽宁,1,二手房,2010
甘井子区迎客路郭东街一品蓝天公建14号,大连,大连鼎新房地产开发有限公司,甘井子,20181104,38.958456949708726,121.556756277476,鼎新鼎润府,27,17066,大连鼎新物业管理有限公司,0.6,辽宁,1,二手房,2006
大连市甘井子区D1区11-3号,大连,大连运腾房地产开发有限公司,甘井子,20181104,38.95546176066109,121.5285003794903,锦泉源D1区,55,12747,大连嘉合物业管理有限公司,0.5,辽宁,1,二手房,2005
甘井子区汇仁南园42-16-3,大连,中铁建（大连）置业有限公司,甘井子,20181104,38.99932098520821,121.5897722676133,动力院景二期汇善南园,23,15360,大连铁龙安居物业管理有限公司,0.7,辽宁,1,二手房,2007
高新园敬贤街23-11号,大连,中海东丰地产（大连）有限公司,高新园区,20181104,38.86956637166276,121.5301657390922,中海紫御观邸三期,26,19176,大连中海物业管理有限公司,2.6,辽宁,1,二手房,2014
沙河口区星海广场B3区14-2号1层,大连,大连友谊合升房地产开发有限公司,沙河口,20181104,38.88693148294673,121.58735631267305,壹品星海一期,34,20459,大连友谊物业服务有限公司,1.3,辽宁,1,二手房,2005
中山区高尚路28-1号,大连,大连家园建设集团有限公司,中山,20181104,38.892673425111305,121.67148833870213,卡纳意乡,27,19084,大连四季物业服务有限公司,1.8,辽宁,1,二手房,2008
甘井子区金北街17号,大连,大连悦泰集团有限公司,甘井子,20181104,38.95546176066109,121.5285003794903,悦泰馨家,17,22691,大连优豪斯物业管理有限公司,0.5,辽宁,1,二手房,2003
沙河口区锦江园33号公建5-8轴,大连,大连鼎新美地置业有限公司,甘井子,20181104,38.921778341674376,121.58261780680284,鼎新鼎润四季,16,18927,大连中原物业代理有限公司,1.2,辽宁,1,二手房,2010
高新园区红凌路732-4号,大连,大连软件园开发有限公司,高新园区,20181104,38.90158813547366,121.53265954348016,东方圣克拉三期,21,23356,亿达物业管理有限公司,2.6,辽宁,1,二手房,2015
大连市甘井子区丰收路3-5号,大连,大连万鼎置业有限公司,甘井子,20181104,38.965377255081755,121.58288415324094,万科蓝山,16,24146,大连万科物业服务有限公司,2.9,辽宁,1,二手房,2015
西岗区鞍山路65-5号,大连,大连万益房屋开发有限公司,沙河口,20181104,38.92701992456326,121.60258216167713,万益花园,14,11942,大连自然物业管理中心,0.5,辽宁,1,二手房,2003
中山区金城街26号一楼,大连,大连万达房地产开发有限公司,中山,20181104,38.922282529515634,121.65214466263014,九中金城街,21,33078,无物业管理服务,-,辽宁,1,二手房,1992
无门店信息,大连,大华集团大连置业有限公司,高新园区,20181104,34.52713835999158,118.76812980670795,大华锦绣华城三期,36,22272,大连大华物业管理有限公司,2.5,辽宁,1,二手房,2012
西岗区鞍山路65-5号,大连,无开发商,沙河口,20181104,38.92701992456326,121.60258216167713,美辰臻品,5,15097,大连众和物业管理有限公司,1,辽宁,1,二手房,2007
中山区杏林街66—5号,大连,大连万达房地产开发有限公司,中山,20181104,38.9244189768098,121.6630029448549,明泽苑,8,27478,大连万达物业管理有限公司,2,辽宁,1,二手房,2000
甘井子区西南路芳茗园30号楼,大连,大连泰华房地产开发有限公司,甘井子,20181104,38.961395177040636,121.59546002818708,泰华府邸,8,16940,大连华安物业管理有限公司,1.5,辽宁,1,二手房,2009
西岗区北岗街新康巷19-1号公建,大连,大连铁龙房地产开发有限公司,西岗,20181104,38.9306759109621,121.61509567690577,北岗新居,8,12680,大连铁龙物业管理有限公司,0.3,辽宁,1,二手房,2002
中山区金城街26号一楼,大连,无开发商,中山,20181104,38.922282529515634,121.65214466263014,九中白兰街,15,34215,无物业管理服务,-,辽宁,1,二手房,1995
沙河口区联合路133号,大连,大连新型房地产开发有限公司,沙河口,20181104,38.91608561262676,121.60480987310456,21中联德小区,2,19868,大连新型物业管理有限公司,0.5,辽宁,1,二手房,1998
中山区华乐街71号公建,大连,大连环海房地产开发有限公司,中山,20181104,38.923187679200566,121.6843197903016,华乐小区,24,12308,大连景和物业管理有限公司,0.5,辽宁,1,二手房,2000
甘井子区华龙南园12-4-3-1-3,大连,大连长鹭房屋开发有限公司,甘井子,20181104,38.98528794231248,121.61028969481718,晶品枫林,42,14418,北京房修一物业管理有限公司,0.5,辽宁,1,二手房,2008
沙河口区连山街10号2-1-2,大连,大连宝嘉房地产有限公司,沙河口,20181104,38.89637522563413,121.57143690983219,星海名庭,7,20065,大连斌宏物业管理有限公司,0.6,辽宁,1,二手房,2005
甘井子区华北路花锦园28号23-3-1-2建筑物,大连,大连东特房地产开发有限公司,甘井子,20181104,38.951627958411166,121.5739439799003,星加坡花园,15,17700,大连东特祥禾物业管理有限公司,0.6,辽宁,1,二手房,2004
西岗区黄河路90号公建部分,大连,大连民兴房地产开发有限公司,西岗,20181104,38.92234529815978,121.62829331825485,前城国际一期,15,23375,大连前城花园物业管理有限公司,1,辽宁,1,二手房,2005
甘井子区惠泽南园3-4号,大连,大连鹏德房屋开发有限公司,甘井子,20181104,38.939326611323615,121.52337842113351,西山逸林,23,14354,大连三和住邦物业管理有限公司,1.3,辽宁,1,二手房,2009
中山区民运巷 47号1层2号,大连,大连荣泰房地产开发有限公司,中山,20181104,38.905955122300846,121.64798148011702,豪森茗家,8,21849,大连戴德梁行物业管理有限公司,2.2,辽宁,1,二手房,2008
西岗区华北路100号1层5号,大连,大连万达房地产开发有限公司,西岗,20181104,38.91336952993919,121.6258229781024,香海花园,17,14539,大连万达物业管理有限公司,0.8,辽宁,1,二手房,1999
沙河口区南沙街36号台二2号1-1-37,大连,大连鹏生房地产开发有限公司,沙河口,20181104,38.90741410359388,121.57685699961822,鹏顺园,38,23328,大连新型物业管理有限公司,0.5,辽宁,1,二手房,2001
甘井子区汇仁南园42-16-3,大连,大连铁龙房地产开发有限公司,甘井子,20181104,38.99932098520821,121.5897722676133,动力院景一期汇仁南园,15,13808,大连铁龙安居物业管理有限公司,0.7,辽宁,1,二手房,2006
甘井子区虹港路16号楼1层公建,大连,大连建园房地产开发有限公司,甘井子,20181104,38.96457808198196,121.55421052098279,城市印象,46,11797,大连天兴物业管理有限公司,1.6,辽宁,1,二手房,2011
高新园区红凌路732-4号,大连,大连亿达房地产股份有限公司,高新园区,20181104,38.90158813547366,121.53265954348016,亿达峦翠园,33,19429,亿达物业管理有限公司,1.3,辽宁,1,二手房,2009
沙河口区黄埔路427号,大连,大连名仕房地产开发有限公司,高新园区,20181104,38.921778341674376,121.58261780680284,名仕乐居,11,18506,大连万祥物业管理有限公司,1.3,辽宁,1,二手房,2008
中山区爱华街13号,大连,无开发商,中山,20181104,38.92541607518685,121.6535728031028,九中安乐街,37,34159,无物业管理服务,-,辽宁,1,二手房,1990
沙河口区星海广场B3区20—3号,大连,大连亿达房地产股份有限公司,沙河口,20181104,38.888054001818844,121.58662952422732,亿达杰特,59,15739,亿达物业管理有限公司,3.8,辽宁,1,二手房,2005
甘井子区红南东街7-7号,大连,大连均卫达房地产开发有限公司,甘井子,20181104,38.92880462247992,121.54144910207062,亲亲阳光,17,11404,大连万泰物业管理有限公司,0.5,辽宁,1,二手房,2004
沙河口区黄河路883号,大连,大连安邦房地产开发有限公司,沙河口,20181104,38.919826721475204,121.57749657966676,阳光小筑,6,17273,大连远洋基业物业管理有限公司,0.8,辽宁,1,二手房,2007
金州区小平岛B组团4号楼3号商铺,大连,大连圣岛房地产开发有限公司,高新园区,20181104,39.2986190718601,121.95658248043723,小平岛海角七号,47,19439,大连凯尔富物业管理有限公司,1.7,辽宁,1,二手房,2011
沙河口区黑石礁街3号1层1-1号,大连,大连建隆置业有限公司,沙河口,20181104,38.880058010307856,121.56313403908827,富丽庭,10,17469,达波尔酒店物业管理（大连）有限公司,2.4,辽宁,1,二手房,2010
大连市沙河口区五四路199-4号,大连,无开发商,西岗,20181104,38.907987066040505,121.60249214877012,世纪家园(西岗),1,12560,大连铁龙物业管理有限公司,0.3,辽宁,1,二手房,2000
高新园区敬贤街25-9,大连,大连家豪房地产开发有限公司,高新园区,20181104,38.86877373541043,121.52975162654023,圣托里尼,26,19098,大连斌弘物业管理有限公司,1.8,辽宁,1,二手房,2013
西岗区北岗街新康巷19-1号公建,大连,大连凯润房屋开发有限公司,西岗,20181104,38.9306759109621,121.61509567690577,景润一期,26,10208,无物业管理服务,-,辽宁,1,二手房,2000
沙河口区中山路417A-4号,大连,大连宝嘉房地产有限公司,沙河口,20181104,38.90734671814175,121.59482182703752,德源筑座,15,19449,大连乐尔居物业服务有限公司,2.2,辽宁,1,二手房,2009
大连市沙河口区五四路199-4号,大连,大连新型房地产开发有限公司,沙河口,20181104,38.907987066040505,121.60249214877012,五四小区,5,12196,大连新晨物业管理有限公司,0.5,辽宁,1,二手房,2000
大连市甘井子区钻石湾和信园13-5,大连,远洋地产有限公司,甘井子,20181104,38.95806887148857,121.62117199773128,远洋钻石湾一期,82,20607,大连远洋基业物业管理有限公司,2.7,辽宁,1,二手房,2014
高新园区火炬路18号,大连,大连千业房地产开发有限公司,高新园区,20181104,38.937738080520404,117.39340752036043,第8区,35,16330,大连大管家物业管理有限公司,1.9,辽宁,1,二手房,2012
中山区爱华街13号,大连,威新房地产开发(大连)有限公司,中山,20181104,38.92541607518685,121.6535728031028,中山九号,21,26155,威新物业管理(大连)有限公司,3.5,辽宁,1,二手房,2003
高新园区火炬路18号,大连,大连海创房地产开发有限公司,高新园区,20181104,38.937738080520404,117.39340752036043,芝麻街,38,13402,大连海创物业管理有限公司,2.4,辽宁,1,二手房,2010
中山区金城街26号一楼,大连,无开发商,中山,20181104,38.922282529515634,121.65214466263014,九中洛川街,16,26147,无物业管理服务,-,辽宁,1,二手房,1995
大连市高新园区七贤中路63号,大连,大连招宇房地产有限公司,高新园区,20181104,38.86053006357667,121.53273606963094,招商兰溪谷,27,22292,招商局物业管理有限公司大连分公司,2.6,辽宁,1,二手房,2015
甘井子区汇仁街19号12号楼1单元102室,大连,大连凯祥房地产开发有限公司,甘井子,20181104,38.99746297497168,121.58917714380617,名贵山庄亲情园,16,13234,大连弘益达物业管理有限公司,0.5,辽宁,1,二手房,2002
甘井子区泉水H3区15号3单元1层2号,大连,大连新型房地产开发有限公司,甘井子,20181104,39.00158439075201,121.62616882572375,龙畔金泉四期,67,11871,大连新型物业管理有限公司,0.4,辽宁,1,二手房,2005
中山区爱华街13号,大连,大连一方地产有限公司,中山,20181104,38.92541607518685,121.6535728031028,一方国际,27,33040,大连一方物业管理有限公司,4.8,辽宁,1,二手房,2013
沙河口区兰田街33号,大连,大连凭海房地产开发有限公司,沙河口,20181104,38.926138912221084,121.56486022834609,清熙园,2,9986,大连鑫诚物业有限公司,0.5,辽宁,1,二手房,2004
西岗区八一路102号,大连,大连长策房屋开发有限公司,西岗,20181104,38.891094924332045,121.65327483516513,捷山观海,13,19075,大连鑫晟物业管理有限公司,2,辽宁,1,二手房,2009
中山区秀月街37号1层2号,大连,大连澳南房屋开发有限公司,中山,20181104,38.88757907576307,121.66311065527876,明秀嘉园,8,23485,大连澳南物业管理有限公司,1.2,辽宁,1,二手房,2007
金州区小平岛B组团4号楼3号商铺,大连,大连圣岛房地产开发有限公司,高新园区,20181104,39.2986190718601,121.95658248043723,小平岛邻海园,28,16562,大连凯尔富物业管理有限公司,1.3,辽宁,1,二手房,2007
甘井子区泉水D1区37-7号,大连,大连运腾房地产开发有限公司,甘井子,20181104,39.013992871679214,121.61921940045104,锦泉源D4区,26,12538,大连嘉和物业管理有限公司,0.5,辽宁,1,二手房,2007
沙河口区连山街10号2-1-2,大连,大连城市建设集团有限公司,沙河口,20181104,38.89637522563413,121.57143690983219,城建花园,7,15643,大连城建开发集团物业管理有限公司,0.5,辽宁,1,二手房,2002
西岗区北岗街新康巷19-1号公建,大连,大连凯润房屋开发有限公司,西岗,20181104,38.9306759109621,121.61509567690577,景润二期,23,11578,大连凯润物业管理有限公司,0.3,辽宁,1,二手房,2000
甘井子区锦城东园1号3单元1层2号,大连,大连易合房地产开发有限公司,甘井子,20181104,38.952805477462775,121.55656194973994,易和紫园,4,19610,大连易兴物业服务有限公司,0.9,辽宁,1,二手房,2009
甘井子区泉水H3区15号3单元1层2号,大连,大连新型房地产开发有限公司,甘井子,20181104,39.00158439075201,121.62616882572375,龙畔金泉三期,48,11637,大连新型物业管理有限公司,0.5,辽宁,1,二手房,2004
甘井子区惠泽南园3-4号,大连,大连长鹭房屋开发有限公司,甘井子,20181104,38.939326611323615,121.52337842113351,晶品缘林,21,14890,大连三和住邦物业管理有限公司,1,辽宁,1,二手房,2008
沙河口区五一路270-274号,大连,无开发商,高新园区,20181104,38.89104111985908,121.55325426578435,city one,16,13688,街道办事处（居委会）代管物业,0.5,辽宁,1,二手房,2006
大连市沙河口区黄河路729号,大连,大连盛佳房地产开发有限公司,沙河口,20181104,38.91710565765228,121.58954758972729,城市佳园,7,16800,街道办事处（居委会）代管物业,1,辽宁,1,二手房,2004
沙河口区中山路417A-4号,大连,大连宝嘉房地产有限公司,沙河口,20181104,38.90734671814175,121.59482182703752,德源,6,24969,大连中和信邦物业管理有限公司,1.9,辽宁,1,二手房,2008
沙河口区南沙街36号台二2号1-1-37,大连,大连市中联房地产开发有限公司,沙河口,20181104,38.90741410359388,121.57685699961822,健龙苑,16,21400,大连正源物业服务有限公司,0.5,辽宁,1,二手房,2000
无门店信息,大连,大连龙湖东港房地产有限公司,中山,20181104,34.52713835999158,118.76812980670795,龙湖水晶郦湾,53,25012,大连龙湖物业服务有限公司,4.5,辽宁,1,二手房,2015
中山区中青街87号一单元107,大连,大连金生房地产开发有限公司,中山,20181104,38.90213494248529,121.65806522267005,金生佳苑,10,18345,大连金宇物业管理有限公司,1,辽宁,1,二手房,2006
大连市高新园区七贤中路63号,大连,无开发商,高新园区,20181104,38.86053006357667,121.53273606963094,学府士家,9,13462,无物业管理服务,-,辽宁,1,二手房,2000
沙河口区成仁街91号,大连,无开发商,沙河口,20181104,38.91539947107844,121.59585638842556,西安路公寓,11,12365,大连协和物业管理有限公司,0.5,辽宁,1,二手房,2000
大连市高新园区七贤中路63号,大连,大连宏都房地产开发有限公司,高新园区,20181104,38.86053006357667,121.53273606963094,宏都峰景,21,19704,大连东方百瑞物业管理有限公司,1.9,辽宁,1,二手房,2012
甘井子区促进路200号,大连,大连鼎新房地产开发有限公司,甘井子,20181104,38.95810188892782,121.58530036264898,鼎新鼎云都,4,15491,大连鼎新物业管理有限公司,0.6,辽宁,1,二手房,2008
大连市沙河口区五四路199-4号,大连,大连铁路房地产开发有限责任公司,西岗,20181104,38.907987066040505,121.60249214877012,新华小区(西岗),11,11336,大连铁路物业管理有限公司,0.3,辽宁,1,二手房,1998
无门店信息,大连,大连顺迈房地产开发有限公司,沙河口,20181104,34.52713835999158,118.76812980670795,星海国宝,30,17819,长城物业集团股份有限大连分公司,3,辽宁,1,二手房,2003
中山区安居巷7号,大连,大连锦联地产集团有限公司,中山,20181104,38.900436431991984,121.67796628922625,经典生活,13,7374,大连锦联物业管理有限公司,2.2,辽宁,1,二手房,2003
大连市沙河口区五四路199-4号,大连,大连新型房地产开发有限公司,西岗,20181104,38.907987066040505,121.60249214877012,新华公寓,4,14638,大连新型物业管理有限公司,0.5,辽宁,1,二手房,1997
沙河口区西南路851号3单元1层3号,大连,大连振屹房屋开发有限公司,沙河口,20181104,38.94344210837944,121.58246796944378,柳馨家园,5,11767,街道办事处（居委会）代管物业,0.6,辽宁,1,二手房,2000
沙河口区连山街44-2号半地下一层（地上一层部分）,大连,大连宏都房地产开发有限公司,沙河口,20181104,38.892991456958086,121.57299542767161,宏都筑景Ⅱ期,4,22969,东方百瑞物业有限公司,1.8,辽宁,1,二手房,2012
甘井子区凌秀路37号-1链家地产,大连,无开发商,高新园区,20181104,38.883794285403965,121.52361997548515,凌秀小区,7,13748,大连远洋基业物业管理有限公司,0.6,辽宁,1,二手房,1993
甘井子区祥龙街2号楼1单元1楼1号,大连,万象地产房地产开发有限公司,甘井子,20181104,38.988045874482445,121.60439401971377,枣园万象,8,16069,大连润东物业管理有限公司,1.7,辽宁,1,二手房,2012
中山区中南路226号,大连,大连悦泰集团有限公司,中山,20181104,38.90029610333926,121.68178899957817,悦泰林里,11,24416,大连腾馨物业管理有限公司,1.2,辽宁,1,二手房,2006
沙河口区长江路946号-9,大连,大连机车商业城有限公司,沙河口,20181104,38.92295863621255,121.59735298157467,兴工街,60,11764,街道办事处（居委会）代管物业,0.2,辽宁,1,二手房,1985
开发区润海园中区18#2号,大连,华润（大连）房地产有限公司,开发区,20181104,39.04047273176333,121.76392358042445,华润海中国六期,51,14374,华润物业（大连）有限公司,3.1,辽宁,1,二手房,2016
中山区碧浪园4号-3号,大连,大连三寰房地产开发有限公司,中山,20181104,38.89147289460474,121.69329560326236,碧浪园一期,34,12812,大连峰霖物业管理有限公司,0.3,辽宁,1,二手房,2000
中山区共建巷61号,大连,无开发商,中山,20181104,38.91828093658718,121.66259221532148,39中明泽街,17,24970,无物业管理服务,-,辽宁,1,二手房,1993
大连市甘井子区银田北园14号,大连,亿达集团大连科技城发展有限公司,甘井子,20181104,38.9742441034389,121.47189841879823,亿达春田馥园,39,16790,亿达物业管理有限公司,1.5,辽宁,1,二手房,2011
西岗区长红街4号1号公建,大连,大连融泰房地产开发有限公司,西岗,20181104,38.91377414665191,121.6302525225721,融泰花园,12,20729,大连长春花园物业管理有限公司,0.4,辽宁,1,二手房,1996
甘井子区汇仁街19号12号楼1单元102室,大连,大连华南房地产开发有限公司,甘井子,20181104,38.99746297497168,121.58917714380617,名贵山庄华夏园,11,13203,大连弘益达物业管理有限公司,0.5,辽宁,1,二手房,2004
沙河口区鞍山路65号美都园7号1单元1层4号公建,大连,远洋地产有限公司,沙河口,20181104,38.92727525772336,121.60296423346817,绿都园,12,12412,大连峰霖物业管理有限公司,0.6,辽宁,1,二手房,2000
沙河口区五一路219-1,大连,大连圣北房地产有限公司,沙河口,20181104,38.9026964858514,121.56644125985508,电业花园,10,12309,大连市沙河口房产物业管理有限公司,0.3,辽宁,1,二手房,1999
西岗区鞍山路29号龙畔锦城东门,大连,无开发商,西岗,20181104,38.92763470697088,121.61498923399098,21中五一广场,26,17270,无物业管理服务,-,辽宁,1,二手房,1976
高新园区海苑街36号1单元2号公建,大连,千汇德（大连）置业有限公司,高新园区,20181104,20.06392317589085,110.32302599457326,哈佛映像,15,16913,大连千汇德物业管理有限公司,1.2,辽宁,1,二手房,2009
沙河口区富国街34-3,大连,大连万达房地产开发有限公司,沙河口,20181104,38.90160386349964,121.58915317342193,星海自由港,6,17679,大连万景物业管理有限公司,1.2,辽宁,1,二手房,2003
西岗区华北路100号1层5号,大连,大连渤海红旗集团有限公司,沙河口,20181104,38.91336952993919,121.6258229781024,碧海花园,1,11073,无物业管理服务,0.3,辽宁,1,二手房,2002
甘井子区汇仁街19号12号楼1单元102室,大连,大连华南房地产开发有限公司,甘井子,20181104,38.99746297497168,121.58917714380617,名贵山庄华彩园,10,12387,大连弘益达物业管理有限公司,0.5,辽宁,1,二手房,2004
大连市沙河口区黄河路729号,大连,无开发商,沙河口,20181104,38.91710565765228,121.58954758972729,明阳花园小区,9,10591,无物业管理服务,-,辽宁,1,二手房,2000
开发区松苑街23号,大连,大连天安房地产开发有限公司,开发区,20181104,22.52087710763645,113.40156104777168,天安海景花园,18,11768,大连港力物业管理有限公司,1.2,辽宁,1,二手房,2006
高新园敬贤街23-11号,大连,大连恒瑞房地产开发有限公司,高新园区,20181104,38.86956637166276,121.5301657390922,大湖山语,22,18894,大连龙湖物业服务有限公司,2.8,辽宁,1,二手房,2015
沙河口区星海广场B3区14-2号1层,大连,华润置地（大连）有限公司,沙河口,20181104,38.88693148294673,121.58735631267305,星海湾壹号,34,32128,华润物业（大连）有限公司,4.8,辽宁,1,二手房,2008
经济技术开发区城润万家4-5号公建,大连,大连海汇房地产开发有限公司,开发区,20181104,39.05716325096989,121.75946281983826,正源吉祥e家,32,11854,大连正源物业服务有限公司,1,辽宁,1,二手房,2013
天河路173-2号 华润考拉22号公建,大连,大连华南房地产开发有限公司,甘井子,20181104,23.147151253133927,113.3277313198351,名贵山庄华丽园,19,11034,大连弘益达物业管理有限公司,0.5,辽宁,1,二手房,2002
沙河口区西南路358号1—2号,大连,大连恒安房地产开发有限公司,沙河口,20181104,38.90839654326566,121.56908246905662,水芙山竹,11,19706,大连上达物业管理有限公司,0.6,辽宁,1,二手房,2005
沙河口区黑石礁街5号1层1号,大连,大连鹏生房地产开发有限公司,沙河口,20181104,38.879813345473714,121.56313742300513,鹏辉广场,11,14828,大连新兴物业管理有限公司,0.5,辽宁,1,二手房,2000
沙河口区红旗东路18-22号2单元1楼3号,大连,大连益海房屋开发有限公司,沙河口,20181104,38.921778341674376,121.58261780680284,西苑花园,8,14604,大连宏溢达物业管理有限公司,0.5,辽宁,1,二手房,2000
西岗区新田巷11号三单元103,大连,大连龙润房屋开发有限公司,西岗,20181104,38.89276612016956,121.64190731791966,叠彩桃源,4,14966,大连龙润物业管理有限公司,0.8,辽宁,1,二手房,2003
大连市甘井子区椒房街24号楼2-104链家地产,大连,大连凯祥房地产开发有限公司,甘井子,20181104,38.985363789837166,121.61034055597686,椒金山庄,9,15214,大连凯祥物业管理有限公司,0.5,辽宁,1,二手房,2000
大连市甘井子区丰收路3-5号,大连,大连壹高房地产发展有限公司,甘井子,20181104,38.965377255081755,121.58288415324094,朗香小镇,9,18995,大连顶点物业管理有限公司,1.3,辽宁,1,二手房,2011
西岗区黄河路90号公建部分,大连,大连兴昌房屋开发有限公司,西岗,20181104,38.92234529815978,121.62829331825485,兴昌都市首府,3,33348,大连戴德梁行物业管理有限公司,1.5,辽宁,1,二手房,2005
中山区三八广场5号,大连,大连华丽山庄有限公司,中山,20181104,38.92540000551715,121.6642911149562,华丽山庄,17,18220,华丽山庄物业公司,1.5,辽宁,1,二手房,1999
高新园区海苑街36号1单元2号公建,大连,大连海苑房屋开发有限公司,高新园区,20181104,20.06392317589085,110.32302599457326,海苑花园,16,13340,大连家园物业有限公司,0.3,辽宁,1,二手房,2000
西岗区康平街2号（5号楼3-1-3号）,大连,大连圣元房地产开发有限公司,西岗,20181104,38.91044414697888,121.61980769264477,亿达天琴山,25,18677,亿达物业管理有限公司,2.5,辽宁,1,二手房,2013
甘井子区榆水街6-9号公建,大连,大连弘润置业有限公司,甘井子,20181104,38.97957540063716,121.52458567456938,万科城市之光,28,18862,大连万科物业服务有限公司,2.8,辽宁,1,二手房,2015
沙河口区星海广场B3区14-9,大连,大连友谊合升房地产开发有限公司,沙河口,20181104,38.887408126588866,121.58732762887982,壹品星海二期,15,21649,大连友谊物业服务有限公司,1.9,辽宁,1,二手房,2007
沙河口区黄河路883号,大连,大连亿达房地产股份有限公司,沙河口,20181104,38.919826721475204,121.57749657966676,亿达学苑,7,18076,亿达物业管理有限公司,0.7,辽宁,1,二手房,2003
沙河口区连山街10号2-1-2,大连,大连国合嘉汇房地产开发有限公司,沙河口,20181104,38.89637522563413,121.57143690983219,心宁苑,14,15611,大连国合物业管理有限公司,0.6,辽宁,1,二手房,2001
西岗区中山路158号唐山街市场外14号,大连,海运集团大连房屋开发有限公司,西岗,20181104,38.91835355789945,121.63274981188985,宝居佳苑,4,21736,大连城建开发集团物业管理有限公司,2,辽宁,1,二手房,2011
沙河口区西南路40号楼,大连,亿达房地产开发有限公司,沙河口,20181104,38.94141605900714,121.58612100465703,星浦庄园,8,11702,大连香都物业管理有限公司,0.5,辽宁,1,二手房,1997
中山区华乐街71号公建,大连,暂无信息,中山,20181104,38.923187679200566,121.6843197903016,东港印象DE区,16,13847,大连众和物业管理有限公司,1.2,辽宁,1,二手房,2008
中山区金城街26号一楼,大连,无开发商,中山,20181104,38.922282529515634,121.65214466263014,九中武汉街,10,37220,无物业管理服务,-,辽宁,1,二手房,1991
甘井子区金家街17-7号,大连,大连衡锐房屋开发有限公司,甘井子,20181104,38.97493697764367,121.60110987128529,温莎小镇,8,18839,大连长波物业管理有限公司,1.5,辽宁,1,二手房,2013
中山区武昌街武昌公寓6号公建,大连,大连海昌房屋开发有限公司,中山,20181104,38.912280913445784,121.64921130527547,海昌华城,8,15465,大连海昌欣城物业管理有限公司,1.1,辽宁,1,二手房,1997
中山区碧浪园4号-3号,大连,大连三寰房地产开发有限公司,中山,20181104,38.89147289460474,121.69329560326236,碧浪园二期,7,15210,大连峰霖物业管理有限公司,0.3,辽宁,1,二手房,2002
沙河口区鞍山路65号美都园7号1单元1层4号公建,大连,大连诚瑞项目管理有限公司,沙河口,20181104,38.92727525772336,121.60296423346817,万向城,38,10602,大连好管家物业管理有限公司,1.9,辽宁,1,二手房,2010
南山路50号,大连,大连铁路房地产开发有限责任公司,中山,20181104,38.92027296196962,121.6483012768786,延安小区,17,20043,大连铁路物业管理有限公司,0.5,辽宁,1,二手房,1995
西岗区香炉礁24号1-1,大连,大连大骏达房地产开发有限公司,西岗,20181104,38.91336952993919,121.6258229781024,骏达阅阳楼,9,10237,街道办事处（居委会）代管物业,1.2,辽宁,1,二手房,2010
开发区松苑街23号,大连,暂无信息,开发区,20181104,22.52087710763645,113.40156104777168,松峪里二期,5,11348,大连中信物业管理有限公司,0.5,辽宁,1,二手房,2000
甘井子区华北路花锦园28号23-3-1-2建筑物,大连,大连谷和房屋开发有限公司,甘井子,20181104,38.951627958411166,121.5739439799003,大连门小区,15,15541,大连谷和物业管理有限公司,0.3,辽宁,1,二手房,2000
中山区秀月街37号1层2号,大连,大连澳南房屋开发有限公司,中山,20181104,38.88757907576307,121.66311065527876,清溪南苑,4,16000,大连中园房地产物业公司,0.6,辽宁,1,二手房,2003
西岗区鞍山路65-5号,大连,大连大重房屋开发有限公司,沙河口,20181104,38.92701992456326,121.60258216167713,江都春华园,3,22740,大连万兴物业管理有限公司,0.8,辽宁,1,二手房,2008
甘井子区汇仁街19号12号楼1单元102室,大连,大连华南房地产开发有限公司,甘井子,20181104,38.99746297497168,121.58917714380617,名贵山庄金盛园,13,14389,大连弘益达物业管理有限公司,0.5,辽宁,1,二手房,2004
中山区山屏街116号1-1,大连,大连恒悦房地产开发有限公司,中山,20181104,38.90729438486833,121.68598159980013,悦泰德里,10,22240,大连百安物业管理有限公司,1.9,辽宁,1,二手房,2008
沙河口区兰田街33号,大连,大连大力房地产开发有限公司,沙河口,20181104,38.926138912221084,121.56486022834609,电业逸彩园,8,16128,大连亿安物业管理有限公司,0.5,辽宁,1,二手房,2002
中山区民建街10号1单元1号,大连,无开发商,中山,20181104,38.925444479476894,121.66915026954452,39中学士街,25,20731,无物业管理服务,-,辽宁,1,二手房,1995
甘井子区泉水B2区19-1号,大连,北方沿海房地产开发（大连）有限公司,甘井子,20181104,39.0101309886317,121.60812584213187,沿海鉴筑二期,23,15618,美佳物业管理（深圳）有限公司大连分公司,1.5,辽宁,1,二手房,2012
高新园区敬贤街25-9,大连,大连海逸房地产开发有限公司,高新园区,20181104,38.86877373541043,121.52975162654023,海逸诺丁山,19,18689,大连耕海物业服务有限公司,2.5,辽宁,1,二手房,2015
中山区安居巷7号,大连,大连华鹏房地产有限公司,中山,20181104,38.900436431991984,121.67796628922625,海派优座,12,14696,第一东方（大连）物业服务有限公司,2.5,辽宁,1,二手房,2008
开发区翠竹小区33栋4-1-1号,大连,大连宏济开发经济有限公司,开发区,20181104,30.635492106460237,119.69169575745704,宏城金棕榈,30,9223,大连宏景物业管理有限公司,1.3,辽宁,1,二手房,2006
甘井子区迎客路郭东街一品蓝天公建14号,大连,沈阳军区后勤部,甘井子,20181104,38.958456949708726,121.556756277476,金寓花园三期,7,16329,大连瑞祥物业管理有限公司,1,辽宁,1,二手房,2009
甘井子区华东路33-5号,大连,大连景和房屋开发有限公司,甘井子,20181104,38.97497080220593,121.59479866243332,怡景园,12,16276,大连景和物业管理有限公司,0.5,辽宁,1,二手房,2002
甘井子区辛寨子街道中冶蓝城辛虹园39-7号公建,大连,大连中冶京诚置业有限公司,甘井子,20181104,38.98155611421408,121.49259383356096,中冶蓝城C区,21,14811,大连添翼物业服务有限公司,2,辽宁,1,二手房,2011
中山区山屏街116号1-1,大连,大连毅腾房屋开发有限公司,中山,20181104,38.90729438486833,121.68598159980013,中南苑,10,16666,大连中南苑物业有限公司,0.8,辽宁,1,二手房,2001
中山区民运巷 47号1层2号,大连,暂无信息,中山,20181104,38.905955122300846,121.64798148011702,新兴小区,9,8781,暂无信息,0.5,辽宁,1,二手房,2000
甘井子区绿洲园63—14号,大连,大连房地产开发集团,甘井子,20181104,38.95627767383783,121.59592681827246,和润佳园,8,16293,大连益嘉物业管理有限公司,1,辽宁,1,二手房,2007
中山区民建街10号1单元1号,大连,无开发商,中山,20181104,38.925444479476894,121.66915026954452,39中明阳街,30,19690,无物业管理服务,-,辽宁,1,二手房,1993
沙河口区长江路738号,大连,大连城市建设集团有限公司,沙河口,20181104,38.92379936592553,121.61207696256155,21中广电中心,19,20701,无物业管理服务,-,辽宁,1,二手房,1992
中山区秀月街37号1层2号,大连,无开发商,中山,20181104,38.88757907576307,121.66311065527876,秀月小区,24,16553,无物业管理服务,0.5,辽宁,1,二手房,1982
无门店信息,大连,大连君悦房地产开发有限公司,甘井子,20181104,34.52713835999158,118.76812980670795,君悦晟景,20,12766,大连弘实物业有限公司,1.2,辽宁,1,二手房,2012
沙河口区连山街10号2-1-2,大连,大连国合嘉汇房地产开发有限公司,沙河口,20181104,38.89637522563413,121.57143690983219,嘉汇星海,6,15750,大连国合物业管理有限公司,0.5,辽宁,1,二手房,2004
中山区鲁迅路204号百盛新药特药商店一楼西侧部分,大连,大连东亚房地产开发有限公司,中山,20181104,38.92576188797548,121.6771337100355,蓝色海岸,6,12919,大连峰霖物业管理有限公司,0.5,辽宁,1,二手房,2002
西岗区华北路100号1层5号,大连,大连双振房屋开发有限公司,沙河口,20181104,38.91336952993919,121.6258229781024,香茗苑,1,13654,大连双振物业有限公司,0.5,辽宁,1,二手房,2003
大连市沙河口区五四路199-4号,大连,大连华邦房地产开发有限公司,沙河口,20181104,38.907987066040505,121.60249214877012,华邦上都,12,17410,大连华邦物业有限公司,1.7,辽宁,1,二手房,2006
甘井子区山东路137号,大连,大连华南房地产开发有限公司,甘井子,20181104,38.99129404608926,121.59172125999353,名贵山庄青年公寓,9,13268,大连弘益达物业管理有限公司,0.5,辽宁,1,二手房,2004
无门店信息,大连,大连保利东港房地产开发有限公司,中山,20181104,34.52713835999158,118.76812980670795,保利天禧,44,22347,保利物业服务有限公司,4.8,辽宁,1,二手房,2017
开发区松苑街23号,大连,开发区城建局,开发区,20181104,22.52087710763645,113.40156104777168,东山花园,8,10038,大连戎旅物业管理有限公司,0.8,辽宁,1,二手房,2006
金州区小平岛B组团4号楼3号商铺,大连,大连安达房地产开发有限公司,高新园区,20181104,39.2986190718601,121.95658248043723,小平岛E东组团,33,19104,大连凯尔富物业管理有限公司,1.3,辽宁,1,二手房,2007
大连市甘井子区七贤路8-3号,大连,大连高新万达广场投资有限公司,高新园区,20181104,38.86659077085588,121.5392980566355,万达海公馆,15,23929,大连万达物业管理有限公司,4.5,辽宁,1,二手房,2015
沙河口区长江路946号-9,大连,大连北洋房屋开发公司,沙河口,20181104,38.92295863621255,121.59735298157467,北洋小区,7,11935,大连天洋物业管理有限公司,0.5,辽宁,1,二手房,1999
南山路50号,大连,深圳市东山开发有限公司,中山,20181104,38.92027296196962,121.6483012768786,昆明花园,3,19320,深圳市东山物业管理有限公司,0.5,辽宁,1,二手房,2000
西岗区新田巷27号1-2,大连,大连安大房屋开发有限公司,西岗,20181104,38.893215932589385,121.64103065169111,仲夏花园,6,13890,大连长风物业管理有限公司,0.4,辽宁,1,二手房,1997
沙河口区星海广场B3区14-9,大连,大连科宏房屋开发有限公司,沙河口,20181104,38.887408126588866,121.58732762887982,科宏花园,3,14094,无物业管理服务,-,辽宁,1,二手房,2000
沙河口区连山街44-2号半地下一层（地上一层部分）,大连,大连富华房地产有限公司,沙河口,20181104,38.892991456958086,121.57299542767161,富华山庄,9,13857,大连城建开发集团物业管理有限公司,0.5,辽宁,1,二手房,1998
西岗区平等街21号1层2号,大连,远洋地产有限公司,西岗,20181104,38.92251066253164,121.63236845125735,丽都花园,11,17776,无物业管理服务,-,辽宁,1,二手房,1997
无门店信息,大连,大连景和房屋开发有限公司,甘井子,20181104,34.52713835999158,118.76812980670795,怡华园,13,14635,大连景和物业管理有限公司,0.5,辽宁,1,二手房,2001
沙河口区昌黎街77号楼第1层公建,大连,大连城市建设集团有限公司,沙河口,20181104,38.91974518366595,121.5902918379551,79中君安公寓,10,18681,大连广安物业有限公司,1.2,辽宁,1,二手房,1998
大连市沙河口区黄河路729号,大连,大连天河房地产开发集团有限公司,沙河口,20181104,38.91710565765228,121.58954758972729,天河100,3,17374,大连天河物业管理有限公司,0.8,辽宁,1,二手房,2004
甘井子区华北路花锦园28号23-3-1-2建筑物,大连,大连东特房地产开发有限公司,甘井子,20181104,38.951627958411166,121.5739439799003,东特星中环,10,15504,大连东特祥禾物业管理有限公司,0.8,辽宁,1,二手房,2006
沙河口区黄浦路18号—5号公建,大连,大连良运房地产开发有限公司,高新园区,20181104,38.8771225143479,121.54427480390662,翰林观海公寓,18,17495,大连良运物业管理有限公司,0.8,辽宁,1,二手房,2003
西岗区鞍山路29号龙畔锦城东门,大连,大连大世界房地产开发有限公司,西岗,20181104,38.92763470697088,121.61498923399098,第九频道,36,23751,大世界商业联合机构,3.6,辽宁,1,二手房,2014
中山区民建街10号1单元1号,大连,大连港连房地产开发有限公司,中山,20181104,38.925444479476894,121.66915026954452,海港公寓（三八广场）,22,22405,大连海港物业管理有限公司,0.2,辽宁,1,二手房,1996
西岗区华北路100号1层5号,大连,无开发商,西岗,20181104,38.91336952993919,121.6258229781024,远东小区,2,12310,无物业管理服务,-,辽宁,1,二手房,1999
西岗区胜利路33号,大连,大连恒盛房屋开发有限公司,西岗,20181104,38.91309771954841,121.62500886627636,盛阳山庄,7,9860,大连佳捷物业管理有限公司,0.5,辽宁,1,二手房,1999
甘井子区红旗中路143号1层4号,大连,亿海房地产开发有限公司,甘井子,20181104,38.93169566676921,121.5426632438217,水苑居,1,15760,大连万泰物业管理有限公司,0.6,辽宁,1,二手房,2003
中山区三八广场5号,大连,大连新型房地产开发总公司,中山,20181104,38.92540000551715,121.6642911149562,二七公寓,10,15705,大连新型物业管理有限公司,0.8,辽宁,1,二手房,1999
莲花山路89-3号,大连,大连兴达房地产有限公司,西岗,20181104,38.90273559371702,121.6046814926709,香都花园,1,13204,大连香都物业管理有限公司,0.8,辽宁,1,二手房,1993
莲花山路89-3号,大连,大连安邦房屋开发公司,沙河口,20181104,38.90273559371702,121.6046814926709,金地海景,20,12918,无物业管理服务,-,辽宁,1,二手房,2005
甘井子区甘井子街3号公建,大连,无开发商,甘井子,20181104,38.982086281836246,121.63426694995971,东翠鸣苑,17,12435,大连亿新物业管理有限公司,0.5,辽宁,1,二手房,2006
中山区鲁迅路184号1层B—A,大连,大连泰达新城建设发展有限公司,中山,20181104,38.92590875965419,121.67594393403164,泰达花园,6,17167,大连国合物业管理有限公司,1,辽宁,1,二手房,2000
沙河口区西南路96号1层2号,大连,无开发商,沙河口,20181104,38.890863095482466,121.56788114713203,大医物业,7,11197,街道办事处（居委会）代管物业,0.5,辽宁,1,二手房,1990
金州区小平岛B组团4号楼3号商铺,大连,大连圣岛房地产开发有限公司,高新园区,20181104,39.2986190718601,121.95658248043723,小平岛邻海园H组团,11,19531,大连凯尔富物业管理有限公司,1.3,辽宁,1,二手房,2009
中山区杏林街66—5号,大连,大连泰元房地产开发有限公司,中山,20181104,38.9244189768098,121.6630029448549,保华旺苑,10,31055,保华物业管理（大连）有限公司,3.8,辽宁,1,二手房,2016
中山区民建街10号1单元1号,大连,大连安达房地产开发有限公司,中山,20181104,38.925444479476894,121.66915026954452,39中安达大厦,19,16001,大连凯尔物业管理有限责任公司,0.5,辽宁,1,二手房,2008
中山区民建街10号1单元1号,大连,无开发商,中山,20181104,38.925444479476894,121.66915026954452,39中爱阳街,20,17952,无物业管理服务,-,辽宁,1,二手房,1993
甘井子区泉水B5区27-9,大连,大连运达房地产集团有限公司,甘井子,20181104,39.014833760509994,121.60955220395961,锦泉源B6区,12,13903,政治物业管理有限公司,0.5,辽宁,1,二手房,2012
沙河口区兰田街33号,大连,无开发商,沙河口,20181104,38.926138912221084,121.56486022834609,858家园,5,11368,无物业管理服务,-,辽宁,1,二手房,2000
中山区中南路226号,大连,大连华钧房地产开发有限公司,中山,20181104,38.90029610333926,121.68178899957817,半山花园,3,10437,大连仁和物业管理有限公司,0.7,辽宁,1,二手房,2000
中山区民建街10号1单元1号,大连,无开发商,中山,20181104,38.925444479476894,121.66915026954452,39中太阳街,13,18467,无物业管理服务,-,辽宁,1,二手房,1996
高新园区红凌路732-4号,大连,大华集团大连置业有限公司,高新园区,20181104,38.90158813547366,121.53265954348016,大华锦绣华城叁号院,7,28115,大连大华物业管理有限公司,2.5,辽宁,1,二手房,2016
西岗区黄河路90号公建部分,大连,无开发商,西岗,20181104,38.92234529815978,121.62829331825485,长江杰座,7,26279,大连长江物业管理有限公司,1.5,辽宁,1,二手房,2004
甘井子区山东路137号,大连,大连华南房地产开发有限公司,甘井子,20181104,38.99129404608926,121.59172125999353,名贵山庄华美园,9,11461,大连弘益达物业管理有限公司,0.5,辽宁,1,二手房,2002
中山区安居巷7号,大连,大连铁路房地产开发有限责任公司,西岗,20181104,38.900436431991984,121.67796628922625,沈铁铭悦,10,14425,大连铁路物业管理有限公司,1.5,辽宁,1,二手房,2014
沙河口区成仁街91号,大连,无开发商,沙河口,20181104,38.91539947107844,121.59585638842556,科技广场,24,10145,街道办事处（居委会）代管物业,0.8,辽宁,1,二手房,2001
沙河口区南沙街36号台二2号1-1-37,大连,大连三寰房屋开发有限公司,沙河口,20181104,38.90741410359388,121.57685699961822,南平花园,5,14816,大连上达物业管理有限公司,0.3,辽宁,1,二手房,2001
甘井子区华北路花锦园28号23-3-1-2建筑物,大连,大连东特房地产开发有限公司,甘井子,20181104,38.951627958411166,121.5739439799003,星中环广场,14,16658,大连东特物业管理有限公司,1.2,辽宁,1,二手房,2009
大连市沙河口区五四路199-4号,大连,大连建兴房屋开发有限公司,沙河口,20181104,38.907987066040505,121.60249214877012,建兴花园小区,5,12607,大连建兴物业管理有限公司,0.4,辽宁,1,二手房,1997
沙河口区西南路358号1—2号,大连,无开发商,沙河口,20181104,38.90839654326566,121.56908246905662,龙岗园,5,11030,大连嘉和物业管理有限公司,0.2,辽宁,1,二手房,2001
中山区爱华街13号,大连,大连一方地产有限公司,中山,20181104,38.92541607518685,121.6535728031028,大连国际酒店,15,23224,大连一方物业管理有限公司,3.0,辽宁,1,二手房,2006
沙河口区西南路40号楼,大连,大连金通房屋开发有限公司,沙河口,20181104,38.94141605900714,121.58612100465703,海韵花园,3,11554,大连金通物业管理有限公司,0.4,辽宁,1,二手房,2000
开发区兴城路29-81层,大连,无开发商,开发区,20181104,39.05020829677517,121.7578103751747,佳和园,8,11589,大连西海岸物业管理有限公司,1,辽宁,1,二手房,2005
高新园敬贤街23-11号,大连,暂无信息,高新园区,20181104,38.86956637166276,121.5301657390922,中海紫御观邸二期,17,20592,大连中海物业管理有限公司,2.6,辽宁,1,二手房,2013
中山区杏林街66—5号,大连,大连嘉和房地产集团有限公司,中山,20181104,38.9244189768098,121.6630029448549,嘉和园,3,22878,大连嘉和物业管理有限公司,3,辽宁,1,二手房,2005
中山区华乐街71号公建,大连,暂无信息,中山,20181104,38.923187679200566,121.6843197903016,东港印象A区,21,17878,大连众和物业管理有限公司,1.2,辽宁,1,二手房,2008
沙河口区联合路133号,大连,暂无信息,沙河口,20181104,38.91608561262676,121.60480987310456,21中天兴花园二期,6,18234,大连万泰物业管理有限公司,0.5,辽宁,1,二手房,1998
甘井子区新兴路36号3-1-3,大连,大连新型房地产开发有限公司,甘井子,20181104,38.95546176066109,121.5285003794903,泡崖二区,55,9585,大连新兴物业管理有限公司,0.5,辽宁,1,二手房,1997
沙河口区联合路133号,大连,大连五环房屋开发有限公司,沙河口,20181104,38.91608561262676,121.60480987310456,汇利嘉园,5,20218,大连银力物业管理有限公司,0.5,辽宁,1,二手房,2003
沙河口区杨树街4-4号公建,大连,无开发商,高新园区,20181104,38.88444587249751,121.55130620045541,育明高中,7,16079,无物业管理服务,-,辽宁,1,二手房,1998
沙河口区兰田街33号,大连,无开发商,沙河口,20181104,38.926138912221084,121.56486022834609,马栏广场,8,10225,无物业管理服务,0.4,辽宁,1,二手房,2000
大连市沙河口区五四路199-4号,大连,无开发商,沙河口,20181104,38.907987066040505,121.60249214877012,动力花园,0,18683,无物业管理服务,-,辽宁,1,二手房,2004
甘井子区山东路商业街D区12号公建,大连,无开发商,甘井子,20181104,39.001060021502965,121.58883960371418,兴华路,34,10652,街道办事处（居委会）代管物业,0.5,辽宁,1,二手房,1989
无门店信息,大连,大连万林房地产开发有限公司,甘井子,20181104,34.52713835999158,118.76812980670795,我爱我家,7,13662,大连弘实物业管理有限公司,1.3,辽宁,1,二手房,2011
沙河口区中山路417A-4号,大连,无开发商,沙河口,20181104,38.90734671814175,121.59482182703752,同泰街,11,10902,无物业管理服务,0.5,辽宁,1,二手房,1999
甘井子区哲林北园17-6号,大连,大连恒宇房地产开发有限公司,甘井子,20181104,38.9600267109581,121.53876726228256,恒宇祥苑,5,9004,亿达物业管理有限公司,0.5,辽宁,1,二手房,2003
中山区职工街96号1-3层公建,大连,大连名仕房地产开发有限公司,中山,20181104,38.92565613737007,121.66193575790903,名仕国际公寓,24,9631,大连名流物业有限公司,3.8,辽宁,1,二手房,2004
沙河口区昌黎街77号楼第1层公建,大连,大连高新园区建设开发总公司,沙河口,20181104,38.91974518366595,121.5902918379551,79中昌隆大厦,9,19787,无物业管理服务,-,辽宁,1,二手房,1998
甘井子区锦城西园4#3-1-1,大连,沈阳军区后勤部,甘井子,20181104,38.95286223185571,121.55129044777,金寓花园一期,3,14866,大连瑞祥物业管理有限公司,0.5,辽宁,1,二手房,2003
开发区安盛里5栋-4,大连,大连新苑房地产开发有限公司,开发区,20181104,23.112106678834838,113.27801046214822,绿色新苑,7,10420,大连利堃物业管理有限公司,0.8,辽宁,1,二手房,2001
大连市甘井子区椒房街24号楼2-104链家地产,大连,大连港置地有限公司,甘井子,20181104,38.985363789837166,121.61034055597686,大连港天下粮仓,16,18986,大连万科物业服务有限公司,2.2,辽宁,1,二手房,2017
开发区松苑街23号,大连,大连西太平洋家属楼,开发区,20181104,22.52087710763645,113.40156104777168,松平里,9,12106,街道办事处（居委会）代管物业,0.5,辽宁,1,二手房,1995
中山区职工街96号1-3层公建,大连,大连嘉和房地产开发有限公司,中山,20181104,38.92565613737007,121.66193575790903,嘉和花样年华四期,3,26174,大连嘉和物业管理有限公司,3.8,辽宁,1,二手房,2005
甘井子区祥龙街2号楼1单元1楼1号,大连,大连宏孚房屋开发有限公司,甘井子,20181104,38.988045874482445,121.60439401971377,宏孚小区,38,10207,无物业管理服务,-,辽宁,1,二手房,1995
大连市高新园区七贤中路63号,大连,大连龙海房地产开发有限公司,高新园区,20181104,38.86053006357667,121.53273606963094,华录园,10,12718,无物业管理服务,-,辽宁,1,二手房,1995
南山路50号,大连,辽宁远大房屋开发有限公司,中山,20181104,38.92027296196962,121.6483012768786,远大大厦,23,10272,街道办事处（居委会）代管物业,2.5,辽宁,1,二手房,2000
甘井子区泉水D1区10-2#1-1-7,大连,大连春达房屋开发有限公司,甘井子,20181104,39.014763910942854,121.61661407462454,景富铭苑,21,11955,庄河金城物业管理有限公司,0.5,辽宁,1,二手房,2004
甘井子区惠泽南园3-4号,大连,大连九衡房地产开发有限公司,甘井子,20181104,38.939326611323615,121.52337842113351,易和熙园,23,17138,大连易兴物业服务有限公司,2.3,辽宁,1,二手房,2013
沙河口区兰田街33号,大连,无开发商,沙河口,20181104,38.926138912221084,121.56486022834609,西苑新区,2,13415,街道办事处（居委会）代管物业,0.3,辽宁,1,二手房,2000
大连市甘井子区七贤路8-3号,大连,大连树源世嘉房地产开发有限公司,高新园区,20181104,38.86659077085588,121.5392980566355,国滨馆,18,20908,大连树源物业管理有限公司,3.5,辽宁,1,二手房,2015
西岗区平等街21号1层2号,大连,辽宁宁安房地产开发有限公司,西岗,20181104,38.92251066253164,121.63236845125735,良玖国际,18,14476,大连良玖物业管理有限责任公司,3.7,辽宁,1,二手房,2005
沙河口区富国街34-3,大连,无开发商,沙河口,20181104,38.90160386349964,121.58915317342193,星海街,31,10065,无物业管理服务,-,辽宁,1,二手房,1990
甘井子区哲林北园17-6号,大连,大连科宏房屋开发有限公司,甘井子,20181104,38.9600267109581,121.53876726228256,虹港新居,29,12975,大连空港物业管理有限公司,0.4,辽宁,1,二手房,2002
沙河口区中山路417A-4号,大连,大连电业房地产开发有限公司,沙河口,20181104,38.90734671814175,121.59482182703752,电力公寓,7,13037,街道办事处（居委会）代管物业,0.7,辽宁,1,二手房,2000
南山路50号,大连,大连悦泰集团有限公司,中山,20181104,38.92027296196962,121.6483012768786,悦泰诚里,13,20188,大连腾馨物业管理有限公司,2.2,辽宁,1,二手房,2004
甘井子区华北路花锦园28号23-3-1-2建筑物,大连,大连万科蓝山房地产开发有限公司,甘井子,20181104,38.951627958411166,121.5739439799003,万科公园里,2,27303,大连万科物业服务有限公司,1.5,辽宁,1,二手房,2015
开发区鹏程家园66#-6、66#-7公建,大连,大连元新房地产开发有限公司,开发区,20181104,38.90045524508753,121.63339362744885,华夏海景,23,8570,大连元新物业管理有限公司,1,辽宁,1,二手房,2003
开发区红星海-B区89-1号,大连,远洋地产有限公司,开发区,20181104,39.027851194371685,121.80327394132297,红星海三期郡墅,30,16739,大连远洋基业物业管理有限公司,2.2,辽宁,1,二手房,2010
沙河口区知心园10号公建,大连,暂无信息,高新园区,20181104,38.893977135945136,121.55667141994431,亿达康派公寓,23,17267,亿达物业管理有限公司,2.2,辽宁,1,二手房,2006
金州区凤祥路236-2,大连,大连鸿玮置业有限公司,金州,20181104,39.08547607514868,121.7749730382401,鸿玮澜山二期,28,14152,大连鸿玮物业服务有限公司,1.8,辽宁,1,二手房,2015
沙河口区联合路133号,大连,亿达集团大连房地产开发有限公司,沙河口,20181104,38.91608561262676,121.60480987310456,21中亿达广场,3,19885,亿达物业管理有限公司,1.2,辽宁,1,二手房,1999
甘井子区虹港路16号楼1层公建,大连,亿达房地产开发有限公司,甘井子,20181104,38.96457808198196,121.55421052098279,虹港路（机场商圈）,32,11576,亿达物业管理有限公司,0.2,辽宁,1,二手房,1996
高新园区聚贤路36号5幢1单元1层1号,大连,九成方元房地产（大连）有限公司,高新园区,20181104,32.31472011562832,119.46141263909165,福荣园,6,18094,九成物业（大连）有限公司,2.6,辽宁,1,二手房,2015
开发区高新里6栋-8,大连,大连港地产集团有限公司,开发区,20181104,39.0710895068195,121.82860134358343,尚都家园,12,7391,街道办事处（居委会）代管物业,0.5,辽宁,1,二手房,2007
甘井子区芳林街17号1单元1层1号,大连,无开发商,甘井子,20181104,38.96091976856697,121.58863625429588,顺发路,19,10958,街道办事处（居委会）代管物业,0.2,辽宁,1,二手房,1993
甘井子区辛寨子街道中冶蓝城辛虹园39-7号公建,大连,大连中冶京诚置业有限公司,甘井子,20181104,38.98155611421408,121.49259383356096,中冶蓝城,16,10493,大连添翼物业服务有限公司,2,辽宁,1,二手房,2013
经济技术开发区红星海-A区81-2号1层,大连,远洋地产有限公司,开发区,20181104,39.027851194371685,121.80327394132297,红星海一期原墅,28,23993,大连远洋基业物业管理有限公司,2.2,辽宁,1,二手房,2010
经济技术开发区红星海-A区81-2号1层,大连,远洋地产有限公司,开发区,20181104,39.027851194371685,121.80327394132297,红星海二期领墅,20,17923,大连远洋基业物业管理有限公司,0.5,辽宁,1,二手房,2009
大连市甘井子区钻石湾和信园13-5,大连,远洋地产有限公司,甘井子,20181104,38.95806887148857,121.62117199773128,远洋钻石湾三期,54,19046,远洋亿家物业服务股份有限公司大连分公司,1.5,辽宁,1,二手房,2014
中山区中南路226号,大连,大连永薪房屋开发有限公司,中山,20181104,38.90029610333926,121.68178899957817,海神花园,4,11831,大连永佳物业管理有限公司,0.8,辽宁,1,二手房,1999
无门店信息,大连,大连铁龙房地产开发有限公司,甘井子,20181104,34.52713835999158,118.76812980670795,连海金源,19,13394,大连铁龙安居物业管理有限公司,1.3,辽宁,1,二手房,2012
甘井子区汇仁街19号12号楼1单元102室,大连,大连华南房地产开发有限公司,甘井子,20181104,38.99746297497168,121.58917714380617,名贵山庄华春园,2,12524,大连弘益达物业管理有限公司,0.5,辽宁,1,二手房,2004
经济技术开发区红星海-A区81-2号1层,大连,远洋地产有限公司,开发区,20181104,39.027851194371685,121.80327394132297,红星海珑筑,29,17099,大连远洋基业物业管理有限公司,3.5,辽宁,1,二手房,2016
金州区拥政街道733号-8号1-2层,大连,大连千川房地产有限公司,金州,20181104,39.11690610445662,121.73030803603723,湖畔嘉园,8,9026,大连千川物业管理有限公司,-,辽宁,1,二手房,2007
经济技术开发区红星海-A区81-2号1层,大连,远洋地产有限公司,开发区,20181104,39.027851194371685,121.80327394132297,红星海郡墅二号,10,16635,大连远洋基业物业管理有限公司,3.5,辽宁,1,二手房,2012
无门店信息,大连,暂无信息,中山,20181104,34.52713835999158,118.76812980670795,明秀庄园一期,15,28494,暂无信息,-,辽宁,1,二手房,2012
开发区小孤山西里3栋-11号,大连,大连开发区世元房地产开发有限公司,开发区,20181104,39.02715282297674,121.80682183666346,东庭印象,22,8483,大连经济技术开发区鹏达物业管理有限公司,1.2,辽宁,1,二手房,2007
中山区民建街10号1单元1号,大连,无开发商,中山,20181104,38.925444479476894,121.66915026954452,39中和阳街,16,20344,无物业管理服务,-,辽宁,1,二手房,1990
甘井子区玉丽街39号楼3号公建,大连,大连乾元房地产开发有限公司,甘井子,20181104,38.98706755029984,121.55605471197089,和合美家,7,13654,大连广兴物业管理有限公司,0.8,辽宁,1,二手房,2010
西岗区胜利路33号,大连,无开发商,西岗,20181104,38.91309771954841,121.62500886627636,34中林荫巷,23,25053,无物业管理服务,-,辽宁,1,二手房,1997
中山区碧浪园4号-3号,大连,大连铁路房地产开发有限责任公司,中山,20181104,38.89147289460474,121.69329560326236,山水家园二期,3,18270,大连铁道物业管理有限责任公司,0.3,辽宁,1,二手房,2003
大连市沙河口区五四路199-4号,大连,无开发商,沙河口,20181104,38.907987066040505,121.60249214877012,五四路,9,10846,无物业管理服务,-,辽宁,1,二手房,1992
无门店信息,大连,大连祥和房屋开发有限公司,甘井子,20181104,34.52713835999158,118.76812980670795,祥和花园,33,10747,大连市大北物业管理有限公司,0.4,辽宁,1,二手房,2007
甘井子区惠泽南园3-7号,大连,大连利丰房地产开发有限公司,甘井子,20181104,38.939326611323615,121.52337842113351,国安宜居,5,16496,大连易明物业服务有限公司,2,辽宁,1,二手房,2014
中山区职工街96号1-3层公建,大连,无开发商,中山,20181104,38.92565613737007,121.66193575790903,39中民功街,2,14202,无物业管理服务,-,辽宁,1,二手房,1997
西岗区平等街21号1层2号,大连,无开发商,西岗,20181104,38.92251066253164,121.63236845125735,香榭里,37,8506,大连金地物业管理有限公司,3.6,辽宁,1,二手房,2010
无门店信息,大连,大连乾豪集团有限公司,开发区,20181104,34.52713835999158,118.76812980670795,乾豪海岸花园,8,13631,大连乾豪物业管理有限公司,2,辽宁,1,二手房,2003
中山区武昌街武昌公寓6号公建,大连,无开发商,中山,20181104,38.912280913445784,121.64921130527547,武昌街,23,11364,大连经济技术开发区永嘉物业管理有限公司,0.3,辽宁,1,二手房,1990
中山区安居巷7号,大连,大连建通房地产开发有限公司,中山,20181104,38.900436431991984,121.67796628922625,民生松竹苑,1,12567,大连奎祥物业管理有限公司,1.1,辽宁,1,二手房,2003
开发区红星海-B区89-1号,大连,远洋地产有限公司,开发区,20181104,39.027851194371685,121.80327394132297,红星海三期视界,36,12745,大连远洋基业物业管理有限公司,2.2,辽宁,1,二手房,2012
无门店信息,大连,大连运达房地产集团有限公司,甘井子,20181104,34.52713835999158,118.76812980670795,运达诺维溪谷三期,10,13759,大连运达物业有限公司,2,辽宁,1,二手房,2015
中山区中南路226号,大连,大连大业房屋开发有限公司,中山,20181104,38.90029610333926,121.68178899957817,阳光花园二期,6,12165,大连全得利物业管理有限公司,0.5,辽宁,1,二手房,1997
开发区红星海-B区89-1号,大连,远洋地产有限公司,开发区,20181104,39.027851194371685,121.80327394132297,红星海五期鼎墅,19,21500,大连远洋基业物业管理有限公司,4.8,辽宁,1,二手房,2012
西岗区八一路102号,大连,大连润泰房地产开发有限公司,中山,20181104,38.891094924332045,121.65327483516513,明秀庄园二期,9,30899,大连澳邦致和物业服务有限公司,3.2,辽宁,1,二手房,2015
中山区高尚路28-1号,大连,大连丰源房地产有限公司,中山,20181104,38.892673425111305,121.67148833870213,丰源海景,12,14010,大连丰源海景物业管理有限公司,0.5,辽宁,1,二手房,2000
中山区华乐街71号公建,大连,首开集团,中山,20181104,38.923187679200566,121.6843197903016,首开铂郡,8,23316,北京燕侨物业管理有限公司大连分公司,3.8,辽宁,1,二手房,2016
中山区益民街16号1层1号,大连,大连三鑫房地产开发有限公司,中山,20181104,38.93092761298906,121.66470740073377,金和苑,11,19325,大连报业物业管理有限公司三鑫分公司,3.5,辽宁,1,二手房,2004
无门店信息,大连,大连中政房地产开发有限公司,中山,20181104,34.52713835999158,118.76812980670795,龙溪村,10,15669,大连中政物业管理有限公司,0.8,辽宁,1,二手房,2002
开发区东北三街94号1层,大连,大连港连房地产开发有限公司,开发区,20181104,39.05723508011585,121.80570768630555,海航YOHO湾,21,9327,海航物业管理有限公司大连分公司,1.8,辽宁,1,二手房,2014
无门店信息,大连,大连新兴海韵房地产开发有限公司,开发区,20181104,34.52713835999158,118.76812980670795,白石湾小区,8,7262,大连海韵物业管理有限公司,0.8,辽宁,1,二手房,2006
开发区松苑街23号,大连,无开发商,开发区,20181104,22.52087710763645,113.40156104777168,松林里小区,5,13733,街道办事处（居委会）代管物业,0.5,辽宁,1,二手房,1996
中山区金城街26号一楼,大连,暂无信息,中山,20181104,38.922282529515634,121.65214466263014,解放街,15,22815,无物业管理服务,-,辽宁,1,二手房,1982
甘井子区玉湖街18号1单元1-1,大连,大连新型房地产开发有限公司,甘井子,20181104,38.97554522550266,121.54552721066896,书香府第二期,11,10647,大连新型物业管理有限公司,0.5,辽宁,1,二手房,2002
开发区小孤山西里27栋-7号,大连,大连光伸房地产开发有限公司,开发区,20181104,39.0278711398559,121.8095276927579,绿洲半岛二期,20,7625,大连经济技术开发区光伸物业服务有限公司,1,辽宁,1,二手房,2005
开发区松苑街23号,大连,大连众益神州地产开发有限公司,开发区,20181104,22.52087710763645,113.40156104777168,松海庄园一期,7,10986,大连万佳物业管理有限公司,0.5,辽宁,1,二手房,2000
沙河口区成仁街91号,大连,大连城市建设集团有限公司,沙河口,20181104,38.91539947107844,121.59585638842556,79中广荣大厦,6,17547,大连新型物业管理有限公司,1.5,辽宁,1,二手房,2002
甘井子区玉丽街35号4单元-1-2,大连,暂无信息,甘井子,20181104,38.98487421584909,121.55236707590676,泡崖康祥园,15,12458,大连新兴物业管理有限公司,0.5,辽宁,1,二手房,2005
中山区共建巷61号,大连,暂无信息,中山,20181104,38.91828093658718,121.66259221532148,39中麒麟东巷,10,21300,暂无信息,-,辽宁,1,二手房,1990
开发区兴城路29-81层,大连,大连瑞宇置业有限公司,开发区,20181104,39.05020829677517,121.7578103751747,心海阳光,12,12540,大连经济技术开发区盛辉物业服务有限公司,2,辽宁,1,二手房,2015
高新园区海苑街30号1单元1号公建,大连,大连大有文园房屋开发有限公司,高新园区,20181104,20.06392317589085,110.32302599457326,大有文园公寓,12,10102,大连大有恬园物业管理有限公司,2,辽宁,1,二手房,2010
开发区红梅小区19栋-2-1-1号,大连,无开发商,开发区,20181104,29.906498897603264,121.5913630631805,金玛海景,3,10335,街道办事处（居委会）代管物业,1.1,辽宁,1,二手房,2007
无门店信息,大连,大连融昇房地产开发有限公司,甘井子,20181104,34.52713835999158,118.76812980670795,鹿港小镇,4,10213,大连三和住邦物业管理有限公司,1.3,辽宁,1,二手房,2015
沙河口区黄埔路427号,大连,暂无信息,高新园区,20181104,38.921778341674376,121.58261780680284,海洋环保所,9,15232,单位自管物业,0.2,辽宁,1,二手房,1981
中山区鲁迅路204号百盛新药特药商店一楼西侧部分,大连,大连港连房地产开发有限公司,中山,20181104,38.92576188797548,121.6771337100355,海港公寓（寺儿沟商圈）,10,11315,大连仁安物业管理有限公司,0.2,辽宁,1,二手房,1996
中山区北斗街53号1层1号,大连,大连大森房地产开发有限公司,中山,20181104,38.92727355733075,121.67002970974048,东港林苑,7,16067,大连美心物业管理有限公司,2.8,辽宁,1,二手房,2013
大连市开发区抚顺街30号,大连,无开发商,开发区,20181104,38.92272284555705,121.5977239817503,翠南管委会院,15,8357,街道办事处（居委会）代管物业,0.5,辽宁,1,二手房,1998
甘井子区柳树南街45-11号,大连,大连顺达房屋开发有限公司,甘井子,20181104,38.93107538811559,121.48785133651938,顺达温泉花园一期,7,10056,大连顺达物业服务有限公司,0.6,辽宁,1,二手房,2003
中山区安居巷7号,大连,大连鸿霖房地产开发有限公司,中山,20181104,38.900436431991984,121.67796628922625,鸿霖大厦,17,9335,大连凯立宏物业管理有限公司,3.2,辽宁,1,二手房,2004
大连市开发区抚顺街30号,大连,无开发商,开发区,20181104,38.92272284555705,121.5977239817503,爱我家园,32,8136,街道办事处（居委会）代管物业,0.3,辽宁,1,二手房,1998
开发区金源南里14栋-11号一层部分，14号-12号一层部分,大连,商金源地产,开发区,20181104,39.06148997014026,121.82510513314875,金苑新居,8,7156,嘉兴物业管理有限公司,0.3,辽宁,1,二手房,2004
