address,city,developer,district,index_date,lat,lng,name,osv,price,property,property_fee,province,tv,type,year
沙河口区华新苑10号楼4号公建,大连,大连新型房地产开发有限公司,沙河口,20190907,38.94033750532864,121.58990295130229,侯一小区,171,11440,大连新兴物业管理有限公司,0.3,辽宁,35,二手房,1988
开发区湾里南12栋-16-17-18号,大连,大连金湾实业有限公司,开发区,20190907,39.070782084451,121.8506739675913,湾里南小区,378,8780,大连金湾物业管理有限公司,0.3,辽宁,35,二手房,2002
沙河口区富民路120号4-1-1,大连,大连渤海红旗集团有限公司,沙河口,20190907,38.930937859528605,121.5647274237578,马栏小学北,90,11047,街道办事处（居委会）代管物业,0.2,辽宁,19,二手房,1990
甘井子区千山路26号,大连,大连市大钢集团,甘井子,20190907,38.985697948031984,121.58768860037272,山东路,90,12884,街道办事处（居委会）代管物业,0.2,辽宁,17,二手房,1900
开发区湾里南12栋-16-17-18号,大连,大连金湾实业有限公司,开发区,20190907,39.070782084451,121.8506739675913,湾里东,230,8241,大连金湾物业管理有限公司,0.5,辽宁,27,二手房,2001
甘井子区泉水D1区37-7号,大连,大连运腾房地产开发有限公司,甘井子,20190907,39.013992871679214,121.61921940045104,锦泉源D2区,196,13398,大连嘉毅物业管理有限公司,0.5,辽宁,22,二手房,2000
甘井子区榆林街37号-12公建,大连,新型房地产开发有限公司,甘井子,20190907,38.980133141940186,121.52779506952932,泡崖美林园,224,11773,新兴物业,0.6,辽宁,62,二手房,1996
甘井子区山东路商业街D区12号公建,大连,无开发商,甘井子,20190907,39.001060021502965,121.58883960371418,兴华路,51,12687,街道办事处（居委会）代管物业,0.5,辽宁,11,二手房,1986
西岗区香炉礁24号1-1,大连,无开发商,西岗,20190907,38.92047268927287,121.61862512554262,香炉礁,193,11222,街道办事处（居委会）代管物业,0.1,辽宁,27,二手房,1979
甘井子区玉湖街25号2单元1层3号,大连,大连新型房地产开发有限公司,甘井子,20190907,38.97626265183615,121.54617349027997,泡崖四区,185,10768,大连新型物业管理有限公司,0.5,辽宁,22,二手房,2000
大连市甘井子区逸林南园1-1号,大连,大连三联置业有限公司,甘井子,20190907,38.95800216293212,121.53151895549547,三鼎春天,99,24239,瑞联德（大连）物业管理有限公司,2.8,辽宁,5,二手房,2016
沙河口区昌黎街22号,大连,大连城市建设集团有限公司,沙河口,20190907,38.91975785098891,121.59109628369768,北昌平小区,138,13305,无物业管理服务,-,辽宁,24,二手房,1983
开发区黄海西路54号,大连,中国铁路十三局,开发区,20190907,39.047714586087785,121.76688238228269,翠竹小区,117,8089,大连经济技术开发区中强物业管理有限公司,0.3,辽宁,7,二手房,1995
金州新区润海园中区18#2号,大连,华润置地（大连）有限公司,开发区,20190907,39.1124801012176,121.71117008629992,华润海中国二期,162,14185,华润物业（大连）有限公司,2.8,辽宁,11,二手房,2007
大连经济技术开发区东城天下98-14,大连,大连乾豪集团有限公司,开发区,20190907,39.069195091289004,121.8502099927954,东城天下,375,8783,大连远洋基业物业管理有限公司,0.9,辽宁,41,二手房,2002
沙河口区黑石礁街5号1层1号,大连,无开发商,沙河口,20190907,38.879813345473714,121.56313742300513,黑石礁,16,12298,无物业管理服务,-,辽宁,3,二手房,1990
西岗区鞍山路29号龙畔锦城东门,大连,无开发商,西岗,20190907,38.92763470697088,121.61498923399098,北京街北,44,13264,无物业管理服务,-,辽宁,4,二手房,1981
金州新区站前街道生辉第一城5号楼1-2层4号,大连,大连公路工程集团生辉房地产开发有限公司,金州,20190907,39.0579172895377,121.74665464602948,生辉第一城,135,11050,大连生辉物业管理有限公司,1.2,辽宁,16,二手房,2005
甘井子区千山路26号,大连,大连嘉兴房地产开发有限公司,甘井子,20190907,38.985697948031984,121.58768860037272,千山路,71,12341,无物业管理服务,0.5,辽宁,14,二手房,1985
金州区金润花园B区47号1单元1层1号2号,大连,大连辽大房地产开发有限公司,金州,20190907,39.10434716151341,121.74517862677146,金润小区B区,192,8467,大连新兴物业管理有限公司,0.4,辽宁,29,二手房,2000
开发区润海园中区30-1,大连,华润（大连）房地产有限公司,开发区,20190907,39.03913809369363,121.75878503934794,华润海中国三期,171,14517,华润物业（大连）有限公司,3.1,辽宁,7,二手房,2010
沙河口区西南路40号楼,大连,无开发商,沙河口,20190907,38.94155650404125,121.5861259059117,星海公园,68,12984,无物业管理服务,-,辽宁,7,二手房,1975
甘井子区泉水H3区15号3单元1层2号,大连,大连新型房地产开发有限公司,甘井子,20190907,39.00158439075201,121.62616882572375,龙畔金泉二期,88,12856,大连新型物业管理有限公司,0.5,辽宁,9,二手房,2002
开发区润海园中区62-9,大连,华润（大连）房地产有限公司,开发区,20190907,39.03913809369363,121.75878503934794,华润海中国四期,132,14238,华润物业（大连）有限公司,3.1,辽宁,8,二手房,2000
甘井子区玉丽街2号楼1单元4号公建,大连,大连新型房地产开发有限公司,甘井子,20190907,38.98705071699301,121.55513043130172,泡崖七区,133,11077,大连新兴物业管理有限公司,0.3,辽宁,17,二手房,1995
沙河口区华北路448号楼1-4公建,大连,无开发商,沙河口,20190907,38.903224944733765,121.56809734950556,刘家桥,98,10960,街道办事处（居委会）代管物业,0.1,辽宁,13,二手房,1980
大连市金州区站前街道生辉第一城14-3号1-2层,大连,大连新希望家园房地产有限公司,金州,20190907,39.0569681786798,121.74773530665969,新希望家园,196,8812,大连新希望物业服务有限公司,1.2,辽宁,22,二手房,2000
沙河口区沙能街101号1单元1层1号,大连,大连新型房地产开发有限公司,沙河口,20190907,38.9366316275348,121.59031205759763,侯二小区,194,11301,街道办事处（居委会）代管物业,0.1,辽宁,35,二手房,1980
沙河口区富民路120号4-1-1,大连,大连渤海红旗集团有限公司,沙河口,20190907,38.930937859528605,121.5647274237578,马栏小学南,67,11456,大连辽南物业管理有限公司,0.2,辽宁,11,二手房,1990
大连市甘井子中华路街道汇畅街48号,大连,远洋地产有限公司,甘井子,20190907,39.0059299196697,121.59621871231741,远洋荣域,193,19119,远洋亿家物业服务股份有限公司大连分公司,2.8,辽宁,10,二手房,2004
甘井子区泉水D6区51号,大连,大连锦丰和源祥房地产开发有限公司,甘井子,20190907,39.00897610161069,121.61789300655198,泉水人家幸福里,128,14139,大连泽霖物业管理有限公司,0.9,辽宁,6,二手房,2007
甘井子区虹港路16号楼1层公建,大连,大连建园房地产开发有限公司,甘井子,20190907,38.9645939333502,121.553851837474,城市印象,42,15952,大连天兴物业管理有限公司,1,辽宁,1,二手房,2009
大连开发区金马路169-2-8号,大连,大连亿锋房地产实业有限公司,开发区,20190907,39.057398235688176,121.78261137849105,亿锋现代城,145,10196,亿锋豪景物业管理有限公司,1.1,辽宁,21,二手房,2004
甘井子区山东路127-2号,大连,大连市大钢集团,甘井子,20190907,38.99065559549029,121.59126483545545,苍山路,50,12823,街道办事处（居委会）代管物业,0.4,辽宁,3,二手房,1988
沙河口区西南路851号3单元1层3号,大连,无开发商,沙河口,20190907,38.94344210837944,121.58246796944378,李家街,32,11860,无物业管理服务,0.1,辽宁,10,二手房,1985
大连市开发区湾里东5-6号,大连,大连宏港房地产开发有限公司,开发区,20190907,39.07275772231556,121.85888789351343,都悦里,214,6969,大连宏港物业管理有限公司,0.3,辽宁,8,二手房,1992
高新园区火炬路18号,大连,大连海脉房地产开发有限公司,高新园区,20190907,38.937738080520404,117.39340752036043,MINI印象,140,15151,大连豪斯威物业管理有限公司,2.2,辽宁,11,二手房,2000
开发区景和园1-7,大连,大连市政府工程建设指挥部,开发区,20190907,40.11590553486206,116.40732462645829,小孤山中里,125,7827,大连广谊物业管理有限公司,0.4,辽宁,14,二手房,1998
甘井子区山东路315号14栋1单元1跃2层13号,大连,华润置地（大连）有限公司,甘井子,20190907,39.00206212579579,121.59357231641214,华润置地广场二期,51,20478,华润物业（大连）有限公司,2.9,辽宁,4,二手房,2011
沙河口区西南路643号,大连,无开发商,沙河口,20190907,38.943483429804665,121.5833555851182,交通大学,85,13111,无物业管理服务,-,辽宁,18,二手房,1955
金州区鹏程家园53#-8,大连,大连光伸房地产开发有限公司,开发区,20190907,39.03523987258615,121.80826248065051,绿洲半岛北岸,147,9476,大连经济技术开发区光伸物业服务有限公司,1.2,辽宁,10,二手房,2000
沙河口区五一路177-1-1-1,大连,无开发商,沙河口,20190907,38.913544290955585,121.59450670056631,台山,116,12134,街道办事处（居委会）代管物业,0.5,辽宁,14,二手房,1980
经济技术开发区城润万家62-8公建,大连,大连海汇房地产开发有限公司,开发区,20190907,39.06883436780937,117.72669530355309,城润万家,131,9761,大连正源物业服务有限公司,1,辽宁,15,二手房,2006
甘井子区泉水D6区51号,大连,大连金广集团,甘井子,20190907,39.00897610161069,121.61789300655198,枫丹丽城,104,16090,大连金广物业有限公司,1.5,辽宁,8,二手房,1987
莲花山路89-3号,大连,大连胜利路拓宽改造工程建设有限公司,沙河口,20190907,38.902848261803356,121.6041720815823,星海融汇,130,21793,大连星海湾商务区物业管理有限公司,1.5,辽宁,6,二手房,2010
沙河口区西南路161号,大连,无开发商,沙河口,20190907,38.89269676588945,121.56639953951542,孙家沟,98,12381,无物业管理服务,-,辽宁,12,二手房,1987
甘井子区锦城西园4#3-1-1,大连,大连锦绣房地产开发有限公司,沙河口,20190907,38.95286223185571,121.55129044777,锦华北园,83,14034,大连锦绣物业管理有限公司,0.6,辽宁,14,二手房,2000
无门店信息,大连,大连金湾实业有限公司,开发区,20190907,43.873634114640744,81.30301501416476,金湾山城,186,9516,大连金湾物业管理有限公司,0.5,辽宁,15,二手房,2000
高新园区聚贤路36号5幢1单元1层1号,大连,大连法马克房地产开发有限公司,高新园区,20190907,32.31472011562832,119.46141263909165,中铁诺德滨海花园,94,19802,大连中铁诺德物业服务有限公司,2.3,辽宁,9,二手房,2010
无门店信息,大连,大连乾豪集团有限公司,开发区,20190907,43.873634114640744,81.30301501416476,格林小镇,192,8174,沈阳瑞码阁物业管理有限公司大连分公司,0.6,辽宁,8,二手房,2000
无门店信息,大连,大连一方生态城房地产开发有限公司,开发区,20190907,43.873634114640744,81.30301501416476,一方天鹅湖,219,8144,大连一方物业管理有限公司,1.9,辽宁,21,二手房,2010
大连市开发区左岸经典正恒园1-17,大连,大连神洲众益集团有限公司,开发区,20190907,39.049057070649155,121.76187404250511,万国宫馆一期,129,13078,加拿大高力国际物业服务有限公司,2.4,辽宁,11,二手房,1998
开发区大开高吉里33栋6号,大连,大连金港集团有限公司,开发区,20190907,39.07355836059941,121.8280439450145,高祥里,75,7932,街道办事处（居委会）代管物业,0.3,辽宁,3,二手房,1992
甘井子区泉水H1区54号3单元1层1号,大连,华润置业集团,甘井子,20190907,39.00703902814677,121.62498697367278,龙畔金泉五期K1区,27,13744,大连新兴物业管理有限公司,0.5,辽宁,2,二手房,2008
甘井子区泉水D1区37-7号,大连,大连运腾房地产开发有限公司,甘井子,20190907,39.013992871679214,121.61921940045104,锦泉源D3区,82,13198,大连南虹物业管理有限公司,0.5,辽宁,9,二手房,2006
甘井子区泉水D6区51号,大连,大连锦丰和源祥房地产开发有限公司,甘井子,20190907,39.00897610161069,121.61789300655198,泉水家年华,107,13963,街道办事处（居委会）代管物业,0.9,辽宁,10,二手房,2007
沙河口区新生路万客园3-7,大连,大连绿波房屋开发集团有限公司,沙河口,20190907,38.94412875710208,121.57006756704837,绿波小区,159,11110,大连绿波建设发展有限公司,0.2,辽宁,10,二手房,1993
大连经济技术开发区东城天下98-14,大连,大连富远房地产开发有限公司,开发区,20190907,39.069195091289004,121.8502099927954,一河两公园,63,10316,大连锦明物业服务有限公司,1.7,辽宁,10,二手房,2007
大连市甘井子区泉水N2区3-13号,大连,大连鹏生房地产开发有限公司,甘井子,20190907,39.021116079001885,121.64659997607325,泉水N1区,100,9999,无物业管理服务,0.7,辽宁,9,二手房,1999
大连市甘井子区辛如街35号1单元1层1号,大连,大连新星房地产开发有限公司,甘井子,20190907,38.96862607066881,121.52294869064194,新星绿城五期,77,13994,大连生生物业有限公司,0.8,辽宁,12,二手房,2006
开发区润海园中区65-7号1-2号,大连,华润（大连）房地产有限公司,开发区,20190907,39.03913809369363,121.75878503934794,华润海中国五期,105,14587,华润物业（大连）有限公司,3.1,辽宁,3,二手房,2006
甘井子区泉水K4区1号2单元1层1号,大连,大连新型房地产开发总公司,甘井子,20190907,39.01482019232349,121.63242049308988,龙畔金泉五期K2区,56,13061,大连新兴物业管理有限公司,0.5,辽宁,6,二手房,2006
甘井子区锦城西园4#3-1-1,大连,大连锦绣房地产开发有限公司,沙河口,20190907,38.95286223185571,121.55129044777,锦霞北园,115,12142,大连锦绣物业管理有限公司,0.3,辽宁,22,二手房,1998
开发区安盛里5栋-4,大连,大连开建集团有限公司,开发区,20190907,23.112106678834838,113.27801046214822,开建阳光馨苑,101,9555,大连开利物业管理有限公司,1.2,辽宁,13,二手房,2007
沙河口区兰田街33号,大连,无开发商,沙河口,20190907,38.926138912221084,121.56486022834609,马栏广场东,17,11860,大连辽南物业管理有限公司,0.2,辽宁,5,二手房,1992
开发区红星海-B区89-1号,大连,远洋地产有限公司,开发区,20190907,39.01381262279472,121.8129339971839,红星海五期青屿蓝,247,15037,大连远洋基业物业管理有限公司,2.2,辽宁,11,二手房,2005
西岗区平等街21号1层2号,大连,西安保亿名卓置业有限公司,西岗,20190907,38.92251066253164,121.63236845125735,实验小学英华街,99,21824,无物业管理服务,0.6,辽宁,3,二手房,1985
甘井子区哲林北园17-6号,大连,大连恒德房屋开发有限公司,甘井子,20190907,38.9600267109581,121.53876726228256,恒德橄榄季,51,22054,大连恒德物业服务有限公司,1.4,辽宁,7,二手房,2008
大连市甘井子区柳林园8-7号,大连,大连万科置业有限公司,甘井子,20190907,38.91290525308349,121.47673750074993,万科溪之谷,180,14506,大连万科物业服务有限公司,0.6,辽宁,22,二手房,2005
沙河口区南沙街36号台二2号1-1-37,大连,无开发商,沙河口,20190907,38.90741410359388,121.57685699961822,南沙,81,11675,无物业管理服务,1,辽宁,14,二手房,1982
甘井子区泉水H3区15号3单元1层2号,大连,大连新型房地产开发有限公司,甘井子,20190907,39.00158439075201,121.62616882572375,龙畔金泉四期,76,13352,大连新型物业管理有限公司,0.4,辽宁,4,二手房,1989
天河路173-2号 华润考拉22号公建,大连,无开发商,甘井子,20190907,38.9909476665524,121.57626660718621,七胜路,21,12108,街道办事处（居委会）代管物业,0.5,辽宁,0,二手房,1989
沙河口区五一路219-1,大连,大连亿达房地产股份有限公司,沙河口,20190907,38.913544290955585,121.59450670056631,桃山小区,96,10085,街道办事处（居委会）代管物业,0.5,辽宁,10,二手房,1994
西岗区鞍山路29号龙畔锦城东门,大连,大连凯润房屋开发有限公司,西岗,20190907,38.92763470697088,121.61498923399098,景润一期,47,11423,无物业管理服务,-,辽宁,8,二手房,1998
开发区红梅小区19栋-2-1-1号,大连,香港北海集团,开发区,20190907,29.906498897603264,121.5913630631805,君悦豪庭,63,11947,街道办事处（居委会）代管物业,1.2,辽宁,3,二手房,2001
甘井子区泡崖六小区6号楼1单元1层2号,大连,大连新型房地产开发有限公司,甘井子,20190907,38.98033159306754,121.55920598894072,泡崖五区,93,11655,大连新兴物业管理有限公司,0.5,辽宁,13,二手房,1990
沙河口区前程街46号4—1—2号,大连,大连银地置业发展有限公司,沙河口,20190907,38.913544290955585,121.59450670056631,观山满庭芳,91,18271,大连新展物业管理有限公司,1,辽宁,14,二手房,2003
甘井子区华东路22号公建,大连,无开发商,甘井子,20190907,38.97736184953593,121.5935814234334,经四街,15,12457,街道办事处（居委会）代管物业,0.5,辽宁,2,二手房,1989
经济技术开发区城润万家4-5号公建,大连,大连山河永好置业有限公司,开发区,20190907,39.05525210261778,121.74865634199398,山河秀景,55,10042,大连山河物业管理有限公司,1.5,辽宁,8,二手房,2000
甘井子区祥龙街2号楼1单元1楼1号,大连,大连市大钢集团,甘井子,20190907,38.98830160721291,121.60368765236996,文星街,18,12752,街道办事处（居委会）代管物业,1,辽宁,2,二手房,1982
甘井子区美域盛景A2区10-6,大连,大连泉水园房屋开发有限公司,甘井子,20190907,39.006221362805846,121.61022278003976,骏腾名苑,81,14286,大连衡德物业管理有限公司,0.5,辽宁,8,二手房,1993
甘井子区山东路398号,大连,华润置地（大连）开发有限公司,甘井子,20190907,38.99821826443242,121.59274974973462,华润置地广场三期,50,22745,华润物业（大连）有限公司,2.9,辽宁,6,二手房,2005
甘井子区泉水D1区10-2#1-1-7,大连,大连运达房地产集团有限公司,甘井子,20190907,39.014829187321,121.61637940668294,锦泉源B4区,63,11541,大连佳泰物业管理有限公司,0.5,辽宁,4,二手房,2002
大连市甘井子区燕南园50号,大连,大连软件园发展有限公司,高新园区,20190907,38.90172480153224,121.5363466289672,东方圣克拉二期,42,26466,亿达物业管理有限公司,2.6,辽宁,9,二手房,2010
沙河口区富民路249号,大连,大连文路建设集团有限公司,沙河口,20190907,38.93341510428133,121.5770130002514,阳光月秀,54,16767,大连丰泽物业管理有限公司,0.6,辽宁,11,二手房,1999
开发区兴城路29-81层,大连,大连亿锋房地产实业有限公司,开发区,20190907,39.05020829677517,121.7578103751747,亿锋广场一期,90,14944,大连广恒物业管理有限公司,2.5,辽宁,10,二手房,2008
开发区松苑街23号,大连,大连盛和房地产开发有限公司,开发区,20190907,22.52087435807652,113.40156105086167,北欧假日,135,12180,大连鸿达物业管理有限公司,1.1,辽宁,13,二手房,2003
高新园区海苑街30号1单元1号公建,大连,大连大有房屋开发有限公司,高新园区,20190907,20.06392317589085,110.32302599457326,大有恬园二期,49,17235,大连家园物业有限公司,1.2,辽宁,6,二手房,2009
大连经济技术开发区时代城4-3号1-2号,大连,远洋地产有限公司,开发区,20190907,39.0992481321252,121.83007860699459,远洋时代城一期,165,9315,大连远洋基业物业管理有限公司,1.5,辽宁,26,二手房,1998
甘井子区红旗花园23号楼19-24轴公建,大连,大连红旗兴达房地产开发有限公司,甘井子,20190907,38.93108029984587,121.54902145022133,兴达花园,84,13029,大连万泰物业管理有限公司,0.6,辽宁,11,二手房,1996
沙河口区前程街46号4—1—2号,大连,大连渤海红旗集团有限公司,甘井子,20190907,38.913544290955585,121.59450670056631,前程街,52,12348,渤海吉祥物业管理有限公司,0.5,辽宁,9,二手房,1994
中山区中南路店212号门头房,大连,无开发商,中山,20190907,38.91149759691359,121.67700561077149,中南路,63,13230,街道办事处（居委会）代管物业,-,辽宁,8,二手房,1987
沙河口区锦霞南园13号4单元1层3号,大连,大连锦绣房地产开发有限公司,沙河口,20190907,38.947634390493555,121.5510543155904,锦华中园,60,12211,大连锦绣物业管理有限公司,0.5,辽宁,12,二手房,1998
沙河口区恒利园42号-8,大连,大连新华房屋开发有限公司,沙河口,20190907,38.93357562498634,121.57914091532649,新华同仁轩,38,17758,大连新华物业管理有限公司,0.6,辽宁,9,二手房,2000
经济技术开发区红星海-A区81-2号1层,大连,无开发商,开发区,20190907,39.01381262279472,121.8129339971839,西雅图,51,10349,大连维泰物业管理有限公司,0.8,辽宁,2,二手房,2002
大连经济技术开发区时代城4-3号1-2号,大连,远洋地产有限公司,开发区,20190907,39.0992481321252,121.83007860699459,远洋时代城三期,83,8827,大连远洋基业物业管理有限公司,1.5,辽宁,13,二手房,2010
西岗区八一路102号,大连,大连澳南房屋开发有限公司,中山,20190907,38.92047268927287,121.61862512554262,明秀山庄A区,56,35711,绿城物业服务集团有限公司大连分公司,1.9,辽宁,3,二手房,2008
甘井子区虹城路503号1-1号,大连,大连易和房地产集团有限公司,甘井子,20190907,38.981193588625004,121.49964051837122,岭秀滨城悦和西园,29,14376,大连易兴物业服务有限公司,1.3,辽宁,3,二手房,2013
沙河口区兰田街33号,大连,无开发商,沙河口,20190907,38.926138912221084,121.56486022834609,兰玉街,28,11777,街道办事处（居委会）代管物业,0.2,辽宁,3,二手房,1990
无门店信息,大连,大连益宁房地产开发有限公司,开发区,20190907,43.873634114640744,81.30301501416476,岭湾峰尚一期,158,8807,大连鸿达物业管理有限公司,1.3,辽宁,18,二手房,2000
金州区同济路44号,大连,大连金州金山房地产开发有限公司,金州,20190907,39.10476859984152,121.71234684495865,金山小区,96,7323,大连金山物业管理有限公司,-,辽宁,2,二手房,1995
开发区润海园中区30-1,大连,华润置地（大连）开发有限公司,开发区,20190907,39.03913809369363,121.75878503934794,华润海中国一期,180,16365,华润物业（大连）有限公司,1.8,辽宁,9,二手房,2007
甘井子区泉水D1区37-7号,大连,大连运腾房地产开发有限公司,甘井子,20190907,39.013992871679214,121.61921940045104,锦泉源D1区,86,14415,大连嘉合物业管理有限公司,0.5,辽宁,11,二手房,2005
无门店信息,大连,大连新跃房地产开发有限公司,金州,20190907,43.873634114640744,81.30301501416476,金海国际花园,208,8017,盘锦瀚新物业管理有限公司,1,辽宁,8,二手房,2000
无门店信息,大连,无开发商,甘井子,20190907,43.873634114640744,81.30301501416476,石油六闾,67,9510,街道办事处（居委会）代管物业,0.5,辽宁,19,二手房,1900
西岗区黄河路362号公建,大连,大连万达商业地产有限公司,西岗,20190907,38.91819905243802,121.61365779430986,万达华府二期,48,23088,大连万景物业管理有限公司,1.6,辽宁,4,二手房,2005
中山区东港龙湖水晶郦湾7-102,大连,大连德威佳业投资有限公司,中山,20190907,38.924700620463895,121.70344398518496,东港天鹅湾,119,26881,哈尔滨德润物业管理有限公司大连分公司,4.8,辽宁,2,二手房,2015
经济技术开发区城润万家4-5号公建,大连,大连海汇房地产开发有限公司,开发区,20190907,39.05525210261778,121.74865634199398,正源吉祥e家,53,12328,大连正源物业服务有限公司,1,辽宁,3,二手房,2010
甘井子辛吉街150号-7号,大连,"大连新界置业有限公司,大连新星房地产开发有限公司",甘井子,20190907,38.96269175537377,121.52106381995755,新星绿城三期,71,13138,大连生生物业管理有限公司,0.5,辽宁,3,二手房,2004
天河路173-2号 华润考拉22号公建,大连,华润置地（大连）开发有限公司,甘井子,20190907,38.9909476665524,121.57626660718621,华润考拉住区,93,15876,华润物业（大连）有限公司,2.5,辽宁,19,二手房,2007
西岗区胜利路33号,大连,陕西亿润经贸有限公司,西岗,20190907,38.91309771954841,121.62500886627636,34中胜利路,22,26970,无物业管理服务,0.5,辽宁,0,二手房,1985
中山区北斗街53号1层1号,大连,大连运达房地产集团有限公司,中山,20190907,38.92727355733075,121.67002970974048,运达嘉洲阳光,40,19334,大连运达物业有限公司,1.8,辽宁,2,二手房,2004
大连市金州新区友谊街道和平路59-10号1-2层公建,大连,无开发商,金州,20190907,39.112168401852266,121.72006917947859,和平小区,23,8286,街道办事处（居委会）代管物业,0.1,辽宁,6,二手房,1989
沙河口区西南路40号楼,大连,无开发商,沙河口,20190907,38.94155650404125,121.5861259059117,黑石礁景山,18,12119,无物业管理服务,-,辽宁,6,二手房,1980
甘井子区千山路26号,大连,大连市大钢集团,甘井子,20190907,38.985697948031984,121.58768860037272,华中街,35,12561,街道办事处（居委会）代管物业,0.1,辽宁,13,二手房,1900
无门店信息,大连,大连软件园瑞安发展有限公司,高新园区,20190907,43.873634114640744,81.30301501416476,大连天地悦翠台,92,15033,大连万科物业服务有限公司,2.4,辽宁,7,二手房,2000
开发区兴城路29-81层,大连,大连亿锋房地产实业有限公司,开发区,20190907,39.05020829677517,121.7578103751747,亿锋广场二期,50,15305,大连广恒物业管理有限公司,2.5,辽宁,6,二手房,2005
无门店信息,大连,大华集团大连置业有限公司,高新园区,20190907,43.873634114640744,81.30301501416476,大华锦绣华城四期,41,22884,大连大华物业管理有限公司,2.5,辽宁,8,二手房,2010
沙河口区新生路万客园3-7,大连,大连鹏生房地产开发有限公司,沙河口,20190907,38.94412875710208,121.57006756704837,枫林绿洲,48,14490,大连鹏辉物业管理有限公司,0.3,辽宁,4,二手房,2002
沙河口区长江路738号,大连,勋业（大连）置业有限公司,西岗,20190907,38.913544290955585,121.59450670056631,远洋风景,60,23991,大连远洋风景物业服务中心,1.9,辽宁,3,二手房,2007
甘井子区金北路17号,大连,大理耀鹏房地产开发有限责任公司,甘井子,20190907,38.97553393692831,121.59969720502335,76中学桥南,77,16169,大连新华物业管理有限公司,0.2,辽宁,5,二手房,1970
开发区金源南里14栋-11号一层部分，14号-12号一层部分,大连,大连开建房地产开发有限公司,开发区,20190907,39.06148862675436,121.82503941311765,金源北里安居小区,72,8408,嘉兴物业管理有限公司,0.3,辽宁,5,二手房,1996
沙河口区五一路96B-8号,大连,大连正源房地产开发有限公司,沙河口,20190907,38.913544290955585,121.59450670056631,幸福e家三期,74,37785,大连正源物业服务有限公司,1,辽宁,3,二手房,2003
甘井子金地艺境博艺西园2-1号,大连,大连天意房地产开发有限公司,甘井子,20190907,39.04402110608829,121.665484498555,金地艺境,179,15092,大连金地物业管理有限公司,0.5,辽宁,4,二手房,2011
西岗区黄河路362号公建,大连,大连万峰房地产开发有限公司,西岗,20190907,38.91819905243802,121.61365779430986,万达华府一期,69,26893,大连万景物业管理有限公司,1.3,辽宁,4,二手房,1990
甘井子区泉水D1区37-7号,大连,大连运腾房地产开发有限公司,甘井子,20190907,39.013992871679214,121.61921940045104,锦泉源D4区,34,14090,大连嘉和物业管理有限公司,0.5,辽宁,4,二手房,2006
沙河口区锦江园30号1层公建,大连,大连锦绣房地产开发有限公司,沙河口,20190907,38.949985113183935,121.56560955976859,锦江园,92,11020,大连锦绣物业管理有限公司,0.3,辽宁,9,二手房,1983
中山区共建巷61号,大连,无开发商,中山,20190907,38.91828093658718,121.66259221532148,39中望海街,11,25925,街道办事处（居委会）代管物业,0.5,辽宁,1,二手房,1970
甘井子区山东路127-2号,大连,无开发商,甘井子,20190907,38.99065559549029,121.59126483545545,七迎路,40,12641,街道办事处（居委会）代管物业,0.2,辽宁,4,二手房,1990
甘井子区红凌路109号,大连,大连锦联地产集团有限公司,甘井子,20190907,38.923388478439314,121.54860212120927,锦绣暖山,76,15177,大连锦明物业服务有限公司,1.2,辽宁,9,二手房,2004
甘井子区锦城东园1号3单元1层2号,大连,大连锦绣房地产开发有限公司,沙河口,20190907,38.952805477462775,121.55656194973994,锦城东园,49,19265,大连锦绣物业管理有限公司,0.6,辽宁,2,二手房,2002
甘井子区红旗中路143号1层4号,大连,大连红旗兴达房地产开发有限公司,甘井子,20190907,38.93169566676921,121.5426632438217,兴达依山居,29,14264,大连金诚物业管理有限公司,0.3,辽宁,4,二手房,2003
高新园区书香街1A#1-1-2,大连,大连金弘基房地产开发有限公司,高新园区,20190907,38.880372108393104,121.55218773010999,弘基三期,56,20765,大连金弘基物业管理有限公司,0.5,辽宁,4,二手房,2004
甘井子区促进路30号2-1-1,大连,福佳集团有限公司,甘井子,20190907,38.954133128707575,121.58355746311207,府佳名都,52,17933,大连富佳物业管理有限公司,0.5,辽宁,8,二手房,2001
甘井子区芳韵街31号,大连,亿达集团大连房地产开发有限公司,甘井子,20190907,38.95628814568166,121.59125586946814,亿达世纪城,60,24770,亿达物业管理有限公司,0.9,辽宁,1,二手房,2002
沙河口区兰田街33号,大连,渤海恒达房屋开发有限公司,沙河口,20190907,38.926138912221084,121.56486022834609,西苑小区,34,13073,大连西苑物业管理有限公司,0.3,辽宁,3,二手房,1994
西岗区平等街21号1层2号,大连,无开发商,西岗,20190907,38.92251066253164,121.63236845125735,实验小学同庆街,93,22835,无物业管理服务,-,辽宁,7,二手房,1980
沙河口区五一路270-274号,大连,无开发商,高新园区,20190907,38.913544290955585,121.59450670056631,由家村,30,13369,无物业管理服务,-,辽宁,9,二手房,1987
甘井子区中华路泉水A1区86号4单元1层1号,大连,大连运泽房地产开发有限公司,甘井子,20190907,39.00405715025758,121.60716996062854,润泽园,94,17048,大连城建开发集团物业管理有限公司,1.4,辽宁,13,二手房,2008
甘井子区促进路30号2-1-1,大连,无开发商,甘井子,20190907,38.954133128707575,121.58355746311207,柳河小区,8,11905,大连衡德物业管理有限公司,0.2,辽宁,5,二手房,1994
金州区凤翔路220号,大连,大连润景房地产开发有限公司,金州,20190907,39.08410553937731,121.77700083356399,恒盛阳光美麓,143,9536,沈阳阳光鑫地物业管理有限公司大连分公司,1.6,辽宁,11,二手房,2006
大连市开发区左岸经典正恒园1-17,大连,大连神洲众益集团有限公司,开发区,20190907,39.049057070649155,121.76187404250511,万国宫馆二期,144,14311,加拿大高力国际物业服务有限公司,2.4,辽宁,7,二手房,2000
开发区红梅小区19栋-2-1-1号,大连,开发区城建局,开发区,20190907,29.906498897603264,121.5913630631805,红梅小区,48,12676,街道办事处（居委会）代管物业,0.3,辽宁,9,二手房,1992
甘井子区新兴路36号3-1-3,大连,大连新型房地产开发有限公司,甘井子,20190907,38.95800216293212,121.53151895549547,泡崖二区,113,10848,大连新兴物业管理有限公司,0.5,辽宁,7,二手房,1990
甘井子区中华路泉水A1区86号4单元1层1号,大连,大连科技园房地产开发有限公司,甘井子,20190907,39.00405715025758,121.60716996062854,奥林园,46,14117,大连衡德物业管理有限公司,0.5,辽宁,5,二手房,1985
中山区东港龙湖水晶郦湾7-102,大连,大连德银置业有限公司,中山,20190907,38.924700620463895,121.70344398518496,海韵华府,18,26202,大连金地物业管理有限公司,3.8,辽宁,0,二手房,2000
金州区南棉路310号,大连,无开发商,金州,20190907,39.09939229372624,121.72414976100345,南棉小区,158,7376,街道办事处（居委会）代管物业,0.5,辽宁,5,二手房,1987
甘井子金地艺境博艺西园2-1号,大连,大连恒昇房地产开发有限公司,甘井子,20190907,39.04402110608829,121.665484498555,福佳新城一期,106,9446,大连福佳物业管理有限公司,0.9,辽宁,6,二手房,2000
沙河口区锦云北园9号2单元1层2号,大连,大连锦绣房地产开发有限公司,沙河口,20190907,38.94844392905448,121.55735323382639,锦云北园,26,11644,大连锦绣物业管理有限公司,0.3,辽宁,3,二手房,1995
无门店信息,大连,大连中海新城置业有限公司,甘井子,20190907,43.873634114640744,81.30301501416476,中海凤凰熙岸,73,13662,大连中海物业管理有限公司,2.3,辽宁,4,二手房,2010
大连市开发区左岸经典正恒园1-17,大连,大连众益神州地产开发有限公司,开发区,20190907,39.049057070649155,121.76187404250511,万国宫馆三期,117,14216,大连万佳物业管理有限公司,2,辽宁,16,二手房,2000
中山区民建街10号1单元1号,大连,无开发商,中山,20190907,38.925444479476894,121.66915026954452,39中明阳街,44,19905,无物业管理服务,-,辽宁,1,二手房,1990
沙河口区富静街26号1单元1层5号,大连,大连正源房地产开发有限公司,沙河口,20190907,38.908727606250466,121.58667844684369,幸福e家五期,191,37613,大连正源物业服务有限公司,1.8,辽宁,15,二手房,2006
开发区鹏程家园66#-6、66#-7公建,大连,大连神洲众益集团有限公司,开发区,20190907,39.03523987258615,121.80826248065051,众益阳光海岸,101,10509,大连万佳物业管理有限公司,1.2,辽宁,6,二手房,2004
开发区红星海B区212-1,大连,远洋地产有限公司,开发区,20190907,39.01758113129015,121.82062304319655,红星海五期岚谷,135,13777,大连远洋基业物业管理有限公司,2.2,辽宁,5,二手房,2007
金州区金湾路132-2号,大连,大连金新房地产开发有限公司,金州,20190907,39.10269111644727,121.72221060686516,金州福佳新天地广场,128,8604,大连福佳物业管理有限公司,1.8,辽宁,5,二手房,2005
甘井子区玉丽街39号楼3号公建,大连,大连新型房地产开发有限公司,甘井子,20190907,38.98706755029984,121.55605471197089,玉浓街,52,10864,大连新兴物业管理有限公司,0.2,辽宁,5,二手房,1990
甘井子区金家街17-7号,大连,南通好一家置业有限公司,甘井子,20190907,38.97493697764367,121.60110987128529,金二街,42,19791,无物业管理服务,-,辽宁,4,二手房,1970
甘井子区海口路77—5号,大连,大连鹏辉房地产开发有限公司,甘井子,20190907,38.960286398428124,121.60305183172997,鹏辉新世纪四期,48,17802,大连鹏辉物业管理有限公司,0.6,辽宁,5,二手房,2003
大连市高新园区七贤中路63号,大连,大连全统房地产开发有限公司,高新园区,20190907,38.86053006357667,121.53273606963094,君海阁,21,18783,大连城建开发集团物业管理有限公司,2.2,辽宁,1,二手房,2012
开发区黄海西路54号,大连,大连凯伦房地产开发股份有限公司,开发区,20190907,39.047714586087785,121.76688238228269,凯伦凯悦,112,8742,大连凯悦物业管理有限公司,3.1,辽宁,8,二手房,2000
甘井子区柳树南街45-10号,大连,中体产业集团大连乐百年置业有限公司,甘井子,20190907,38.92567666296449,121.4841330254372,中体奥林匹克花园,91,14740,广东中奥物业有限公司大连分公司,1.9,辽宁,2,二手房,2010
金州区同济路44号,大连,大连峰景房地产开发有限公司,金州,20190907,39.10476859984152,121.71234684495865,峰景西海岸,37,9053,大连峰景物业有限公司,0.8,辽宁,2,二手房,2004
甘井子区红南东街7-7号,大连,大连大实企业集团房屋开发有限公司,甘井子,20190907,38.92880462247992,121.54144910207062,泊林和山,29,11744,大连弘实物业管理有限公司,0.6,辽宁,9,二手房,2007
沙河口区黑石礁街3号1层1-1号,大连,无开发商,沙河口,20190907,38.880058010307856,121.56313403908827,浪花街,54,11603,无物业管理服务,-,辽宁,15,二手房,1990
沙河口区西南路643号,大连,无开发商,沙河口,20190907,38.943483429804665,121.5833555851182,西关街,33,11764,无物业管理服务,-,辽宁,5,二手房,1995
高新园区黄浦路901S号1单元1层3号,大连,大连金真源集团房地产开发有限公司,高新园区,20190907,38.85845801548294,121.51687109601923,山海一家一期,57,14432,大连龙海物业管理有限公司,0.6,辽宁,5,二手房,2004
甘井子区红旗西路104-23,大连,大连万科房地产开发有限公司,甘井子,20190907,38.94013845868325,121.5282577714263,万科假日风景,87,16973,大连万科物业服务有限公司,1,辽宁,9,二手房,2006
沙河口区红旗东路18-22号2单元1楼3号,大连,大连渤海红旗集团有限公司,甘井子,20190907,38.913544290955585,121.59450670056631,红旗东路,48,11858,渤海吉祥物业管理有限公司,0.4,辽宁,3,二手房,1990
沙河口区南沙街36号台二2号1-1-37,大连,大连鹏生房地产开发有限公司,沙河口,20190907,38.90741410359388,121.57685699961822,鹏顺园,46,25369,大连新型物业管理有限公司,0.5,辽宁,4,二手房,2000
甘井子区绿洲园60号,大连,大连新华房屋开发有限公司,甘井子,20190907,38.95800216293212,121.53151895549547,新华绿洲,77,18555,大连新华物业管理有限公司,0.6,辽宁,7,二手房,2001
沙河口区黄河路883号,大连,大连正源房地产开发有限公司,沙河口,20190907,38.919826721475204,121.57749657966676,幸福e家四期,69,32727,大连正源物业服务有限公司,1.2,辽宁,2,二手房,2003
高新园区海苑街36号1单元2号公建,大连,大连大有房屋开发有限公司,高新园区,20190907,20.06392317589085,110.32302599457326,大有恬园,43,17705,大连家园物业有限公司,0.5,辽宁,4,二手房,2000
甘井子区鹏辉新世纪1幢1单元1-3号房屋（海口路99号）,大连,大连鹏生房地产开发有限公司,甘井子,20190907,38.96077365187575,121.60514653016222,鹏辉新世纪三期,18,17314,大连鹏辉物业管理有限公司,0.6,辽宁,4,二手房,2003
高新园区聚贤路36号5幢1单元1层1号,大连,大连海创房地产开发有限公司,高新园区,20190907,32.31472011562832,119.46141263909165,海创半山壹号,65,17281,大连海创物业管理有限公司,1.8,辽宁,6,二手房,2010
沙河口区敦煌路357号10-11轴公建,大连,无开发商,沙河口,20190907,38.93891619583455,121.59150694046835,车家村,28,10699,街道办事处（居委会）代管物业,0.5,辽宁,11,二手房,1980
金州区金润小区B区861单元102,大连,大连辽大房地产开发有限公司,金州,20190907,39.103153105120306,121.74665495055505,金润小区A区,144,8674,大连新兴物业管理有限公司,0.4,辽宁,10,二手房,1999
甘井子区华北路花锦园28号23-3-1-2建筑物,大连,大连东特房地产开发有限公司,甘井子,20190907,38.951631439880536,121.57401414205216,东特新天地,59,16953,大连瑞祥物业管理有限公司,0.5,辽宁,13,二手房,2001
大连市金州新区中长街道碧海尚城5-4号1-2层,大连,无开发商,金州,20190907,39.1001690968934,121.73061017121415,碧海尚城,117,8108,街道办事处（居委会）代管物业,0.8,辽宁,6,二手房,2005
甘井子区海口路77—5号,大连,大连鹏生房地产开发有限公司,甘井子,20190907,38.960286398428124,121.60305183172997,鹏辉新世纪二期,15,17309,大连鹏辉物业管理有限公司,0.6,辽宁,2,二手房,2003
大连市甘井子中华路街道汇畅街48号,大连,远洋地产有限公司,甘井子,20190907,39.0059299196697,121.59621871231741,远洋自然,59,17775,大连远洋基业物业管理有限公司,1.3,辽宁,6,二手房,2001
高新园区红凌路732-4号,大连,大华集团大连置业有限公司,高新园区,20190907,38.90204708664442,121.53244406374695,大华锦绣华城二期,49,26242,大连大华物业管理有限公司,2.5,辽宁,1,二手房,2010
无门店信息,大连,大连亿达房地产股份有限公司,高新园区,20190907,43.873634114640744,81.30301501416476,亿达悦龙居,31,14706,亿达物业管理有限公司,2.8,辽宁,8,二手房,2012
大连市甘井子区燕南园50号,大连,大连软件园发展有限公司,高新园区,20190907,38.90172480153224,121.5363466289672,东方圣克拉一期,58,24997,亿达物业管理有限公司,2.6,辽宁,1,二手房,2010
"西岗区泰公街20号2层7号 西岗区久寿街22号1层14号""",大连,大连润德君城房地产开发有限公司,西岗,20190907,38.92600196862723,121.62141976476381,北京公园,44,24912,大连润德物业管理有限公司,2.2,辽宁,4,二手房,2008
甘井子区亿家缘虹韵路205,大连,大连亿达美加房地产开发有限公司,甘井子,20190907,38.95759554613104,121.5279376157567,第五郡一号地,52,22461,亿达物业管理有限公司,1.9,辽宁,4,二手房,2010
甘井子区山东路137号,大连,大连新型房地产开发有限公司,甘井子,20190907,38.99129404608926,121.59172125999353,华南花园,33,14231,大连天洋物业管理有限公司,0.3,辽宁,3,二手房,1998
中山区山屏街116号1-1,大连,无开发商,中山,20190907,38.90729438486833,121.68598159980013,怡和街,28,12305,街道办事处（居委会）代管物业,0.5,辽宁,6,二手房,1990
大连市开发区湾里东5-6号,大连,大连明和房地产开发有限公司,开发区,20190907,39.07275772231556,121.85888789351343,青国青城,73,11406,大连豪斯沃克物业有限公司,1.5,辽宁,1,二手房,2005
开发区松苑街23号,大连,大连泰乐房地产开发有限公司,开发区,20190907,22.52087435807652,113.40156105086167,碧海华庭,52,6734,大连海滨物业管理有限公司,0.5,辽宁,2,二手房,2000
高新园区硅谷假日小区25号楼地下室,大连,大连志恒房地产开发有限公司,高新园区,20190907,38.865995717263544,121.53771220335938,菁英汇,69,15618,大连海创物业管理有限公司,1.2,辽宁,7,二手房,2007
中山区武昌街武昌公寓6号公建,大连,大连武昌房地产开发有限公司,中山,20190907,38.912280913445784,121.64921130527547,部居逸阁,21,13420,大连宜佳物业管理有限公司,1,辽宁,1,二手房,2005
甘井子区泉水D6区51号,大连,大连时代房地产开发有限公司,甘井子,20190907,39.00897610161069,121.61789300655198,富士庄园,70,16317,大连佳泰物业管理有限公司,1.2,辽宁,3,二手房,2004
无门店信息,大连,大连聚达房地产开发有限公司,旅顺口,20190907,43.873634114640744,81.30301501416476,海尚明珠,171,9935,大连合生物业管理有限公司,1.3,辽宁,8,二手房,2005
西岗区鞍山路29号龙畔锦城东门,大连,大连万达房地产开发有限公司,西岗,20190907,38.92763470697088,121.61498923399098,长春花园,25,17363,大连万达物业管理有限公司,0.5,辽宁,1,二手房,1990
开发区兴城路29-81层,大连,大连亿锋集团有限公司,开发区,20190907,39.05020829677517,121.7578103751747,亿锋广场三期,62,15357,大连广恒物业管理有限公司,2.8,辽宁,5,二手房,2010
西岗区鞍山路29号龙畔锦城东门,大连,大连铁路房地产开发有限责任公司,西岗,20190907,38.92763470697088,121.61498923399098,龙畔锦城,55,20087,大连亚航物业管理有限公司,1.2,辽宁,4,二手房,2000
大连市经济技术开发区东城园98-14,大连,大连聚美房地产开发有限公司,开发区,20190907,39.069505812004174,121.85041013526302,聚美东湾,73,12274,大连聚美房地产开发有限公司,1.6,辽宁,1,二手房,2013
沙河口区知心园10号公建,大连,大连软件园开发有限公司,高新园区,20190907,38.893977135945136,121.55667141994431,亿达国际新城,46,22547,亿达物业管理有限公司,1,辽宁,1,二手房,2003
甘井子区千山路66号楼2单元1楼2号,大连,大连宜和房地产开发有限公司,甘井子,20190907,38.985716774397915,121.58287796391829,盛世闲庭,49,15285,大连衡德物业管理有限公司,0.5,辽宁,6,二手房,2003
开发区大开高吉里33栋6号,大连,大连开建集团有限公司,开发区,20190907,39.07355836059941,121.8280439450145,高城花园,45,7825,嘉兴物业管理有限公司,0.2,辽宁,2,二手房,2000
经济技术开发区城润万家62-8公建,大连,大连海汇房地产开发有限公司,开发区,20190907,39.06883436780937,117.72669530355309,正源吉祥e家祥福园,56,11774,大连正源物业服务有限公司,1.5,辽宁,8,二手房,2012
甘井子区金北路17号,大连,无开发商,甘井子,20190907,38.97553393692831,121.59969720502335,76中学桥北,98,18601,无物业管理服务,-,辽宁,6,二手房,1965
甘井子区虹港路16号楼1层公建,大连,大连鑫奇房地产开发有限公司,甘井子,20190907,38.9645939333502,121.553851837474,鑫境界,91,11954,大连鑫境界物业管理有限公司,1.3,辽宁,3,二手房,2007
金州新区先进街道渤海街7-4号1-2层、7-3号1-2层,大连,大连九鼎置地有限公司,金州,20190907,39.09342713035472,121.74590886291374,万科城,80,11326,大连万科物业服务有限公司,2.2,辽宁,8,二手房,2011
金州区金润小区B区861单元102,大连,大连中连房地产开发有限公司,金州,20190907,39.103153105120306,121.74665495055505,自然天城B区,83,7474,大连新生活物业管理有限公司,0.4,辽宁,6,二手房,2004
大连市经济技术开发区东城园98-14,大连,大连金湾实业有限公司,开发区,20190907,39.069505812004174,121.85041013526302,裕民新苑,64,8537,大连金湾物业管理有限公司,0.3,辽宁,4,二手房,2002
沙河口区恒利园42号-8,大连,大连天河房地产开发集团有限公司,沙河口,20190907,38.93357562498634,121.57914091532649,天河新苑,40,13217,大连天河物业管理有限公司,0.4,辽宁,4,二手房,2000
甘井子区绿洲园60号,大连,大连友谊合升房地产开发有限公司,甘井子,20190907,38.95800216293212,121.53151895549547,壹品天城,143,28833,大连富丽华物业管理有限公司,0.5,辽宁,7,二手房,2010
无门店信息,大连,大连亿达房地产股份有限公司,旅顺口,20190907,43.873634114640744,81.30301501416476,亿达玉龙湾,51,9467,亿达物业管理有限公司,1.5,辽宁,6,二手房,2010
沙河口区杨树街4-4号公建,大连,大连金弘基房地产开发有限公司,高新园区,20190907,38.88444587249751,121.55130620045541,弘基二期,32,22822,大连金弘基物业管理有限公司,0.6,辽宁,3,二手房,2002
甘井子区宜居园10-1号房屋,大连,大连万科房地产开发有限公司,甘井子,20190907,38.99913094587405,121.52084969112292,万科朗润园,102,15049,大连万科物业服务有限公司,1.5,辽宁,21,二手房,2009
西岗区香炉礁24号1-1,大连,中瑞置业（大连）有限公司,西岗,20190907,38.92047268927287,121.61862512554262,香周首府,91,19522,中融物业管理有限公司,3,辽宁,3,二手房,2008
中山区益民街16号1层1号,大连,大连恒力德实业开发有限公司,中山,20190907,38.93092761298906,121.66470740073377,港湾壹号,77,14216,大连日航酒店物业管理有限公司,3.8,辽宁,13,二手房,2006
开发区东北三街94号1层,大连,开发区城建局,开发区,20190907,39.05723508011585,121.80570768630555,倚园里小区,58,7634,大连佳兴物业管理有限公司,0.3,辽宁,4,二手房,1998
高新园敬贤街23-11号,大连,中海东丰地产（大连）有限公司,高新园区,20190907,38.869456648212356,121.53023725049893,中海华庭,64,20057,大连中海物业管理有限公司,2,辽宁,10,二手房,2008
高新园区火炬路18号,大连,大连奥泰房地产开发有限公司,高新园区,20190907,38.937738080520404,117.39340752036043,因特摩尔,63,17991,大连奥泰物业服务有限公司,2.6,辽宁,2,二手房,2010
沙河口区富民路120号4-1-1,大连,大连银地置业发展有限公司,沙河口,20190907,38.930937859528605,121.5647274237578,观山蝶恋花,41,15118,大连新展物业管理有限公司,1,辽宁,2,二手房,2002
大连市甘井子区钻石湾和信园13-5,大连,远洋地产有限公司,甘井子,20190907,38.958506893694114,121.61900385114562,远洋钻石湾三期,56,21857,远洋亿家物业服务股份有限公司大连分公司,1.5,辽宁,8,二手房,2012
大连市甘井子区泉水N2区3-13号,大连,大连半岛集团有限公司,甘井子,20190907,39.021116079001885,121.64659997607325,半岛泉水欣座,31,15039,大连半岛物业管理有限公司,1.5,辽宁,1,二手房,2010
开发区安盛里5栋-4,大连,大连盛铭资产管理有限公司,开发区,20190907,23.112106678834838,113.27801046214822,安盛花园,96,9674,大连经济技术开发区海青物业有限公司,1.1,辽宁,10,二手房,2002
甘井子区华龙南园12-4-3-1-3,大连,大连长鹭房屋开发有限公司,甘井子,20190907,38.98528794231248,121.61028969481718,晶品枫林,49,13825,北京房修一物业管理有限公司,0.5,辽宁,2,二手房,2005
金州区光明街道育才街42-6号1-2层,大连,大连市金州区育才房地产开发有限公司,金州,20190907,39.109080894078986,121.7182584929096,职高小区,48,8582,大连金州育才物业管理有限公司,0.5,辽宁,5,二手房,1900
甘井子区促进路200号,大连,大连航宇房屋开发有限公司,甘井子,20190907,38.95810188892782,121.58530036264898,促进小区,25,12174,大连顺达物业服务有限公司,0.2,辽宁,4,二手房,1995
沙河口区鞍山路65号美都园7号1单元1层4号公建,大连,大连美辰房地产开发有限公司,沙河口,20190907,38.92755211283745,121.60306664748275,丽景春天,27,19379,大连远洋基业物业管理有限公司,0.8,辽宁,3,二手房,2003
天河路173-2号 华润考拉22号公建,大连,无开发商,甘井子,20190907,38.9909476665524,121.57626660718621,七江路,21,12078,街道办事处（居委会）代管物业,0.2,辽宁,2,二手房,1995
无门店信息,大连,开发区城建局,开发区,20190907,43.873634114640744,81.30301501416476,东居里,134,7221,大连经济技术开发区海青物业有限公司,0.2,辽宁,4,二手房,1994
大连市沙河口区知邻街50号,大连,大连软件园开发有限公司,沙河口,20190907,38.913544290955585,121.59450670056631,宅语原,74,20303,亿达物业管理有限公司,2,辽宁,2,二手房,2008
开发区景和园1-7,大连,无开发商,开发区,20190907,40.11590553486206,116.40732462645829,古耕景和园,41,9488,街道办事处（居委会）代管物业,0.5,辽宁,5,二手房,2007
开发区翠竹小区33栋4-1-1号,大连,"大连宏济开发经济有限公司,大连宏发投资发展有限公司",开发区,20190907,39.050117654732595,121.7714150980385,宏城金棕榈,70,10140,大连宏景物业管理有限公司,1.3,辽宁,5,二手房,2004
大连市金州区友谊街道南金华城25号1-2层1号,大连,大连金园房地产开发有限公司,金州,20190907,39.128677228885614,121.71356109978767,金海明珠,52,9995,大连金园社区服务有限公司,0.5,辽宁,4,二手房,2000
大连市沙河口区文萃街1号1-2-2；大连市沙河口区由家五小区五号楼1单元2层1,大连,大连理工科技城建设开发有限公司,高新园区,20190907,38.88596852074166,121.54389553303217,文萃轩小区,42,17700,大连理工物业管理中心,0.2,辽宁,6,二手房,1980
大连市开发区抚顺街30号,大连,无开发商,开发区,20190907,38.92272284555705,121.5977239817503,爱我家园,29,9541,大连嘉兴物业管理有限公司,0.5,辽宁,1,二手房,1998
沙河口区黄河路562号,大连,大连新型房地产开发有限公司,沙河口,20190907,38.9167961764482,121.60352063132478,79中科学家公寓,42,20698,大连新兴物业管理有限公司,0.8,辽宁,6,二手房,1992
大连市高新园区七贤中路63号,大连,大连宏都房地产开发有限公司,高新园区,20190907,38.86053006357667,121.53273606963094,宏都峰景,31,20553,大连东方百瑞物业管理有限公司,1.9,辽宁,4,二手房,2012
甘井子区山东路商业街D区12号公建,大连,大连市大钢集团,甘井子,20190907,39.001060021502965,121.58883960371418,梅山路,7,12730,街道办事处（居委会）代管物业,0.1,辽宁,2,二手房,1981
西岗区香炉礁24号1-1,大连,大连新型房地产开发有限公司,西岗,20190907,38.92047268927287,121.61862512554262,金海花园西园,44,12203,无物业管理服务,0.5,辽宁,7,二手房,1990
沙河口区绿清街12号,大连,大连绿波房屋开发集团有限公司,沙河口,20190907,38.93851335419565,121.57334844377094,绿波花园,31,14226,大连绿波建设发展有限公司,0.6,辽宁,9,二手房,1997
甘井子区红旗中路143号1层4号,大连,大连保利红旗房地产开发有限公司,甘井子,20190907,38.93169566676921,121.5426632438217,保利西山林语,86,21015,保利物业服务有限公司,1.5,辽宁,9,二手房,2006
高新园敬贤街23-11号,大连,大连晟远房地产开发有限公司,高新园区,20190907,38.869456648212356,121.53023725049893,恒瑞坦城,66,18260,大连恒德物业服务有限公司,2.4,辽宁,4,二手房,2013
金州区同济路44号,大连,大连金开信都房地产开发有限公司,金州,20190907,39.10476859984152,121.71234684495865,海天新界,53,8380,大连西海岸物业管理有限公司,1,辽宁,2,二手房,2000
金州区南棉路310号,大连,无开发商,金州,20190907,39.09939229372624,121.72414976100345,劳动局小区,120,8114,无物业管理服务,0.1,辽宁,5,二手房,1989
中山区华乐街93—1号,大连,大连环海房地产开发有限公司,中山,20190907,38.921950924512124,121.68673151242629,华乐环海花园,36,23502,大连景和物业管理有限公司,1.1,辽宁,0,二手房,2001
沙河口区星海广场B3区14-2号1层,大连,大连友谊合升房地产开发有限公司,沙河口,20190907,38.88693148294673,121.58735631267305,壹品星海一期,48,23104,暂无信息,1.3,辽宁,7,二手房,2004
大连市甘井子区泉水R2区33-4号第8幢1单元1跃2层9号,大连,大连天意房地产开发有限公司,甘井子,20190907,39.00959640852594,121.63835439386493,金地檀溪,89,18251,大连金地物业管理有限公司,2.6,辽宁,2,二手房,2009
西岗区九三街64号,大连,润德集团有限公司,西岗,20190907,38.92047268927287,121.61862512554262,润德广场,64,15440,大连润德物业管理有限公司,3.8,辽宁,5,二手房,2000
甘井子区柳树南街45-10号,大连,大连都源置业有限公司,甘井子,20190907,38.92567666296449,121.4841330254372,依云溪谷,60,14706,大连远洋物业管理有限公司,1.2,辽宁,9,二手房,2007
大连市甘井子区软件园路122号,大连,大连鑫园房屋开发有限公司,高新园区,20190907,38.89286578891647,121.53266600180116,新新园二期,17,14897,大连理工物业管理中心,0.5,辽宁,1,二手房,2004
甘井子辛吉街150号-7号,大连,大连新星房地产开发有限公司,甘井子,20190907,38.96269175537377,121.52106381995755,新星帕尔美娜,61,16171,大连生生物业有限公司,1,辽宁,3,二手房,2008
沙河口区中山路417A-4号,大连,大连海孚房地产开发有限公司,沙河口,20190907,38.906939870156414,121.5941747326634,华业玫瑰东方,68,26222,深圳华业物业管理有限公司大连分公司,3.5,辽宁,2,二手房,1990
沙河口区西南路358号1—2号,大连,大连泰安房地产开发有限公司,沙河口,20190907,38.90839654326566,121.56908246905662,泰安花园,31,14723,大连三宝物业发展有限公司,0.5,辽宁,5,二手房,1998
甘井子区红旗中路143号1层4号,大连,大连红旗兴达房地产开发有限公司,甘井子,20190907,38.93169566676921,121.5426632438217,兴达福山居,23,15510,大连万泰物业管理有限公司,0.4,辽宁,8,二手房,2004
金州区同济路44号,大连,大连永乐房地产开发有限公司,金州,20190907,39.10476859984152,121.71234684495865,永乐金庭,40,9640,大连天河物业管理有限公司,0.8,辽宁,0,二手房,2005
沙河口区黄河路535号,大连,大连城市建设集团有限公司,沙河口,20190907,38.91773777159567,121.60217159922856,79中至诚小区,40,27536,大连天河物业管理有限公司,0.1,辽宁,2,二手房,1958
开发区黄海西路201号107公建,大连,无开发商,开发区,20190907,39.04942604506828,121.80126318235419,岗盛里小区,110,6955,街道办事处（居委会）代管物业,0.5,辽宁,2,二手房,1994
沙河口区富国街34-3,大连,大连万达房地产开发有限公司,沙河口,20190907,38.90160386349964,121.58915317342193,星海人家,71,27652,大连万景物业管理有限公司,1.2,辽宁,5,二手房,2001
大连市甘井子中华路街道汇畅街48号,大连,大连嘉盈置业有限公司,甘井子,20190907,39.0059299196697,121.59621871231741,宏都熙景,35,21873,大连宏都物业管理有限公司,2.3,辽宁,1,二手房,2015
金州区光明街道育才街42-6号1-2层,大连,金州城建局，开发区城建局,金州,20190907,39.109080894078986,121.7182584929096,芙蓉花园（金州）,35,10098,大连金州新区建房物业管理中心,0.6,辽宁,2,二手房,2005
中山区金城街26号一楼,大连,大连万达房地产开发有限公司,中山,20190907,38.922282529515634,121.65214466263014,九中金城街,20,35582,无物业管理服务,-,辽宁,6,二手房,1990
无门店信息,大连,大连馨悦房地产开发有限公司,金州,20190907,43.873634114640744,81.30301501416476,悦泰山里,92,10298,大连百安物业管理有限公司,0.5,辽宁,7,二手房,2000
沙河口区兰田街33号,大连,大连运达房地产集团有限公司,沙河口,20190907,38.926138912221084,121.56486022834609,兰溪文苑,55,20807,大连运达物业管理有限公司,0.8,辽宁,1,二手房,2004
高新园区红凌路732-4号,大连,大连软件园开发有限公司,高新园区,20190907,38.90204708664442,121.53244406374695,东方圣克拉三期,68,25575,亿达物业管理有限公司,2.6,辽宁,3,二手房,2013
甘井子区芳韵街31号,大连,大连亿达房地产股份有限公司,甘井子,20190907,38.95628814568166,121.59125586946814,唯美品格,102,30063,亿达物业管理有限公司,1.5,辽宁,6,二手房,2008
沙河口区锦石园24-7号第A2-13幢1单元1层1号,大连,大连鼎新美地置业有限公司,甘井子,20190907,38.913544290955585,121.59450670056631,鼎新鼎润四季,25,21578,大连中原物业代理有限公司,1.2,辽宁,1,二手房,2006
金州区胜利西小区44号楼,大连,大连金宸集团,金州,20190907,39.10507689383061,121.71536524220103,连大文润金宸一二期,61,10689,大连四通物业管理有限公司,0.9,辽宁,4,二手房,2000
金州区先进街道渤海街1-4号1-2层,大连,无开发商,金州,20190907,39.09512910553563,121.74578812616167,金元小区,62,7228,街道办事处（居委会）代管物业,0.1,辽宁,4,二手房,1993
金州区小平岛B组团4号楼3号商铺,大连,安达圣岛开发有限公司,高新园区,20190907,39.05643299166072,121.78943558267059,小平岛亲海园,80,17511,大连凯尔富物业管理有限公司,1.3,辽宁,2,二手房,2007
甘井子区玉丽街39号楼3号公建,大连,大连新型房地产开发有限公司,甘井子,20190907,38.98706755029984,121.55605471197089,玉丽街,75,10218,大连新兴物业管理有限公司,0.5,辽宁,3,二手房,2000
沙河口区锦石路8号,大连,大连锦绣房地产开发有限公司,沙河口,20190907,38.94771288948481,121.56110903658733,锦泉南园,47,11745,大连锦绣物业管理有限公司,0.3,辽宁,3,二手房,1995
高新园区敬贤街25-9,大连,大连邦盛发展有限公司,高新园区,20190907,38.86879447142154,121.53007349209936,雯君庭,37,21630,大连意美物业服务有限公司,2.3,辽宁,6,二手房,2013
大连市甘井子区丰收路3-5号,大连,大连万鼎置业有限公司,甘井子,20190907,38.965377255081755,121.58288415324094,万科蓝山,34,26609,大连万科物业服务有限公司,2.9,辽宁,2,二手房,2012
甘井子区红南东街7-7号,大连,大连良运房地产开发有限公司,甘井子,20190907,38.92880462247992,121.54144910207062,山居笔记,24,16576,大连良运物业管理有限公司,1.5,辽宁,2,二手房,2009
沙河口区南沙街36号台二2号1-1-37,大连,大连康加立置业有限公司,沙河口,20190907,38.90741410359388,121.57685699961822,台四小区,46,13312,大连弘达物业管理有限公司,-,辽宁,5,二手房,1996
莲花山路89-3号,大连,无开发商,西岗,20190907,38.902848261803356,121.6041720815823,世纪家园(西岗),11,17520,大连铁龙物业管理有限公司,0.3,辽宁,0,二手房,2000
沙河口区富国街14号1-1-2,大连,大连永辉房地产开发有限公司,沙河口,20190907,38.90122538432287,121.59040728337153,百年汇,120,18479,大连百年城物业管理有限公司,2.8,辽宁,3,二手房,2006
高新园区海苑街36号1单元2号公建,大连,千汇德（大连）置业有限公司,高新园区,20190907,20.06392317589085,110.32302599457326,哈佛映像,22,18863,大连千汇德物业管理有限公司,1.2,辽宁,3,二手房,2008
无门店信息,大连,大连万科房地产开发有限公司,旅顺口,20190907,43.873634114640744,81.30301501416476,万科樱花园三期,39,12959,大连万科物业服务有限公司,2.4,辽宁,17,二手房,2010
沙河口区星海广场B3区20—3号,大连,大连飞通房地产开发有限公司,沙河口,20190907,38.88821813888643,121.58674530143466,东方星海,130,17898,大连兆恒物业管理有限公司,2.9,辽宁,7,二手房,2006
无门店信息,大连,大华集团大连置业有限公司,高新园区,20190907,43.873634114640744,81.30301501416476,大华锦绣华城三期,47,22760,大连大华物业管理有限公司,2.5,辽宁,4,二手房,2010
甘井子区山东路398号,大连,大连盛铭资产管理有限公司,甘井子,20190907,38.99821826443242,121.59274974973462,亿合城,77,18678,大连盛安物业管理有限公司,1.5,辽宁,7,二手房,2008
高新园区火炬路18号,大连,大连千业房地产开发有限公司,高新园区,20190907,38.937738080520404,117.39340752036043,第8区,31,17843,大连大管家物业管理有限公司,1.9,辽宁,6,二手房,2010
甘井子区华龙南园12-4-3-1-3,大连,大连瑞祥房地产开发有限公司,甘井子,20190907,38.98528794231248,121.61028969481718,今都小区,58,12485,大连泰安物业管理有限公司,0.2,辽宁,2,二手房,1996
高新园区红凌路732-4号,大连,大华集团大连置业有限公司,高新园区,20190907,38.90204708664442,121.53244406374695,大华锦绣华城一期,51,24754,大连大华物业管理有限公司,2.5,辽宁,2,二手房,2010
甘井子区金北街17号,大连,大连悦泰集团有限公司,甘井子,20190907,38.95800216293212,121.53151895549547,悦泰馨家,26,25762,大连优豪斯物业管理有限公司,0.5,辽宁,2,二手房,2003
甘井子区华东路22号公建,大连,大连金广地产集团有限公司,甘井子,20190907,38.97736184953593,121.5935814234334,华东路（山东路商圈）,30,12035,大连嘉和物业管理有限公司,0.5,辽宁,3,二手房,1990
甘井子区汇达园26号,大连,大连市大钢集团,甘井子,20190907,38.99704654604941,121.59758808878767,华南沃尔玛六平路,19,12373,街道办事处（居委会）代管物业,0.5,辽宁,1,二手房,1990
甘井子金地艺境博艺西园2-1号,大连,福佳集团有限公司,甘井子,20190907,39.04402110608829,121.665484498555,欣家园二期,36,9526,街道办事处（居委会）代管物业,0.5,辽宁,7,二手房,2000
甘井子区西南路芳茗园30号楼,大连,大连东北房屋开发有限公司,甘井子,20190907,38.961395177040636,121.59546002818708,东北名苑,52,17511,大连国合物业管理有限公司,0.5,辽宁,2,二手房,2000
高新园区红凌路732-4号,大连,大连亿达房地产股份有限公司,高新园区,20190907,38.90204708664442,121.53244406374695,亿达峦翠园,41,20657,亿达物业管理有限公司,1.3,辽宁,5,二手房,2009
无门店信息,大连,融创开发商,甘井子,20190907,43.873634114640744,81.30301501416476,三寰融创城北园,44,12899,融创物业,2.2,辽宁,2,二手房,2013
中山区爱华街13号,大连,无开发商,中山,20190907,38.92541607518685,121.6535728031028,九中安乐街,49,38028,无物业管理服务,-,辽宁,1,二手房,1980
沙河口区成仁街91号,大连,大连万达房地产开发有限公司,沙河口,20190907,38.91539947107844,121.59585638842556,龙祥花园,21,25566,大连万达物业管理有限公司,0.8,辽宁,1,二手房,2001
开发区兴城路29-81层,大连,大连兆佳房地产开发有限公司,开发区,20190907,39.05020829677517,121.7578103751747,自由向,52,14558,大连华安物业管理有限公司,2.4,辽宁,5,二手房,2000
无门店信息,大连,上海福佳置业有限公司,甘井子,20190907,43.873634114640744,81.30301501416476,海禄苑小区,50,10027,无物业管理服务,0.9,辽宁,4,二手房,2000
大连市高新园区软件园路1A-3号,大连,亿达房地产开发有限公司,高新园区,20190907,38.894037160822535,121.54670889743173,软件园小区,68,14701,业主自筹物业,0.2,辽宁,3,二手房,1990
中山区东港龙湖水晶郦湾7-102,大连,大连龙湖东港房地产有限公司,中山,20190907,38.924700620463895,121.70344398518496,龙湖水晶郦湾,67,28512,大连龙湖物业服务有限公司,4.5,辽宁,10,二手房,2012
沙河口区西南路851号3单元1层3号,大连,大连振屹房屋开发有限公司,沙河口,20190907,38.94344210837944,121.58246796944378,柳馨家园,8,12925,街道办事处（居委会）代管物业,0.6,辽宁,1,二手房,2000
中山区金城街26号一楼,大连,合肥万科瑞翔地产有限公司,中山,20190907,38.922282529515634,121.65214466263014,解放街,21,24637,无物业管理服务,-,辽宁,2,二手房,1982
沙河口区西南路358号1—2号,大连,大连弘晟房地产开发有限公司,沙河口,20190907,38.90839654326566,121.56908246905662,明月山庄,20,15995,大连衡德物业管理有限公司,0.6,辽宁,2,二手房,2003
甘井子区促进路200号,大连,大连亿达房地产股份有限公司,甘井子,20190907,38.95810188892782,121.58530036264898,林语家话,46,26233,亿达物业管理有限公司,1.2,辽宁,8,二手房,2000
甘井子区华东路22号公建,大连,大连凯祥房地产开发有限公司,甘井子,20190907,38.97736184953593,121.5935814234334,环馨山庄,19,13173,大连凯祥物业管理有限公司,0.5,辽宁,2,二手房,2000
西岗区长春路334号,大连,无开发商,西岗,20190907,38.89807766522607,121.63221082858387,长春路（石道街商圈）,21,11566,无物业管理服务,-,辽宁,3,二手房,1989
西岗区黄河路82号,大连,大连民兴房地产开发有限公司,西岗,20190907,38.92243503020161,121.6287927913896,前城国际二期,38,22758,大连前城花园物业管理有限公司,1.5,辽宁,2,二手房,2000
甘井子区柳树南街45-10号,大连,中体产业集团大连乐百年置业有限公司,甘井子,20190907,38.92567666296449,121.4841330254372,水木清华,35,13402,大连辰谊物业管理有限公司,1.2,辽宁,4,二手房,2008
中山区解放路604号,大连,无开发商,中山,20190907,38.89026319122045,121.66407876092346,山海巷,9,9928,街道办事处（居委会）代管物业,0.5,辽宁,1,二手房,1985
沙河口区五一路177-1-1-1,大连,大华集团大连房地产开发有限公司,沙河口,20190907,38.913544290955585,121.59450670056631,大华御庭,61,22758,大连乐尔居物业服务有限公司,1.4,辽宁,3,二手房,2009
沙河口区长江路738号,大连,大连大和中盛房地产有限公司,西岗,20190907,38.913544290955585,121.59450670056631,颐和香榭,37,29104,大连颐和物业管理有限公司,2.5,辽宁,0,二手房,2008
西岗区华北路100号1层5号,大连,大连万达房地产开发有限公司,西岗,20190907,38.92047268927287,121.61862512554262,香海花园,23,16563,大连万达物业管理有限公司,0.8,辽宁,1,二手房,1998
开发区杏树里10栋-14,大连,无开发商,开发区,20190907,39.08113818354046,121.78505742127606,松苑山庄,91,5962,大连市金州区先进物业管理中心,0.5,辽宁,5,二手房,1990
开发区翠竹小区33栋4-1-1号,大连,江苏翠竹置业集团有限公司,开发区,20190907,39.050117654732595,121.7714150980385,翠竹中区,29,10730,嘉兴物业管理有限公司,0.3,辽宁,3,二手房,1996
大连市金州新区友谊街道和平路59-10号1-2层公建,大连,无开发商,金州,20190907,39.112168401852266,121.72006917947859,古城乙区,193,7478,无物业管理服务,0.4,辽宁,4,二手房,1992
甘井子区促进路30号2-1-1,大连,大连谷和房屋开发有限公司,甘井子,20190907,38.954133128707575,121.58355746311207,谷和温馨苑,21,17969,大连谷和物业管理有限公司,0.6,辽宁,10,二手房,2002
高新园敬贤街23-11号,大连,中海地产,高新园区,20190907,38.869456648212356,121.53023725049893,中海紫御观邸二期,23,21861,大连中海物业管理有限公司,2.6,辽宁,1,二手房,2005
中山区东港龙湖水晶郦湾7-102,大连,大连金广地产集团有限公司,中山,20190907,38.924700620463895,121.70344398518496,金广东海岸,66,23438,大连金广物业有限公司,2.2,辽宁,5,二手房,2007
开发区湾里南12栋-16-17-18号,大连,无开发商,开发区,20190907,39.070782084451,121.8506739675913,东城国际,38,8709,大连乾豪物业管理有限公司,1,辽宁,2,二手房,2004
无门店信息,大连,大连环宇置业有限公司,开发区,20190907,43.873634114640744,81.30301501416476,环宇品阁,102,6517,大连环宇物业管理有限公司,1.5,辽宁,13,二手房,2004
甘井子区山东路315号14栋1单元1跃2层13号,大连,华润置地（大连）开发有限公司,甘井子,20190907,39.00206212579579,121.59357231641214,华润置地广场一期,59,19838,华润物业（大连）有限公司,2.8,辽宁,1,二手房,2005
开发区黄海西路201号107公建,大连,无开发商,开发区,20190907,39.04942604506828,121.80126318235419,新辰里,40,8072,街道办事处（居委会）代管物业,0.5,辽宁,6,二手房,1996
甘井子区泉水H3区15号3单元1层2号,大连,大连新型房地产开发有限公司,甘井子,20190907,39.00158439075201,121.62616882572375,龙畔金泉一期,12,11622,大连新型物业管理有限公司,0.5,辽宁,0,二手房,2002
中山区职工街96号1-3层公建,大连,大连嘉和房地产开发有限公司,中山,20190907,38.92565613737007,121.66193575790903,嘉和花样年华一期,87,20570,大连嘉和物业管理有限公司,3,辽宁,4,二手房,2002
无门店信息,大连,大连宏港房地产开发有限公司,开发区,20190907,43.873634114640744,81.30301501416476,港湾观海,72,8718,大连宏港物业管理有限公司,0.5,辽宁,4,二手房,2010
中山区东港龙湖水晶郦湾7-102,大连,大连保利东港房地产开发有限公司,中山,20190907,38.924700620463895,121.70344398518496,保利天禧,69,25948,保利物业服务有限公司,4.8,辽宁,4,二手房,2015
西岗区长春路334号,大连,大连新型房地产开发总公司,西岗,20190907,38.89807766522607,121.63221082858387,林茂小区,46,10002,大连新型物业管理有限公司,0.2,辽宁,3,二手房,1990
甘井子区辛寨子街道中冶蓝城辛虹园39-7号公建,大连,大连中冶京诚置业有限公司,甘井子,20190907,38.982809148822504,121.49228627082215,中冶蓝城D区,37,15722,大连添翼物业服务有限公司,2,辽宁,3,二手房,2010
甘井子区佳林北园2-7号,大连,大连瑞泰祥房地产开发有限公司,甘井子,20190907,38.96331610956877,121.52802328494242,缇香漫城,53,21339,大连瑞泰祥物业服务有限公司,2,辽宁,4,二手房,2010
开发区正恒园1-16,大连,河北沃金投资有限公司,开发区,20190907,39.04823944344617,121.76165468797754,正泰园B区,34,11924,无物业管理服务,1.9,辽宁,5,二手房,2000
开发区安盛里5栋-4,大连,大连汽贸房屋开发有限公司,开发区,20190907,23.112106678834838,113.27801046214822,东北明珠,63,12469,大连汽贸物业管理有限公司,1.5,辽宁,2,二手房,2006
高新园区硅谷假日小区25号楼地下室,大连,浦项（大连）软件园开发有限公司,高新园区,20190907,38.865995717263544,121.53771220335938,浦项道,43,22502,浦项(大连)物业管理有限公司,3.4,辽宁,4,二手房,2010
中山区共建巷61号,大连,无开发商,中山,20190907,38.91828093658718,121.66259221532148,39中共建巷,22,26270,街道办事处（居委会）代管物业,0.5,辽宁,7,二手房,1982
沙河口区前程街15号1层E-C轴36-44轴公建,大连,大连安邦房地产开发有限公司,甘井子,20190907,38.91588050824643,121.60099647548584,阳光百合,13,17586,渤海吉祥物业管理有限公司,0.8,辽宁,1,二手房,2000
中山区同心街72号1楼公建,大连,无开发商,中山,20190907,38.91979245940674,121.64769198230202,南山里,17,19333,无物业管理服务,-,辽宁,2,二手房,1986
无门店信息,大连,无开发商,甘井子,20190907,43.873634114640744,81.30301501416476,五二三厂,65,8891,无物业管理服务,0.5,辽宁,5,二手房,1900
金州区小平岛B组团4号楼3号商铺,大连,大连安达房地产开发有限公司,高新园区,20190907,39.05643299166072,121.78943558267059,小平岛亲海园A2组团,51,20969,大连凯尔富物业管理有限公司,1.7,辽宁,2,二手房,2007
经济技术开发区城润万家4-5号公建,大连,诠盛置业（大连）有限公司,开发区,20190907,39.05525210261778,121.74865634199398,清都记忆,53,12243,金科物业服务集团有限公司,0.5,辽宁,3,二手房,2010
甘井子区汇仁街19号12号楼1单元102室,大连,大连凯祥房地产开发有限公司,甘井子,20190907,38.99746297497168,121.58917714380617,名贵山庄亲情园,19,14534,大连弘益达物业管理有限公司,0.5,辽宁,7,二手房,2002
中山区清溪南街11号,大连,无开发商,中山,20190907,38.88919604283904,121.66466481004835,秀月小区,46,17020,无物业管理服务,-,辽宁,6,二手房,1982
大连经济技术开发区同和里7栋-9号,大连,大连城市建设集团有限公司,开发区,20190907,39.048933782970316,121.78832105502437,新日里小区,33,9134,街道办事处（居委会）代管物业,0.5,辽宁,2,二手房,1995
中山区清溪南街11号,大连,大连锦绣房地产开发有限公司,中山,20190907,38.88919604283904,121.66466481004835,秀月广场,28,12583,无物业管理服务,0.5,辽宁,3,二手房,1992
沙河口区五一路110-4号,大连,大连市中联房地产开发有限公司,沙河口,20190907,38.913544290955585,121.59450670056631,星海中龙园,19,20668,大连斌弘物业管理有限公司,0.6,辽宁,1,二手房,2003
无门店信息,大连,北方沿海房地产开发（大连）有限公司,沙河口,20190907,43.873634114640744,81.30301501416476,星海大观,230,17278,北京世邦魏理仕物业管理服务有限公司大连分公司,4.4,辽宁,4,二手房,2008
无门店信息,大连,大连运达房地产集团有限公司,甘井子,20190907,43.873634114640744,81.30301501416476,运达诺维溪谷一期,51,17005,大连运达物业有限公司,1.8,辽宁,0,二手房,2010
无门店信息,大连,大连海脉房地产开发有限公司,金州,20190907,43.873634114640744,81.30301501416476,海脉未来城,35,8388,大连豪斯威物业管理有限公司,1,辽宁,5,二手房,2008
中山区武昌街武昌公寓6号公建,大连,大连中盛集团有限公司,中山,20190907,38.912280913445784,121.64921130527547,武昌花园,10,13410,无物业管理服务,0.3,辽宁,1,二手房,1990
沙河口区数码路北段18—20号,大连,大连软景房地产开发有限公司,高新园区,20190907,38.892000603999115,121.5494486394066,软景E居,89,27443,亿达物业管理有限公司,2.6,辽宁,9,二手房,2009
无门店信息,大连,大连鲁能置业有限公司,金州,20190907,43.873634114640744,81.30301501416476,鲁能优山美地,86,11408,长城物业集团股份有限大连分公司,1.9,辽宁,3,二手房,2001
沙河口区鞍山路65号美都园7号1单元1层4号公建,大连,大连良运房地产开发有限公司,沙河口,20190907,38.92755211283745,121.60306664748275,良运缤纷四季,46,21817,大连良运物业管理有限公司,0.8,辽宁,0,二手房,2002
沙河口区星海广场B3区20—3号,大连,大连亿达房地产股份有限公司,沙河口,20190907,38.88821813888643,121.58674530143466,亿达杰特,143,19995,亿达物业管理有限公司,3.8,辽宁,2,二手房,2005
无门店信息,大连,无开发商,金州,20190907,43.873634114640744,81.30301501416476,滨海丰园,116,8543,大连奥泰物业服务有限公司,0.5,辽宁,2,二手房,2001
沙河口区展望街29,大连,大连嘉源置业发展有限公司,沙河口,20190907,38.93473052900021,121.57390298303343,御园,45,18153,大连御博物业,2,辽宁,6,二手房,2010
开发区高新里6栋-8,大连,无开发商,开发区,20190907,39.0710895068195,121.82860134358343,高民里,69,6776,街道办事处（居委会）代管物业,0.2,辽宁,2,二手房,1992
甘井子区海口路77—5号,大连,大连圣韬房地产开发有限公司,甘井子,20190907,38.960286398428124,121.60305183172997,万福居,56,18196,大连圣韬物业管理有限公司,0.5,辽宁,8,二手房,2004
中山区爱华街13号,大连,大连长荣房屋开发有限公司,中山,20190907,38.92541607518685,121.6535728031028,休斯顿公寓,33,13118,大连长荣物业管理有限公司,2.6,辽宁,2,二手房,2001
大连市甘井子区丰收路3-5号,大连,无开发商,甘井子,20190907,38.965377255081755,121.58288415324094,王家桥,71,15881,大连铁路物业管理有限公司,0.1,辽宁,5,二手房,1987
大连经济技术开发区时代城4-3号1-2号,大连,远洋地产有限公司,开发区,20190907,39.0992481321252,121.83007860699459,远洋时代城四期,55,8755,大连远洋基业物业管理有限公司,1.5,辽宁,6,二手房,2010
中山区爱华街13号,大连,大连锦联地产集团有限公司,中山,20190907,38.92541607518685,121.6535728031028,经典生活,44,8893,大连锦联物业管理有限公司,2.2,辽宁,9,二手房,2003
高新园区黄浦路600-602号,大连,大连东阳房地产开发有限公司,高新园区,20190907,38.86342472318123,121.53493189660259,龙湖星海彼岸,72,26681,大连龙湖物业服务有限公司,3.3,辽宁,0,二手房,2017
西岗区胜利路33号,大连,大连万达房地产开发有限公司,西岗,20190907,38.91309771954841,121.62500886627636,信兴花园,1,27620,大连亿安物业管理有限公司,0.5,辽宁,0,二手房,1997
高新园区黄浦路901S号1单元1层3号,大连,大连金真源集团房地产开发有限公司,高新园区,20190907,38.85845801548294,121.51687109601923,山海一家三期,13,17979,大连龙海物业管理有限公司,1.2,辽宁,2,二手房,2010
中山区中青街87号一单元107,大连,无开发商,中山,20190907,38.90213494248529,121.65806522267005,爱华巷,6,11328,无物业管理服务,-,辽宁,0,二手房,1993
西岗区鞍山路65-5号,大连,大连万达房地产开发有限公司,沙河口,20190907,38.92701992456326,121.60258216167713,79中广电中心,63,28508,无物业管理服务,-,辽宁,9,二手房,1988
大连市甘井子区椒房街24号楼2-104链家地产,大连,大连港置地有限公司,甘井子,20190907,38.985363789837166,121.61034055597686,大连港天下粮仓,14,20678,大连万科物业服务有限公司,2.2,辽宁,6,二手房,2013
中山区山屏街116号1-1,大连,大连中信海港投资有限公司,中山,20190907,38.90729438486833,121.68598159980013,山屏街,33,11758,暂无信息,-,辽宁,2,二手房,1988
沙河口区星海广场B3区14-9,大连,大连友谊合升房地产开发有限公司,沙河口,20190907,38.887408126588866,121.58732762887982,壹品星海三期,53,23964,大连友谊物业服务有限公司,1.2,辽宁,3,二手房,2003
大连市甘井子区软件园路122号,大连,大连理工科技城建设开发有限公司,高新园区,20190907,38.89286578891647,121.53266600180116,理工园,26,14944,街道办事处（居委会）代管物业,1,辽宁,3,二手房,1998
无门店信息,大连,大连振富房屋开发有限公司,西岗,20190907,43.873634114640744,81.30301501416476,振富公寓（胜利桥北商圈）,34,9100,大连中海振富物业管理有限公司,1.1,辽宁,2,二手房,2002
中山区岭前街53-5,大连,大连九龙仓绿城置业有限公司,中山,20190907,38.894816075499904,121.65794368822269,绿城九龙仓桃源里,29,25987,绿城物业服务集团有限公司大连分公司,3.8,辽宁,0,二手房,2016
西岗区新田巷11号三单元103,大连,无开发商,西岗,20190907,38.89276612016956,121.64190731791966,新船巷,38,9638,无物业管理服务,-,辽宁,3,二手房,1990
无门店信息,大连,无开发商,金州,20190907,43.873634114640744,81.30301501416476,永安四季,42,7246,无物业管理服务,0.5,辽宁,5,二手房,2005
中山区爱华街13号,大连,无开发商,中山,20190907,38.92541607518685,121.6535728031028,九中爱华街,9,43836,无物业管理服务,-,辽宁,1,二手房,1988
中山区民建街10号1单元1号,大连,无开发商,中山,20190907,38.925444479476894,121.66915026954452,39中顺阳街,35,19999,无物业管理服务,-,辽宁,4,二手房,1985
中山区中青街87号一单元107,大连,大连亿达房地产股份有限公司,中山,20190907,38.90213494248529,121.65806522267005,青云林海,47,22302,亿达物业管理有限公司,1,辽宁,4,二手房,2001
沙河口区中山路417A-4号,大连,大连宝嘉房地产有限公司,沙河口,20190907,38.906939870156414,121.5941747326634,德源筑座,22,22358,大连乐尔居物业服务有限公司,2.5,辽宁,1,二手房,2008
高新园区海苑街36号1单元2号公建,大连,大连金华兴房地产开发有限公司,高新园区,20190907,20.06392317589085,110.32302599457326,华兴山庄,20,15778,大连华兴物业管理有限公司,0.5,辽宁,1,二手房,2000
中山区清溪南街11号,大连,大连澳南房屋开发有限公司,中山,20190907,38.88919604283904,121.66466481004835,明秀山庄B区,37,41360,绿城物业服务集团有限公司大连分公司,1.9,辽宁,2,二手房,2008
中山区东港龙湖水晶郦湾7-102,大连,大连一方东港置地有限公司,中山,20190907,38.924700620463895,121.70344398518496,中庚当代艺术,30,24540,大连中庚物业管理有限公司,4.5,辽宁,1,二手房,2015
天河路173-2号 华润考拉22号公建,大连,大连世隆房地产开发有限公司,甘井子,20190907,38.9909476665524,121.57626660718621,桑尼小镇,20,15480,大连大家物业管理有限公司,1.9,辽宁,4,二手房,2011
沙河口区西南路643号,大连,大连泰安房地产开发有限公司,沙河口,20190907,38.943483429804665,121.5833555851182,幸福小区(沙河口),39,12270,大连三宝物业发展有限公司,0.3,辽宁,3,二手房,1995
沙河口区富静街26号1单元1层5号,大连,大连远东房屋开发有限公司,沙河口,20190907,38.908727606250466,121.58667844684369,世嘉星海,38,28354,大连瑞信物业管理有限公司,1.6,辽宁,1,二手房,2007
高新园区海苑街36号1单元2号公建,大连,大连鸿越房地产开发有限公司,高新园区,20190907,20.06392317589085,110.32302599457326,康桥小镇,27,19614,大连长青物业管理中心,1.3,辽宁,1,二手房,2009
西岗区中山路158号唐山街市场外14号,大连,重庆汇东房地产开发有限公司,西岗,20190907,38.91688106727098,121.63201298398174,34中唐山街,11,28458,无物业管理服务,0.1,辽宁,1,二手房,1985
沙河口区长江路946号-9,大连,无开发商,沙河口,20190907,38.913544290955585,121.59450670056631,城品城,17,19318,大连万景物业管理有限公司,2,辽宁,4,二手房,2010
中山区高尚路28-1号,大连,无开发商,中山,20190907,38.892673425111305,121.67148833870213,高原街,28,11030,街道办事处（居委会）代管物业,0.5,辽宁,3,二手房,1989
金州区拥政街道733号-8号1-2层,大连,无开发商,金州,20190907,39.11275710643187,121.7224229797623,414小区,95,7580,街道办事处（居委会）代管物业,0.5,辽宁,3,二手房,1989
无门店信息,大连,大连鹏玥房地产开发有限公司,开发区,20190907,43.873634114640744,81.30301501416476,中环城市广场,43,9555,大连鹏玥物业公司,1.5,辽宁,5,二手房,2012
高新园区火炬路18号,大连,大连嘉创房地产开发有限公司,高新园区,20190907,38.937738080520404,117.39340752036043,嘉创E人国际,80,16196,大连紫金物业管理有限公司,2,辽宁,4,二手房,2009
沙河口区绿清街12号,大连,大连中海新城置业有限公司,沙河口,20190907,38.93851335419565,121.57334844377094,中海英伦观邸,55,22844,大连中海物业管理有限公司,1.8,辽宁,5,二手房,2009
甘井子区凌秀路37号-1链家地产,大连,千汇德（大连）置业有限公司,高新园区,20190907,38.883794285403965,121.52361997548515,哈佛世纪,29,19625,大连千汇德物业管理有限公司,2.4,辽宁,0,二手房,2012
中山区共建巷61号,大连,辽宁外贸有限公司,中山,20190907,38.91828093658718,121.66259221532148,39中南山花园,14,21999,渤海花园物业管理有限公司,3.5,辽宁,0,二手房,1998
甘井子区虹韵路114号,大连,大连亿达美加房地产开发有限公司,甘井子,20190907,38.95653310483457,121.5329869995972,第五郡五号地,94,27868,亿达物业管理有限公司,2,辽宁,8,二手房,2006
甘井子区美域盛景A2区10-6,大连,大连时代房地产开发有限公司,甘井子,20190907,39.006221362805846,121.61022278003976,泉水友好园,47,13727,大连爱静物业服务有限公司,0.5,辽宁,2,二手房,1998
西岗区大同街125号,大连,大连新型房地产开发有限公司,西岗,20190907,38.920458602340894,121.61445835429899,银寰花园,19,11159,街道办事处（居委会）代管物业,0.3,辽宁,5,二手房,1995
大连市甘井子区椒房街24号楼2-104链家地产,大连,大连圣韬房地产开发有限公司,甘井子,20190907,38.985363789837166,121.61034055597686,万福山庄,31,14789,大连海旭物业管理有限公司,0.5,辽宁,2,二手房,1996
沙河口区华新苑10号楼4号公建,大连,大连新型房地产开发有限公司,沙河口,20190907,38.94033750532864,121.58990295130229,华新苑,9,14349,大连新型物业管理有限公司,0.5,辽宁,0,二手房,2001
甘井子区玉丽街2号楼1单元4号公建,大连,大连新型房地产开发有限公司,甘井子,20190907,38.98705071699301,121.55513043130172,泡崖康居园,58,10635,大连新兴物业管理有限公司,0.5,辽宁,1,二手房,2000
无门店信息,大连,大连益宁房地产开发有限公司,开发区,20190907,43.873634114640744,81.30301501416476,岭湾峰尚二期,88,10275,大连鸿达物业管理有限公司,0.6,辽宁,6,二手房,2010
高新园区凌水路海苑街30号链家地产,大连,大连大有房屋开发有限公司,高新园区,20190907,38.88375810154175,121.51949903758525,大有恬园公寓,19,9378,大连大有恬园物业管理有限公司,1.2,辽宁,1,二手房,2005
无门店信息,大连,"""苍南县中富房地产开发有限公司",旅顺口,20190907,43.873634114640744,81.30301501416476,熙龙山庄,86,8594,大连市辰馨物业服务有限公司,1,辽宁,3,二手房,2005
沙河口区西南路40号楼,大连,无开发商,沙河口,20190907,38.94155650404125,121.5861259059117,尖山街,23,13342,无物业管理服务,-,辽宁,6,二手房,1986
无门店信息,大连,大连软件园世通开发有限公司,高新园区,20190907,43.873634114640744,81.30301501416476,亿达普罗旺斯二期,93,20827,亿达物业管理有限公司,2.6,辽宁,8,二手房,2010
甘井子区哲林北园17-6号,大连,大连科宏房屋开发有限公司,甘井子,20190907,38.9600267109581,121.53876726228256,虹港新居,34,14222,大连空港物业管理有限公司,0.4,辽宁,4,二手房,1996
甘井子区甘井子路32号楼1单元1楼9号,大连,无开发商,甘井子,20190907,38.982488275116516,121.63345389253514,松江小区,31,10486,街道办事处（居委会）代管物业,0.5,辽宁,5,二手房,1980
无门店信息,大连,大连明和房地产开发有限公司,开发区,20190907,43.873634114640744,81.30301501416476,知语山园,35,10807,大连大众物业管理有限公司,1.3,辽宁,1,二手房,2003
中山区高尚路28-1号,大连,大连华南地产开发有限公司,中山,20190907,38.892673425111305,121.67148833870213,环山街,11,11408,街道办事处（居委会）代管物业,0.5,辽宁,2,二手房,1987
甘井子区金家街17-7号,大连,大连嘉兴房地产开发有限公司,甘井子,20190907,38.97493697764367,121.60110987128529,青林美地,40,20881,大连嘉盛物业管理有限公司,0.5,辽宁,4,二手房,2003
中山区华乐街71号公建,大连,大连环海房地产开发有限公司,中山,20190907,38.923187679200566,121.6843197903016,华乐小区,18,14258,大连景和物业管理有限公司,0.5,辽宁,2,二手房,1999
金州新区八一路金都嘉园1号楼1号公建,大连,大连元新房地产开发有限公司,金州,20190907,39.05525210261778,121.74865634199398,华夏金城,60,9978,大连元新物业管理有限公司,1.2,辽宁,6,二手房,2000
沙河口区黄河路535号,大连,大连城市建设集团有限公司,沙河口,20190907,38.91773777159567,121.60217159922856,79中金光小区,42,24704,无物业管理服务,-,辽宁,8,二手房,1983
甘井子区柳树南街45-11号,大连,中海新海汇（大连）置业有限公司,甘井子,20190907,38.92567666296449,121.4841330254372,中海御湖熙谷,83,14883,大连中海物业管理有限公司,2.2,辽宁,8,二手房,2013
开发区小孤山西里3栋-11号,大连,大连开建房地产开发有限公司,开发区,20190907,39.02715282297674,121.80682183666346,瑞仕尚城,57,11359,大连阿尔滨汇城物业服务有限公司,1.1,辽宁,9,二手房,2007
无门店信息,大连,大连顺迈房地产开发有限公司,沙河口,20190907,43.873634114640744,81.30301501416476,星海国宝,53,20364,长城物业集团股份有限大连分公司,3,辽宁,3,二手房,2000
金州区南棉路310号,大连,大连金连房地产开发有限公司,金州,20190907,39.09939229372624,121.72414976100345,金连领地,18,7964,街道办事处（居委会）代管物业,0.5,辽宁,1,二手房,1995
中山区杏林街66—5号,大连,嘉和房地产集团有限公司,中山,20190907,38.92440845067654,121.66285472444575,嘉和花样年华二期,66,21972,大连嘉和物业管理有限公司,2,辽宁,7,二手房,2005
开发区大开高吉里33栋6号,大连,无开发商,开发区,20190907,39.07355836059941,121.8280439450145,高吉里,38,7123,广宜物业有限公司,0.2,辽宁,2,二手房,1998
甘井子区山东路127-2号,大连,无开发商,甘井子,20190907,38.99065559549029,121.59126483545545,天水街,15,11406,街道办事处（居委会）代管物业,0.1,辽宁,1,二手房,1990
金州区站前街道盛滨花园B区13号楼2号公建,大连,大连和嘉房地产开发有限公司,金州,20190907,39.09609011892329,121.7335816409767,和嘉佳园,81,7039,街道办事处（居委会）代管物业,0.5,辽宁,5,二手房,2000
中山区碧浪园4号-3号,大连,大连万达房地产开发有限公司,中山,20190907,38.89147289460474,121.69329560326236,虎滩路,48,13205,大连虎滩置业物业管理有限公司,0.2,辽宁,2,二手房,1992
沙河口区星海广场B3区14-2号1层,大连,大连友谊合升房地产开发有限公司,沙河口,20190907,38.88693148294673,121.58735631267305,壹品星海公寓,39,18750,大连富丽华物业管理有限公司,2,辽宁,5,二手房,2000
甘井子金地艺境博艺西园2-1号,大连,大连市政府工程建设指挥部,甘井子,20190907,39.04402110608829,121.665484498555,欣家园一期,40,9387,街道办事处（居委会）代管物业,0.9,辽宁,12,二手房,2004
甘井子区虹港路391号第五幢1单元1跃2层3号,大连,海城市新新置业有限公司,甘井子,20190907,38.96606635942528,121.53201387432493,商务学院,18,13287,亿达物业管理有限公司,0.5,辽宁,1,二手房,1995
沙河口区中山路417A-4号,大连,无开发商,沙河口,20190907,38.906939870156414,121.5941747326634,同泰街,19,13192,无物业管理服务,0.5,辽宁,3,二手房,1997
甘井子区泉水B5区27-9,大连,大连运达房地产集团有限公司,甘井子,20190907,39.014808383172415,121.60978022983026,锦泉源B6区,16,14436,政治物业管理有限公司,0.5,辽宁,2,二手房,2010
沙河口区黄河路535号,大连,大连民兴房地产开发有限公司,沙河口,20190907,38.91773777159567,121.60217159922856,79中民兴花园二期,26,26918,大连衡德物业管理有限公司,1.2,辽宁,1,二手房,1990
沙河口区黄河路535号,大连,大连建园房地产开发有限公司,沙河口,20190907,38.91773777159567,121.60217159922856,79中城市公元,51,27856,大连斌弘物业管理有限公司,2.6,辽宁,2,二手房,2008
甘井子区山东路137号,大连,大连市大钢集团,甘井子,20190907,38.99129404608926,121.59172125999353,华南沃尔玛六和路,17,13029,街道办事处（居委会）代管物业,0.5,辽宁,0,二手房,1990
甘井子区汇仁街22号,大连,大连铁龙房地产开发有限公司,甘井子,20190907,38.99712640764999,121.58834420439493,动力院景一期汇仁南园,22,15750,大连铁龙安居物业管理有限公司,0.7,辽宁,0,二手房,2006
沙河口区红凌路137号,大连,大连大实企业集团房屋开发有限公司,甘井子,20190907,38.922699288974506,121.54713601744747,泊林映山,36,12716,大连弘实物业管理有限公司,1.2,辽宁,2,二手房,2010
甘井子区金家街17-7号,大连,大连衡锐房屋开发有限公司,甘井子,20190907,38.97493697764367,121.60110987128529,温莎小镇,10,21028,大连长波物业管理有限公司,1.5,辽宁,0,二手房,2002
大连市甘井子区七贤路8-3号,大连,大连高新万达广场投资有限公司,高新园区,20190907,38.865466069033424,121.53968356444511,万达海公馆,41,30858,大连万达物业管理有限公司,4.5,辽宁,0,二手房,2012
大连市甘井子区融田西园52-11,大连,大连圣安房地产开发有限公司,甘井子,20190907,38.98557650073852,121.45981818596117,亿达春田晴湾,63,17138,亿达物业管理有限公司,2.2,辽宁,5,二手房,2010
甘井子区金北路17号,大连,五指山水墨雨林置业有限公司,甘井子,20190907,38.97553393692831,121.59969720502335,金二小学南,49,20773,无物业管理服务,-,辽宁,2,二手房,1975
高新园区敬贤街25-9,大连,大连东盛房地产开发有限公司,高新园区,20190907,38.86879447142154,121.53007349209936,东盛启城,34,17389,大连东盛物业管理有限公司,2.3,辽宁,4,二手房,2010
开发区高新里6栋-8,大连,无开发商,开发区,20190907,39.0710895068195,121.82860134358343,高志里小区,50,6836,街道办事处（居委会）代管物业,0.3,辽宁,0,二手房,1993
中山区爱华街13号,大连,方大集团,中山,20190907,38.92541607518685,121.6535728031028,九中杏林街,9,41895,无物业管理服务,0.6,辽宁,1,二手房,1995
高新园区海苑街36号1单元2号公建,大连,大连友谊合升房地产开发有限公司,高新园区,20190907,20.06392317589085,110.32302599457326,壹品漫谷,39,18385,大连富丽华物业管理有限公司,1,辽宁,0,二手房,2006
中山区爱华街13号,大连,无开发商,中山,20190907,38.92541607518685,121.6535728031028,九中安民街,29,37455,无物业管理服务,-,辽宁,4,二手房,1990
西岗区长春路334号,大连,无开发商,西岗,20190907,38.89807766522607,121.63221082858387,新石道街,11,11959,大连白云物业管理有限公司,0.5,辽宁,0,二手房,1992
开发区黄海西路201号107公建,大连,无开发商,开发区,20190907,39.04942604506828,121.80126318235419,岗松里小区,107,7293,大连经济技术开发区海青物业有限公司,0.5,辽宁,8,二手房,1989
无门店信息,大连,大连金宸集团,金州,20190907,43.873634114640744,81.30301501416476,东才苑,28,7240,街道办事处（居委会）代管物业,0.4,辽宁,2,二手房,1998
大连市金州新区中长街道碧海尚城5-4号1-2层,大连,大连集品置业有限公司,金州,20190907,39.1001690968934,121.73061017121415,东林世家,37,15076,大连百安物业管理有限公司,1,辽宁,3,二手房,2000
沙河口区富国街34-3,大连,无开发商,沙河口,20190907,38.90160386349964,121.58915317342193,星海街,35,12137,无物业管理服务,-,辽宁,4,二手房,1989
沙河口区西南路161号,大连,无开发商,沙河口,20190907,38.89269676588945,121.56639953951542,西沟小区,42,12813,无物业管理服务,-,辽宁,3,二手房,1980
中山区北斗街53号1层1号,大连,无开发商,中山,20190907,38.92727355733075,121.67002970974048,丹东街（二七商圈）,9,13801,无物业管理服务,-,辽宁,0,二手房,1993
无门店信息,大连,大连金宸集团,金州,20190907,43.873634114640744,81.30301501416476,金宸联郡,42,8686,大连四通物业管理有限公司,1.4,辽宁,3,二手房,2010
沙河口区民权街324号,大连,大连天河房地产开发集团有限公司,沙河口,20190907,38.92064616208148,121.59777611850379,民权小区,41,13086,大连福港物业管理有限公司,0.2,辽宁,2,二手房,1990
甘井子区华北路花锦园28号23-3-1-2建筑物,大连,大连东特房地产开发有限公司,甘井子,20190907,38.951631439880536,121.57401414205216,东特金星公馆,40,16300,大连东特祥禾物业管理有限公司,1.2,辽宁,5,二手房,2009
甘井子区促进路30号2-1-1,大连,大连天河房地产开发集团有限公司,甘井子,20190907,38.954133128707575,121.58355746311207,促进路,10,12645,无物业管理服务,0.1,辽宁,6,二手房,1982
甘井子区亿家缘虹韵路205,大连,大连耕海置业有限公司,甘井子,20190907,38.95759554613104,121.5279376157567,国民院子,35,22949,大连耕海物业管理有限公司,2,辽宁,3,二手房,2012
甘井子区华北路花锦园28号23-3-1-2建筑物,大连,大连东特房地产开发有限公司,甘井子,20190907,38.951631439880536,121.57401414205216,东特星中环,24,16517,大连东特祥禾物业管理有限公司,0.8,辽宁,4,二手房,2003
大连经济技术开发区同和里7栋-9号,大连,开发区城建局,开发区,20190907,39.048933782970316,121.78832105502437,东山花园,16,14764,大连戎旅物业管理有限公司,0.8,辽宁,0,二手房,2005
开发区金源南里14栋-11号一层部分，14号-12号一层部分,大连,商金源地产,开发区,20190907,39.06148862675436,121.82503941311765,金苑新居,18,8683,嘉兴物业管理有限公司,0.3,辽宁,1,二手房,1998
西岗区黄河路90号公建部分,大连,大连鼎森房地产开发有限公司,西岗,20190907,38.92234529815978,121.62829331825485,金宸国际,44,16894,英联华（香港）物业管理顾问有限公司,2.2,辽宁,5,二手房,2004
沙河口区华北路404号,大连,广东碧桂园物业服务股份有限公司洛阳分公司1,沙河口,20190907,38.8862815932937,121.59082948696123,柳华街,24,11207,无物业管理服务,0.1,辽宁,1,二手房,1985
中山区华乐街71号公建,大连,印象集团,中山,20190907,38.923187679200566,121.6843197903016,东港印象DE区,14,15028,大连众和物业管理有限公司,1.2,辽宁,3,二手房,2008
沙河口区新生路万客园3-7,大连,大连万科锦绣花城开发有限公司,沙河口,20190907,38.94412875710208,121.57006756704837,万科城市花园,60,20276,大连万科物业服务有限公司,1.5,辽宁,5,二手房,2003
西岗区康平街2号（5号楼3-1-3号）,大连,合肥万科瑞翔地产有限公司,西岗,20190907,38.91044414697888,121.61980769264477,34中果园巷,7,27969,暂无信息,-,辽宁,1,二手房,1993
西岗区绕山路31号公建一层东侧,大连,远洋地产有限公司,沙河口,20190907,38.90257514466717,121.61412736644739,莲花小区,31,12018,无物业管理服务,-,辽宁,0,二手房,1995
西岗区康平街2号（5号楼3-1-3号）,大连,无开发商,西岗,20190907,38.91044414697888,121.61980769264477,教师大厦,17,13308,大连教师大厦物业管理有限公司,0.2,辽宁,5,二手房,1995
金州区凤翔路220号,大连,大连德泰控股有限公司,金州,20190907,39.08410553937731,121.77700083356399,德泰岭秀逸城,58,11139,大连德泰物业管理有限公司,1.9,辽宁,3,二手房,2007
沙河口区五四路207-1-9号,大连,无开发商,沙河口,20190907,38.913544290955585,121.59450670056631,五四路,12,12456,无物业管理服务,-,辽宁,0,二手房,1963
沙河口区连山街44-2号半地下一层（地上一层部分）,大连,大连远东房屋开发有限公司,沙河口,20190907,38.89286087451922,121.57324785151994,星海大第,12,23513,大连斌宏物业管理有限公司,1,辽宁,2,二手房,2005
开发区安盛里5栋-4,大连,大连万晟房地产开发有限公司,开发区,20190907,23.112106678834838,113.27801046214822,宜家大院,19,8870,大连万晟置业有限公司,0.8,辽宁,2,二手房,2001
金州区金润小区B区861单元102,大连,大连新型房地产开发有限公司,金州,20190907,39.103153105120306,121.74665495055505,糖果小区,63,8973,大连新兴物业管理有限公司,0.5,辽宁,11,二手房,2000
沙河口区连山街44-2号半地下一层（地上一层部分）,大连,大连宏都房地产开发有限公司,沙河口,20190907,38.89286087451922,121.57324785151994,宏都筑景Ⅱ期,7,26776,东方百瑞物业有限公司,1.8,辽宁,1,二手房,2010
开发区松苑街23号,大连,大连西太平洋家属楼,开发区,20190907,22.52087435807652,113.40156105086167,松平里,14,13302,街道办事处（居委会）代管物业,0.5,辽宁,1,二手房,1995
中山区高尚路28-1号,大连,无开发商,中山,20190907,38.892673425111305,121.67148833870213,高家沟,28,10487,大连景山物业管理有限公司,0.5,辽宁,1,二手房,1992
西岗区八一路102号,大连,无开发商,西岗,20190907,38.92047268927287,121.61862512554262,杏环街,17,10151,无物业管理服务,-,辽宁,2,二手房,1990
金州新区八一路金都嘉园1号楼1号公建,大连,大连市金州区房屋开发公司,金州,20190907,39.05525210261778,121.74865634199398,古城丁区,162,7369,街道办事处（居委会）代管物业,0.1,辽宁,2,二手房,1993
西岗区新田巷27号1-2,大连,无开发商,西岗,20190907,38.893215932589385,121.64103065169111,新河街,16,11297,无物业管理服务,-,辽宁,4,二手房,1990
金州区先进街道陶然居公建2-2号1层,大连,大连金信集团房地产有限公司,金州,20190907,39.08283372756215,121.76170982507143,金信陶然居,84,9676,北京瑞思特物业管理有限公司,0.5,辽宁,5,二手房,1995
金州区南棉路310号,大连,无开发商,金州,20190907,39.09939229372624,121.72414976100345,胜利小区,104,8309,无物业管理服务,0.5,辽宁,3,二手房,1986
甘井子区祥龙街2号楼1单元1楼1号,大连,大连宏孚房屋开发有限公司,甘井子,20190907,38.98830160721291,121.60368765236996,宏孚小区,47,11101,无物业管理服务,-,辽宁,5,二手房,1990
沙河口区五一路110-4号,大连,大连亿达房地产股份有限公司,沙河口,20190907,38.913544290955585,121.59450670056631,兰亭山水,42,21253,亿达物业管理有限公司,0.6,辽宁,3,二手房,2002
大连市沙河口区西南路875号1层21号,大连,无开发商,沙河口,20190907,38.94485969061231,121.58418648447764,春风巷,8,10932,街道办事处（居委会）代管物业,0.5,辽宁,0,二手房,1992
开发区黄海西路201号107公建,大连,大连开建房地产开发有限公司,开发区,20190907,39.04942604506828,121.80126318235419,芙蓉花园(开发区),49,6998,嘉兴物业管理有限公司,0.4,辽宁,1,二手房,2001
甘井子区汇仁街22号,大连,中铁建（大连）置业有限公司,甘井子,20190907,38.99712640764999,121.58834420439493,动力院景二期汇善南园,31,16604,大连铁龙安居物业管理有限公司,0.7,辽宁,3,二手房,2007
甘井子区华北路花锦园28号23-3-1-2建筑物,大连,大连东特房地产开发有限公司,沙河口,20190907,38.951631439880536,121.57401414205216,东特新居,18,12576,大连东特祥禾物业管理有限公司,0.5,辽宁,2,二手房,1998
金州区站前街道盛滨花园B区13号楼2号公建,大连,大连阿尔滨集团房地产开发有限公司,金州,20190907,39.09609011892329,121.7335816409767,现代雅筑,48,6897,大连阿尔滨集团物业管理有限公司,0.5,辽宁,2,二手房,2003
沙河口区成仁街91号,大连,无开发商,沙河口,20190907,38.91539947107844,121.59585638842556,西安路公寓,19,13894,大连协和物业管理有限公司,0.5,辽宁,3,二手房,1997
沙河口区黄浦路18号—5号公建,大连,无开发商,高新园区,20190907,38.8771225143479,121.54427480390662,东电小区,16,14378,大连凌电物业管理有限公司,0.3,辽宁,2,二手房,1992
中山区益民街16号1层1号,大连,无开发商,中山,20190907,38.93092761298906,121.66470740073377,兴盛里（三八广场）,12,13577,无物业管理服务,-,辽宁,0,二手房,1992
无门店信息,大连,大连新型企业集团,甘井子,20190907,43.873634114640744,81.30301501416476,南岭花园,29,12590,大连新型物业管理有限公司,0.4,辽宁,0,二手房,2006
中山区高尚路28-1号,大连,无开发商,中山,20190907,38.892673425111305,121.67148833870213,高寿街,21,10271,无物业管理服务,-,辽宁,1,二手房,1991
金州区金润花园B区47号1单元1层1号2号,大连,大连金都地产开发有限公司,金州,20190907,39.10434716151341,121.74517862677146,观山悦,39,10130,街道办事处（居委会）代管物业,1.4,辽宁,2,二手房,2000
中山区华乐街71号公建,大连,首开集团,中山,20190907,38.923187679200566,121.6843197903016,首开铂郡,10,25475,北京燕侨物业管理有限公司大连分公司,3.8,辽宁,0,二手房,2016
甘井子区柳树南街45-10号,大连,大连顺达房屋开发有限公司,甘井子,20190907,38.92567666296449,121.4841330254372,顺达温泉花园三期,38,11884,大连顺达物业服务有限公司,0.6,辽宁,3,二手房,2005
甘井子区虹港路16号楼1层公建,大连,沈阳军区后勤部,甘井子,20190907,38.9645939333502,121.553851837474,金寓花园二期,11,18702,大连瑞祥物业管理有限公司,1,辽宁,0,二手房,2007
甘井子区锦城东园1号3单元1层2号,大连,大连福田房屋开发有限公司,甘井子,20190907,38.952805477462775,121.55656194973994,福典人家,27,20169,大连福田房屋物业管理有限公司,0.6,辽宁,1,二手房,2006
沙河口区黄埔路427号,大连,大连名仕房地产开发有限公司,高新园区,20190907,38.913544290955585,121.59450670056631,名仕乐居,16,20167,大连万祥物业管理有限公司,1.3,辽宁,2,二手房,2007
中山区武昌街武昌公寓6号公建,大连,大连市教委,中山,20190907,38.912280913445784,121.64921130527547,学府林居,17,10770,暂无信息,1,辽宁,4,二手房,2000
甘井子区西南路979-7号公建,大连,1,甘井子,20190907,38.96275592929325,121.5958698791777,八十中周家街,80,16968,街道办事处（居委会）代管物业,0.2,辽宁,2,二手房,1980
金州新区先进街道五一路350-1号1-2层,大连,哈尔滨聚鑫投资有限公司,金州,20190907,39.078667146419825,121.77094423323935,聚鑫小区三期,51,7062,大连新生活物业管理有限公司,0.5,辽宁,8,二手房,2000
沙河口区绿波路34号楼5单元1楼3号,大连,"大连汇戎开发有限公司,大连东北房屋开发有限公司",沙河口,20190907,38.940473883711306,121.57312402324945,帝欧花园,37,18166,大连绿波建设发展有限公司,0.6,辽宁,4,二手房,2003
金州区站前街道盛滨花园B区13号楼2号公建,大连,大连阿尔滨集团房地产开发有限公司,金州,20190907,39.09609011892329,121.7335816409767,盛滨花园B区,57,7700,大连阿尔滨集团物业管理有限公司,0.4,辽宁,1,二手房,2000
甘井子区促进路30号2-1-1,大连,大连大骏达房地产开发有限公司,甘井子,20190907,38.954133128707575,121.58355746311207,骏达绅士花园,3,18879,大连骏达物业管理有限公司,1.7,辽宁,2,二手房,2012
开发区黄海西路201号107公建,大连,开发区城建局,开发区,20190907,39.04942604506828,121.80126318235419,东阁里,51,7066,大连经济技术开发区海青物业有限公司,0.4,辽宁,3,二手房,1993
中山区高尚路28-1号,大连,无开发商,中山,20190907,38.892673425111305,121.67148833870213,高尚路,23,10791,无物业管理服务,0.5,辽宁,6,二手房,1993
开发区黄海西路201号107公建,大连,开发区城建局,开发区,20190907,39.04942604506828,121.80126318235419,开.东山小区,44,7475,大连友谊物业服务有限公司,0.5,辽宁,1,二手房,1990
西岗区绕山路31号公建一层东侧,大连,大连泰安房地产开发有限公司,西岗,20190907,38.90257514466717,121.61412736644739,同香山庄,20,15761,同香物业管理有限公司,0.5,辽宁,0,二手房,1989
中山区共建巷61号,大连,中信集团大连中信房地产开发公司,中山,20190907,38.91828093658718,121.66259221532148,尚品南山,18,25539,大连中信物业管理有限公司,1.5,辽宁,0,二手房,2007
西岗区八一路196号1-3,大连,无开发商,西岗,20190907,38.92047268927287,121.61862512554262,靠山巷,16,10622,无物业管理服务,-,辽宁,1,二手房,1990
沙河口区红凌路137号,大连,大连大实企业集团房屋开发有限公司,甘井子,20190907,38.922699288974506,121.54713601744747,泊林阳光B区,12,14684,大连弘实物业管理有限公司,0.6,辽宁,1,二手房,2007
大连市甘井子区七贤路8-3号,大连,大连世诚房地产开发有限公司,高新园区,20190907,38.865466069033424,121.53968356444511,恒大御景湾,49,23513,金碧物业有限公司大连分公司,2.9,辽宁,1,二手房,2011
甘井子区榆水街6-9号公建,大连,大连弘润置业有限公司,甘井子,20190907,38.97957540063716,121.52458567456938,万科城市之光,73,21848,大连万科物业服务有限公司,2.8,辽宁,5,二手房,2015
金州新区八一路金都嘉园1号楼1号公建,大连,大连金园房地产开发有限公司,金州,20190907,39.05525210261778,121.74865634199398,金园名城,20,7627,街道办事处（居委会）代管物业,0.5,辽宁,1,二手房,1999
沙河口区锦江园30号1层公建,大连,大连市经济适用房建设发展中心,沙河口,20190907,38.949985113183935,121.56560955976859,锦绣园,36,14005,大连锦绣物业管理有限公司,0.5,辽宁,1,二手房,1999
中山区金城街26号一楼,大连,无开发商,中山,20190907,38.922282529515634,121.65214466263014,九中洛川街,21,35420,无物业管理服务,-,辽宁,1,二手房,1990
大连市沙河口区黄河路729号,大连,大连盛佳房地产开发有限公司,沙河口,20190907,38.91710565765228,121.58954758972729,城市佳园,9,20179,街道办事处（居委会）代管物业,1,辽宁,1,二手房,2004
甘井子区金家街17-7号,大连,老房子地产,甘井子,20190907,38.97493697764367,121.60110987128529,金安街,16,20108,无物业管理服务,-,辽宁,0,二手房,1960
西岗区黄河路90号公建部分,大连,无开发商,西岗,20190907,38.92234529815978,121.62829331825485,37中合谊街,11,15928,无物业管理服务,-,辽宁,1,二手房,1990
沙河口区红凌路137号,大连,大连大实企业集团房屋开发有限公司,甘井子,20190907,38.922699288974506,121.54713601744747,叠翠骏景,16,12501,大连弘实物业管理有限公司,0.4,辽宁,4,二手房,2004
开发区杏花里13#楼-7号,大连,无开发商,开发区,20190907,39.28192722330108,117.19490320266534,杏花里,63,6798,大连经济技术开发区杏林物业管理有限公司,0.3,辽宁,5,二手房,1993
金州区站前街道盛滨花园B区13号楼2号公建,大连,大连连铁房地产开发有限公司,金州,20190907,39.09609011892329,121.7335816409767,金舍嘉苑,25,8337,街道办事处（居委会）代管物业,0.5,辽宁,3,二手房,2005
沙河口区星海广场B3区20—3号,大连,大连华奇置业有限公司,沙河口,20190907,38.88821813888643,121.58674530143466,星海旺座,25,14937,大连佳和物业管理有限公司,2.5,辽宁,2,二手房,2004
沙河口区黄河路883号,大连,无开发商,沙河口,20190907,38.919826721475204,121.57749657966676,沙区医院,32,12976,无物业管理服务,-,辽宁,4,二手房,1990
甘井子区甘井子街3号公建,大连,无开发商,甘井子,20190907,38.982086281836246,121.63426694995971,新街,15,10057,无物业管理服务,-,辽宁,3,二手房,1976
大连市金州区友谊街道南金华城25号1-2层1号,大连,无开发商,金州,20190907,39.128677228885614,121.71356109978767,金园新村,32,7427,大连金州友谊物业公司,0.5,辽宁,3,二手房,2003
西岗区胜利路33号,大连,省一建公司,西岗,20190907,38.91309771954841,121.62500886627636,34中兴民街,16,25958,无物业管理服务,-,辽宁,3,二手房,1970
中山区民建街10号1单元1号,大连,无开发商,中山,20190907,38.925444479476894,121.66915026954452,39中学士街,40,19752,无物业管理服务,-,辽宁,1,二手房,1995
无门店信息,大连,大连金地房地产开发有限公司,金州,20190907,43.873634114640744,81.30301501416476,金地新里程,54,6978,大连金铭物业管理有限公司,0.8,辽宁,2,二手房,2008
中山区中南路店212号门头房,大连,峰尚房屋开发有限公司,中山,20190907,38.91149759691359,121.67700561077149,峰尚中南,18,16144,大连银洲物业管理有限公司,2.2,辽宁,2,二手房,2010
沙河口区联合路133号,大连,大连新型房地产开发有限公司,沙河口,20190907,38.91608561262676,121.60480987310456,21中天兴花园一期,46,19679,大连万泰物业管理有限公司,0.5,辽宁,1,二手房,1996
无门店信息,大连,大连龙湖西城置业有限公司,甘井子,20190907,43.873634114640744,81.30301501416476,龙湖滟澜山,70,19249,大连龙湖物业服务有限公司,6.6,辽宁,10,二手房,1999
金州区光明街道育才街42-6号1-2层,大连,大连金华房地产开发有限公司,金州,20190907,39.109080894078986,121.7182584929096,金华小区一期,82,7677,大连金华兴物业有限公司,0.4,辽宁,0,二手房,1995
沙河口区富国街14号1-1-2,大连,无开发商,沙河口,20190907,38.90122538432287,121.59040728337153,星云街,18,11222,无物业管理服务,-,辽宁,3,二手房,1990
西岗区鞍山路29号龙畔锦城东门,大连,无开发商,西岗,20190907,38.92763470697088,121.61498923399098,铁路西站,32,12459,无物业管理服务,-,辽宁,1,二手房,1981
甘井子辛吉街150号-7号,大连,大连新星房地产开发有限公司,甘井子,20190907,38.96269175537377,121.52106381995755,新星绿城一期,45,12678,大连生生物业管理有限公司,0.5,辽宁,2,二手房,2002
金州区拥政街道733号-8号1-2层,大连,大连市金州区房屋开发公司,金州,20190907,39.11275710643187,121.7224229797623,春和小区,29,7334,街道办事处（居委会）代管物业,0.1,辽宁,1,二手房,1990
高新园区敬贤街25-9,大连,大连家豪房地产开发有限公司,高新园区,20190907,38.86879447142154,121.53007349209936,圣托里尼,46,21059,大连斌弘物业管理有限公司,1.8,辽宁,2,二手房,2012
沙河口区黑石礁街5号1层1号,大连,无开发商,沙河口,20190907,38.879813345473714,121.56313742300513,黑石礁广场,36,13896,无物业管理服务,-,辽宁,4,二手房,1980
大连市甘井子区辛如街35号1单元1层1号,大连,大连新星房地产开发有限公司,甘井子,20190907,38.96862607066881,121.52294869064194,苹果公寓（住宅）,47,11338,大连生生物业有限公司,0.8,辽宁,2,二手房,2007
西岗区康平街2号（5号楼3-1-3号）,大连,大连北洋房屋开发公司,西岗,20190907,38.91044414697888,121.61980769264477,胜利花园,24,16167,大连宏成物业管理有限公司,0.5,辽宁,2,二手房,1997
西岗区长春路334号,大连,无开发商,西岗,20190907,38.89807766522607,121.63221082858387,石峰街,22,11669,大连大众物业管理有限公司,0.3,辽宁,2,二手房,1986
中山区三八广场5号,大连,大连新型房地产开发总公司,中山,20190907,38.92540000551715,121.6642911149562,二七公寓,12,19822,大连新型物业管理有限公司,0.8,辽宁,1,二手房,1999
中山区华乐街71号公建,大连,佛山全资国企置地集团,中山,20190907,38.923187679200566,121.6843197903016,东港印象A区,18,20113,大连众和物业管理有限公司,1.2,辽宁,2,二手房,2007
开发区红梅小区19栋-2-1-1号,大连,大连东特房地产开发有限公司,开发区,20190907,29.906498897603264,121.5913630631805,东特欣苑,6,14465,大连经济技术开发区聚盛达物业管理有限公司,0.8,辽宁,0,二手房,2002
沙河口区星海广场B3区14-2号1层,大连,大连万达房地产开发有限公司,沙河口,20190907,38.88693148294673,121.58735631267305,大连明珠,74,27058,大连万象美物业管理有限公司,3.5,辽宁,2,二手房,2008
中山区同心街72号1楼公建,大连,大连振屹房屋开发有限公司,中山,20190907,38.91979245940674,121.64769198230202,城市广场,31,15189,大连振屹物业有限公司,3.5,辽宁,5,二手房,2004
大连市甘井子区辛如街35号1单元1层1号,大连,大连新星房地产开发有限公司,甘井子,20190907,38.96862607066881,121.52294869064194,新星绿城六期,41,15033,大连生生物业管理有限公司,1,辽宁,5,二手房,2006
甘井子区华东路33-5号,大连,上大阳光,甘井子,20190907,38.97497080220593,121.59479866243332,松江路（80中）,26,13639,大连新华物业管理有限公司,-,辽宁,1,二手房,1993
开发区景和园1-7,大连,开发区城建局,开发区,20190907,40.11590553486206,116.40732462645829,小孤山东里,92,6514,大连广谊物业管理有限公司,0.4,辽宁,4,二手房,1998
大连市金州区站前街道生辉第一城14-3号1-2层,大连,大连新天润企业集团有限公司,开发区,20190907,39.0569681786798,121.74773530665969,凯旋国际,114,7129,第一东方(大连)物业服务有限公司,2.3,辽宁,5,二手房,2008
中山区三八广场5号,大连,大连华丽山庄有限公司,中山,20190907,38.92540000551715,121.6642911149562,华丽山庄,15,18977,大连香森物业管理有限公司,1.5,辽宁,0,二手房,1999
甘井子区知音园20号3单元1层1号,大连,无开发商,高新园区,20190907,38.95800216293212,121.53151895549547,老年公寓,11,19063,无物业管理服务,0.2,辽宁,0,二手房,1995
金州区五一路先进街道 陶然居2-2,大连,大连金开房地产开发有限公司,金州,20190907,39.0830973395057,121.7630113583655,华邦俪城,106,10240,大连华邦物业有限公司,1.3,辽宁,8,二手房,2010
莲花山路89-3号,大连,大连大明房地产控股有限公司,沙河口,20190907,38.902848261803356,121.6041720815823,万科半山半海,21,25404,大连万科物业服务有限公司,3.9,辽宁,0,二手房,2016
金州区凤翔路220号,大连,大连德泰控股有限公司,金州,20190907,39.08410553937731,121.77700083356399,德泰岭秀逸城B区,77,10868,大连德泰物业管理有限公司,1.9,辽宁,3,二手房,2008
大连市甘井子区燕南园50号,大连,大连鑫园房屋开发有限公司,高新园区,20190907,38.90172480153224,121.5363466289672,新新园一期,26,15040,大连理工物业管理中心,0.3,辽宁,0,二手房,2000
沙河口区华北路448号楼1-4公建,大连,无开发商,甘井子,20190907,38.903224944733765,121.56809734950556,周山街,22,16239,街道办事处（居委会）代管物业,0.5,辽宁,3,二手房,1985
无门店信息,大连,大连东方置业公司,甘井子,20190907,43.873634114640744,81.30301501416476,盐岛湖,105,10975,无物业管理服务,0.2,辽宁,2,二手房,2000
沙河口区黄浦路18号—5号公建,大连,大连高新技术产业园区建设开发总公司,高新园区,20190907,38.8771225143479,121.54427480390662,学府1+1公寓,7,16491,街道办事处（居委会）代管物业,0.6,辽宁,5,二手房,2005
西岗区长春路334号,大连,无开发商,西岗,20190907,38.89807766522607,121.63221082858387,纪念街(石道街商圈),12,11272,无物业管理服务,-,辽宁,1,二手房,1980
甘井子区惠泽南园3-4号,大连,大连鹏德房屋开发有限公司,甘井子,20190907,38.93925504875288,121.52339009910513,西山逸林,44,15326,大连三和住邦物业管理有限公司,1.3,辽宁,4,二手房,2000
甘井子区泉水P3区35-2号,大连,大连鑫成置业有限公司,甘井子,20190907,39.01530162252779,121.63546089163083,欧尚广场,42,17708,大连宏华物业服务有限公司,1.5,辽宁,2,二手房,2009
大连市沙河口区黄河路729号,大连,无开发商,沙河口,20190907,38.91710565765228,121.58954758972729,好利高层,7,12347,无物业管理服务,-,辽宁,0,二手房,1994
开发区鹏程家园66#-6、66#-7公建,大连,大连元新房地产开发有限公司,开发区,20190907,39.03523987258615,121.80826248065051,华夏海景,39,9969,大连元新物业管理有限公司,1,辽宁,0,二手房,2003
高新园区敬贤街25-9,大连,中海东丰地产（大连）有限公司,高新园区,20190907,38.86879447142154,121.53007349209936,中海紫御观邸一期,10,25537,大连中海物业管理有限公司,2.6,辽宁,4,二手房,2010
甘井子区华北路花锦园28号23-3-1-2建筑物,大连,大连东特房地产开发有限公司,甘井子,20190907,38.951631439880536,121.57401414205216,星加坡花园,30,17870,大连东特祥禾物业管理有限公司,0.6,辽宁,2,二手房,2003
沙河口区黑石礁街3号1层1-1号,大连,大连建隆置业有限公司,沙河口,20190907,38.880058010307856,121.56313403908827,富丽庭,35,19488,达波尔酒店物业管理（大连）有限公司,2.4,辽宁,1,二手房,2008
沙河口区华北路404号,大连,大连元泰房屋开发有限公司,沙河口,20190907,38.8862815932937,121.59082948696123,福居家园,6,16433,渤海吉祥物业管理有限公司,0.5,辽宁,0,二手房,2003
开发区小孤山西里3栋-11号,大连,大连九龙汇房地产开发有限公司,开发区,20190907,39.02715282297674,121.80682183666346,九龙汇,64,9233,大连宏亮红物业管理有限公司,1.9,辽宁,3,二手房,2007
甘井子金地艺境博艺西园2-1号,大连,大连丰达房地产开发有限公司,甘井子,20190907,39.04402110608829,121.665484498555,益丰乾城,20,13589,大连逸佳物业管理有限公司,1.6,辽宁,1,二手房,2012
沙河口区中山路417A-4号,大连,无开发商,沙河口,20190907,38.906939870156414,121.5941747326634,太原街,8,12635,无物业管理服务,-,辽宁,1,二手房,1959
西岗区黄河路90号公建部分,大连,大连民兴房地产开发有限公司,西岗,20190907,38.92234529815978,121.62829331825485,前城国际一期,27,24217,大连前城花园物业管理有限公司,1,辽宁,1,二手房,2003
金州区南棉路310号,大连,大连金连房地产开发有限公司,金州,20190907,39.09939229372624,121.72414976100345,金连福地,36,8316,街道办事处（居委会）代管物业,0.5,辽宁,3,二手房,2004
甘井子区泉水B2区19-1号,大连,北方沿海房地产开发（大连）有限公司,甘井子,20190907,39.0101309886317,121.60812584213187,沿海鉴筑,26,17085,美佳物业管理（深圳）有限公司大连分公司,1.8,辽宁,1,二手房,2010
沙河口区民权街324号,大连,大连城市建设集团有限公司,沙河口,20190907,38.92064616208148,121.59777611850379,天兴新家园,21,28765,大连天兴物业管理有限公司,0.5,辽宁,1,二手房,1999
中山区杏林街66—5号,大连,嘉和房地产集团有限公司,中山,20190907,38.92440845067654,121.66285472444575,嘉和花样年华三期,62,24195,大连嘉和物业管理有限公司,3.5,辽宁,4,二手房,2002
无门店信息,大连,大连世茂嘉年华置业有限公司,金州,20190907,43.873634114640744,81.30301501416476,世茂御龙海湾,299,11243,经纬物业(中国)有限公司,2,辽宁,4,二手房,2010
西岗区八一路102号,大连,无开发商,西岗,20190907,38.92047268927287,121.61862512554262,鸣鹤西巷,11,11795,无物业管理服务,-,辽宁,0,二手房,1997
甘井子区玉丽街39号楼3号公建,大连,大连新型企业集团,甘井子,20190907,38.98706755029984,121.55605471197089,泡崖康祥园,23,11244,大连新兴物业管理有限公司,0.5,辽宁,2,二手房,2004
金州区同济路44号,大连,大连金世纪房地产经纪有限公司,金州,20190907,39.10476859984152,121.71234684495865,教师公寓,16,9166,大连恒天物业管理公司,0.8,辽宁,1,二手房,2007
中山区武昌街武昌公寓6号公建,大连,无开发商,中山,20190907,38.912280913445784,121.64921130527547,同福新居,4,12536,无物业管理服务,-,辽宁,0,二手房,2003
无门店信息,大连,大连恒昇房地产开发有限公司,甘井子,20190907,43.873634114640744,81.30301501416476,福佳新城,36,11849,大连富嘉物业管理有限公司,1.6,辽宁,1,二手房,2010
大连市开发区抚顺街30号,大连,无开发商,开发区,20190907,38.92272284555705,121.5977239817503,翠南管委会院,28,9944,街道办事处（居委会）代管物业,0.5,辽宁,3,二手房,1996
甘井子区金家街17-7号,大连,陕西亿润经贸有限公司,甘井子,20190907,38.97493697764367,121.60110987128529,金四街,44,20445,无物业管理服务,-,辽宁,7,二手房,1952
沙河口区黄河路535号,大连,大连利源房屋开发有限公司,沙河口,20190907,38.91773777159567,121.60217159922856,79中万岁公寓,20,18640,大连大众物业管理有限公司,0.8,辽宁,0,二手房,1997
金州新区先进街道五一路350-1号1-2层,大连,大连中连房地产开发有限公司,金州,20190907,39.078667146419825,121.77094423323935,聚鑫小区二期,35,7997,大连新生活物业管理有限公司,0.5,辽宁,4,二手房,1995
沙河口区西南路40号楼,大连,亿达房地产开发有限公司,沙河口,20190907,38.94155650404125,121.5861259059117,星浦庄园,24,12371,大连香都物业管理有限公司,0.5,辽宁,0,二手房,1996
沙河口区长江路738号,大连,大连城市建设集团有限公司,沙河口,20190907,38.913544290955585,121.59450670056631,21中广电中心,24,19025,无物业管理服务,-,辽宁,1,二手房,1990
甘井子区华东路22号公建,大连,无开发商,甘井子,20190907,38.97736184953593,121.5935814234334,华东路（金三角商圈）,11,12005,无物业管理服务,0.5,辽宁,1,二手房,1988
大连经济技术开发区同和里7栋-9号,大连,无开发商,开发区,20190907,39.048933782970316,121.78832105502437,山水花园小区,6,13257,大连经济技术开发区白石物业管理有限公司,0.5,辽宁,0,二手房,2000
沙河口区南沙街36号台二2号1-1-37,大连,大连市中联房地产开发有限公司,沙河口,20190907,38.90741410359388,121.57685699961822,健龙苑,40,22938,大连正源物业服务有限公司,0.5,辽宁,0,二手房,2000
沙河口区星海广场B3区20—3号,大连,无开发商,沙河口,20190907,38.88821813888643,121.58674530143466,星海二街,3,13020,街道办事处（居委会）代管物业,0.5,辽宁,0,二手房,1976
中山区虎滩路176号4-1-2,大连,大连三寰房地产开发有限公司,中山,20190907,38.890884710033156,121.69257379232747,碧涛北园,28,11876,大连虎滩置业物业管理有限公司,0.2,辽宁,1,二手房,1993
无门店信息,大连,大连亿通置业顾问有限公司,旅顺口,20190907,43.873634114640744,81.30301501416476,翠岫联芳,49,5080,大连亿升通物业管理有限公司,0.6,辽宁,1,二手房,2000
中山区武昌街武昌公寓6号公建,大连,大连海事大学,中山,20190907,38.912280913445784,121.64921130527547,南山西花厅,6,11717,暂无信息,1,辽宁,1,二手房,2002
甘井子区西南路979-7号公建,大连,大连圣元房地产开发有限公司,甘井子,20190907,38.96275592929325,121.5958698791777,亿达梧桐路,21,22088,亿达物业管理有限公司,1.5,辽宁,2,二手房,2010
无门店信息,大连,大连众仕房地产开发有限公司,开发区,20190907,43.873634114640744,81.30301501416476,山河御景,21,8272,大连山河物业管理有限公司,1.5,辽宁,4,二手房,2010
大连市甘井子区椒房街24号楼2-104链家地产,大连,中铁建（大连）置业有限公司,甘井子,20190907,38.985363789837166,121.61034055597686,青秀蓝湾一期,19,20838,中国铁建地产集团物业公司,1.5,辽宁,3,二手房,2015
沙河口区西南路358号1—2号,大连,大连东兴置业有限公司,沙河口,20190907,38.90839654326566,121.56908246905662,西山园中园,32,22324,大连东昌物业管理有限公司,1.2,辽宁,3,二手房,2007
开发区松苑街23号,大连,大连天安房地产开发有限公司,开发区,20190907,22.52087435807652,113.40156105086167,天安海景花园,20,14252,大连港力物业管理有限公司,1.2,辽宁,1,二手房,1987
甘井子区西南路950—1号1层1号,大连,上大阳光,甘井子,20190907,38.96285151052702,121.5967875880867,八十中东海街,29,15739,街道办事处（居委会）代管物业,0.2,辽宁,4,二手房,1980
开发区兴城路29-81层,大连,中合北大荒（大连）置业有限公司,开发区,20190907,39.05020829677517,121.7578103751747,银帆国际,54,12718,大连中合物业管理有限公司,2,辽宁,1,二手房,2012
中山区中南路店212号门头房,大连,大连鸿业房地产开发有限公司,中山,20190907,38.91149759691359,121.67700561077149,中南风景,16,18316,大连自然物业管理有限公司,0.8,辽宁,0,二手房,2003
无门店信息,大连,大连安邦房地产开发有限公司,甘井子,20190907,43.873634114640744,81.30301501416476,西郊闲庭,22,12622,大连龙城物业服务有限公司,1,辽宁,3,二手房,2010
甘井子区凌秀路37号-1链家地产,大连,大连汇基房地产开发有限公司,高新园区,20190907,38.883794285403965,121.52361997548515,学仕名府,18,20002,大连意美物业服务有限公司,2.4,辽宁,2,二手房,2014
中山区武昌街武昌公寓6号公建,大连,无开发商,中山,20190907,38.912280913445784,121.64921130527547,绿山俪城,3,15692,无物业管理服务,0.6,辽宁,3,二手房,1995
中山区武昌街武昌公寓6号公建,大连,大连海事大学,中山,20190907,38.912280913445784,121.64921130527547,新兴小区,6,9432,暂无信息,0.5,辽宁,1,二手房,2000
沙河口区黄河路883号,大连,大连安邦房地产开发有限公司,沙河口,20190907,38.919826721475204,121.57749657966676,阳光小筑,10,19764,大连远洋基业物业管理有限公司,0.8,辽宁,0,二手房,2007
甘井子区华北路花锦园28号23-3-1-2建筑物,大连,无开发商,甘井子,20190907,38.951631439880536,121.57401414205216,迎客石广场（锦绣商圈）,8,14378,街道办事处（居委会）代管物业,0.5,辽宁,1,二手房,1990
金州新区八一路金都嘉园1号楼1号公建,大连,无开发商,金州,20190907,39.05525210261778,121.74865634199398,古城丙区,68,7524,街道办事处（居委会）代管物业,0.5,辽宁,3,二手房,1997
沙河口区黄浦路18号—5号公建,大连,大连良运房地产开发有限公司,高新园区,20190907,38.8771225143479,121.54427480390662,翰林观海公寓,20,18160,大连良运物业管理有限公司,0.8,辽宁,3,二手房,2003
西岗区八一路196号1-3,大连,无开发商,西岗,20190907,38.92047268927287,121.61862512554262,新泉巷,18,9359,无物业管理服务,-,辽宁,2,二手房,1990
金州区拥政街道733号-8号1-2层,大连,大连千川房地产有限公司,金州,20190907,39.11275710643187,121.7224229797623,湖畔嘉园,16,11044,大连千川物业管理有限公司,1.2,辽宁,4,二手房,2005
无门店信息,大连,大连正中房地产开发有限公司,金州,20190907,43.873634114640744,81.30301501416476,德嘉与海,37,7904,大连本来物业管理有限公司,1.9,辽宁,1,二手房,2003
开发区黄海西路201号107公建,大连,大连中信海港投资有限公司,开发区,20190907,39.04942604506828,121.80126318235419,润泽园小区,52,9744,大连新华物业管理有限公司,1.2,辽宁,0,二手房,2000
西岗区鞍山路65-5号,大连,大连中盛集团有限公司,沙河口,20190907,38.92701992456326,121.60258216167713,中盛家园,14,20714,大和中盛物业管理有限公司,1.5,辽宁,0,二手房,2002
甘井子区汇达园26号,大连,大连红星美凯龙投资发展有限公司,甘井子,20190907,38.99704654604941,121.59758808878767,红星国际广场,148,14415,红星物业管理有限公司,1.5,辽宁,3,二手房,2012
无门店信息,大连,大连新兴海韵房地产开发有限公司,开发区,20190907,43.873634114640744,81.30301501416476,山海家园,23,15270,大连经济技术开发区通讯物业有限公司,0.5,辽宁,2,二手房,2000
莲花山路89-3号,大连,无开发商,沙河口,20190907,38.902848261803356,121.6041720815823,新华街,16,13240,无物业管理服务,-,辽宁,1,二手房,1999
高新园区硅谷假日小区25号楼地下室,大连,未知,高新园区,20190907,38.865995717263544,121.53771220335938,硅谷假日公寓,16,14954,大连斌弘物业管理有限公司,1.5,辽宁,2,二手房,2004
中山区解放路471-22号,大连,大连长策房屋开发有限公司,西岗,20190907,38.901309943567504,121.65419095766659,捷山观海,12,19106,大连鑫晟物业管理有限公司,2,辽宁,1,二手房,2008
中山区中青街43号,大连,大连亿达房地产股份有限公司,中山,20190907,38.90150598268117,121.65711014604845,青云映山,21,25556,亿达物业管理有限公司,1.3,辽宁,1,二手房,2005
沙河口区前程街46号4—1—2号,大连,大连欧兰房地产开发有限公司,甘井子,20190907,38.913544290955585,121.59450670056631,耕海山尚,27,16906,大连耕海物业管理有限公司,1.5,辽宁,5,二手房,2010
西岗区八一路196号1-3,大连,无开发商,西岗,20190907,38.92047268927287,121.61862512554262,荣信巷,9,12404,无物业管理服务,-,辽宁,0,二手房,1989
西岗区胜利路33号,大连,大理耀鹏房地产开发有限责任公司,西岗,20190907,38.91309771954841,121.62500886627636,34中果林巷,20,25584,无物业管理服务,-,辽宁,1,二手房,1987
无门店信息,大连,大连鹏辉房地产开发有限公司,甘井子,20190907,43.873634114640744,81.30301501416476,鹏辉新天居三期,59,14725,大连鹏辉物业管理有限公司,0.8,辽宁,0,二手房,2008
沙河口区五一路270-274号,大连,大连亿达房地产股份有限公司,高新园区,20190907,38.913544290955585,121.59450670056631,city one,21,14784,亿达物业管理有限公司,0.5,辽宁,3,二手房,2001
大连市高新园区七贤中路63号,大连,大连龙海房地产开发有限公司,高新园区,20190907,38.86053006357667,121.53273606963094,华录园,16,14638,无物业管理服务,-,辽宁,0,二手房,1995
大连市开发区裕民新苑42-7,大连,无开发商,开发区,20190907,39.070771020021674,121.85093056856022,澳东世纪,29,11507,街道办事处（居委会）代管物业,0.5,辽宁,1,二手房,2012
甘井子区汇仁街19号12号楼1单元102室,大连,大连华南房地产开发有限公司,甘井子,20190907,38.99746297497168,121.58917714380617,名贵山庄华秋园,9,13713,大连弘益达物业管理有限公司,0.5,辽宁,1,二手房,2000
大连市沙河口区知邻街50号,大连,无开发商,沙河口,20190907,38.913544290955585,121.59450670056631,玉门街,16,11510,无物业管理服务,-,辽宁,2,二手房,1990
西岗区长春路334号,大连,大连天源房屋开发有限公司,西岗,20190907,38.89807766522607,121.63221082858387,天源山庄,36,9865,大连弘益达物业管理有限公司,0.2,辽宁,4,二手房,1996
中山区三八广场5号,大连,无开发商,中山,20190907,38.92540000551715,121.6642911149562,良运四季汇,70,22182,大连良运物业管理有限公司,0.8,辽宁,3,二手房,2008
开发区红星海B区212-1,大连,远洋地产有限公司,开发区,20190907,39.01758113129015,121.82062304319655,红星海五期海麓,19,18070,大连远洋基业物业管理有限公司,2.2,辽宁,0,二手房,2012
中山区高尚路28-1号,大连,无开发商,中山,20190907,38.892673425111305,121.67148833870213,高洁巷,46,11485,街道办事处（居委会）代管物业,0.5,辽宁,3,二手房,1990
沙河口区五一路110-4号,大连,大连大重房屋开发有限公司,沙河口,20190907,38.913544290955585,121.59450670056631,星台花园一期,38,16654,大连大重房屋开发公司物业管理中心,-,辽宁,2,二手房,1995
中山区益民街16号1层1号,大连,中海地产,中山,20190907,38.93092761298906,121.66470740073377,中海海港城,83,19028,中海物业,4.2,辽宁,3,二手房,2013
沙河口区五四路207-1-9号,大连,无开发商,沙河口,20190907,38.913544290955585,121.59450670056631,拥政街,11,14587,无物业管理服务,-,辽宁,0,二手房,1994
金州区凤翔路220号,大连,大连鸿玮置业有限公司,金州,20190907,39.08410553937731,121.77700083356399,鸿玮澜山一期,39,16193,大连鸿玮物业服务有限公司,1.8,辽宁,1,二手房,2009
无门店信息,大连,大连万林房地产开发有限公司,甘井子,20190907,43.873634114640744,81.30301501416476,我爱我家,22,14625,大连溪谷阳光物业服务有限公司,1.3,辽宁,4,二手房,2010
甘井子区红旗西路104-7,大连,大连安邦房地产开发有限公司,甘井子,20190907,38.940012695252975,121.52780738260293,水畔香谷,17,14386,大连万科绿色家园物业有限公司,1,辽宁,4,二手房,2006
沙河口区五四路207-1-9号,大连,无开发商,沙河口,20190907,38.913544290955585,121.59450670056631,成仁街,14,13202,无物业管理服务,-,辽宁,1,二手房,1993
无门店信息,大连,金辉地产,开发区,20190907,43.873634114640744,81.30301501416476,十里岗小区,64,5994,大连家欣物业管理有限公司,0.5,辽宁,2,二手房,1993
开发区黄海西路201号107公建,大连,无开发商,开发区,20190907,39.04942604506828,121.80126318235419,倚平里,57,8140,街道办事处（居委会）代管物业,0.5,辽宁,2,二手房,2000
大连市高新园区七贤中路63号,大连,大连乾丞房地产开发有限公司,高新园区,20190907,38.86053006357667,121.53273606963094,昊宇山海湾,21,21495,大连三和住邦物业管理有限公司,2.6,辽宁,0,二手房,2015
金州区光明街道育才街42-6号1-2层,大连,无开发商,金州,20190907,39.109080894078986,121.7182584929096,光明小区(金州),12,8862,无物业管理服务,0.5,辽宁,2,二手房,1989
西岗区胜利路33号,大连,大连渤海红旗集团有限公司,西岗,20190907,38.91309771954841,121.62500886627636,金领公寓,5,24787,大连达冈物业管理有限公司,0.6,辽宁,0,二手房,2002
甘井子区华北路花锦园28号23-3-1-2建筑物,大连,无开发商,甘井子,20190907,38.951631439880536,121.57401414205216,华北路（甘）,30,15698,街道办事处（居委会）代管物业,0.1,辽宁,5,二手房,1980
无门店信息,大连,大连鲁能置业有限公司,金州,20190907,43.873634114640744,81.30301501416476,鲁能胜地琴海园,122,10248,长城物业集团股份有限大连分公司,1.5,辽宁,0,二手房,1997
中山区同心街72号1楼公建,大连,无开发商,中山,20190907,38.91979245940674,121.64769198230202,自卫街（昆明街）,8,16193,无物业管理服务,-,辽宁,0,二手房,1991
中山区鲁迅路204号百盛新药特药商店一楼西侧部分,大连,无开发商,中山,20190907,38.9258993614899,121.6768880001226,学士街（寺儿沟商圈）,8,14618,无物业管理服务,1.2,辽宁,0,二手房,1994
开发区润海园中区62-9,大连,大连金港集团有限公司,开发区,20190907,39.03913809369363,121.75878503934794,大连海湾城三期,27,12582,大连金广物业服务有限公司,3,辽宁,2,二手房,2015
沙河口区西南路358号1—2号,大连,大连中城房地产开发有限公司,沙河口,20190907,38.90839654326566,121.56908246905662,中城公园里,14,21066,渤海吉祥物业管理有限公司,1.8,辽宁,0,二手房,2008
甘井子区凌秀路37号-1链家地产,大连,大连恒瑞房地产开发有限公司,高新园区,20190907,38.883794285403965,121.52361997548515,大湖山语,27,20411,大连龙湖物业服务有限公司,2.8,辽宁,3,二手房,2010
无门店信息,大连,大连外贸集团开发公司,中山,20190907,43.873634114640744,81.30301501416476,山岭巷,15,12778,无物业管理服务,-,辽宁,0,二手房,1994
甘井子区惠泽南园3-4号,大连,大连鑫河房地产开发有限公司,甘井子,20190907,38.93925504875288,121.52339009910513,绿色家园,13,12341,绿色家园物业管理有限公司,0.3,辽宁,1,二手房,2004
沙河口区西南路40号楼,大连,大连金通房屋开发有限公司,沙河口,20190907,38.94155650404125,121.5861259059117,海韵花园,9,13456,大连金通物业管理有限公司,0.4,辽宁,0,二手房,2000
甘井子区金家街17-7号,大连,大连衡锐房屋开发有限公司,甘井子,20190907,38.97493697764367,121.60110987128529,衡逸园一期,31,19024,大连衡锐物业管理公司,1,辽宁,2,二手房,2008
中山区中南路店212号门头房,大连,无开发商,中山,20190907,38.91149759691359,121.67700561077149,转山小区,14,12946,大连怡和物业服务有限公司,0.3,辽宁,1,二手房,1989
金州区光明街道育才街42-6号1-2层,大连,无开发商,金州,20190907,39.109080894078986,121.7182584929096,味食小区,21,8769,大连大众物业管理有限公司,0.5,辽宁,1,二手房,1988
甘井子区红旗西路104-7,大连,大连盛达实业总公司,甘井子,20190907,38.940012695252975,121.52780738260293,盛新园,31,12255,大连盛新物业管理有限公司,0.3,辽宁,3,二手房,2000
金州区小平岛B组团4号楼3号商铺,大连,大连圣岛房地产开发有限公司,高新园区,20190907,39.05643299166072,121.78943558267059,小平岛揽海名寓,40,19809,大连凯尔富物业管理有限公司,1.7,辽宁,1,二手房,2010
中山区同心街72号1楼公建,大连,无开发商,中山,20190907,38.91979245940674,121.64769198230202,昆明街（五卅街）,4,15832,无物业管理服务,-,辽宁,0,二手房,1991
中山区华乐街107-115号,大连,大连复城置业有限公司,中山,20190907,38.92093821499401,121.68879267531725,星光耀广场,32,25159,上海复瑞物业管理有限公司大连分公司,4.8,辽宁,1,二手房,2015
甘井子区泉水P3区35-2号,大连,大连市建设控股有限公司,甘井子,20190907,39.01530162252779,121.63546089163083,泉水P2区,17,11573,大连优豪斯物业服务有限公司,1.2,辽宁,6,二手房,2010
金州区先进街道渤海街1-4号1-2层,大连,无开发商,金州,20190907,39.09512910553563,121.74578812616167,金州东山路小区,20,6888,无物业管理服务,0.1,辽宁,3,二手房,1990
金州区同济路44号,大连,大连市金州区光明房地产开发有限公司,金州,20190907,39.10476859984152,121.71234684495865,绿苑小区,47,7256,街道办事处（居委会）代管物业,0.5,辽宁,2,二手房,2000
甘井子区红旗中路143号1层4号,大连,亿海房地产开发有限公司,甘井子,20190907,38.93169566676921,121.5426632438217,水苑居,12,16299,大连万泰物业管理有限公司,0.6,辽宁,1,二手房,2003
无门店信息,大连,大连君悦房地产开发有限公司,甘井子,20190907,43.873634114640744,81.30301501416476,君悦晟景,28,12865,大连弘实物业管理有限公司,1.2,辽宁,5,二手房,2010
甘井子区玉丽街39号楼3号公建,大连,大连乾元房地产开发有限公司,甘井子,20190907,38.98706755029984,121.55605471197089,和合美家,16,13716,大连广兴物业管理有限公司,0.8,辽宁,1,二手房,1998
开发区高新里6栋-8,大连,无开发商,开发区,20190907,39.0710895068195,121.82860134358343,新港家园,31,8644,龙祥物业管理有限公司,0.3,辽宁,2,二手房,2003
甘井子区哲林北园17-6号,大连,大连亿达美加房地产开发有限公司,甘井子,20190907,38.9600267109581,121.53876726228256,第五郡三号地公寓,32,16052,亿达物业管理有限公司,2.2,辽宁,0,二手房,2012
沙河口区鞍山路65号美都园7号1单元1层4号公建,大连,大连正源房地产开发有限公司,沙河口,20190907,38.92755211283745,121.60306664748275,正源小区,18,11744,大连正源物业服务有限公司,0.3,辽宁,0,二手房,1998
金州区拥政街道733号-8号1-2层,大连,大连盛铭资产管理有限公司,金州,20190907,39.11275710643187,121.7224229797623,安盛花园（金州）,25,10567,大连经济技术开发区海青物业有限公司,1,辽宁,0,二手房,2000
中山区鲁迅路184号1层B—A,大连,无开发商,中山,20190907,38.92590875965419,121.67594393403164,新柳街,10,14025,无物业管理服务,-,辽宁,1,二手房,1985
大连市沙河口区知邻街50号,大连,大连亿达房地产股份有限公司,沙河口,20190907,38.913544290955585,121.59450670056631,东方圣荷西,40,25074,亿达物业管理有限公司,2.6,辽宁,2,二手房,2007
开发区金源南里14栋-11号一层部分，14号-12号一层部分,大连,大连开建房地产开发有限公司,开发区,20190907,39.06148862675436,121.82503941311765,金北花园小区,39,8577,嘉兴物业管理有限公司,0.3,辽宁,1,二手房,1997
金州新区八一路金都嘉园1号楼1号公建,大连,大连友谊合升房地产开发有限公司,金州,20190907,39.05525210261778,121.74865634199398,宏意小区,61,7141,大连天河物业管理有限公司,0.4,辽宁,1,二手房,2000
甘井子区祥龙街2号楼1单元1楼1号,大连,大连市大钢集团,甘井子,20190907,38.98830160721291,121.60368765236996,华南沃尔玛六一路,31,11927,街道办事处（居委会）代管物业,0.5,辽宁,4,二手房,1990
西岗区绕山路31号公建一层东侧,大连,无开发商,西岗,20190907,38.90257514466717,121.61412736644739,和云巷,28,9485,无物业管理服务,-,辽宁,5,二手房,1990
中山区金城街26号一楼,大连,无开发商,中山,20190907,38.922282529515634,121.65214466263014,九中白兰街,17,35644,无物业管理服务,-,辽宁,0,二手房,1985
西岗区黄河路82号,大连,陕西亿润经贸有限公司,西岗,20190907,38.92243503020161,121.6287927913896,建设街（大菜市商圈）,12,12670,无物业管理服务,26,辽宁,0,二手房,1970
沙河口区锦霞南园1号1层公建,大连,大连锦绣房地产开发有限公司,沙河口,20190907,38.947367114450536,121.55342584213675,锦虹南园,21,10954,大连锦绣物业管理有限公司,0.3,辽宁,3,二手房,1998
中山区金城街26号一楼,大连,无开发商,中山,20190907,38.922282529515634,121.65214466263014,九中武汉街,11,36241,无物业管理服务,-,辽宁,4,二手房,1986
西岗区平等街21号1层2号,大连,辽宁宁安房地产开发有限公司,西岗,20190907,38.92251066253164,121.63236845125735,良玖国际,42,16303,大连良玖物业管理有限责任公司,3.7,辽宁,2,二手房,2004
开发区鹏程家园66#-6、66#-7公建,大连,大连新天润企业集团有限公司,开发区,20190907,39.03523987258615,121.80826248065051,水御兰庭,30,10005,大连港力物业管理有限公司,1.1,辽宁,2,二手房,2006
无门店信息,大连,平谷地产发展（大连）有限公司,金州,20190907,43.873634114640744,81.30301501416476,平谷蓝熙庭,21,7934,平谷物业服务(大连)有限公司,1.8,辽宁,2,二手房,2010
中山区解放路604号,大连,无开发商,中山,20190907,38.89026319122045,121.66407876092346,鸣鹤街,12,15440,街道办事处（居委会）代管物业,0.5,辽宁,0,二手房,1995
开发区金源南里14栋-11号一层部分，14号-12号一层部分,大连,合肥万科瑞翔地产有限公司,开发区,20190907,39.06148862675436,121.82503941311765,瑞景园,3,7563,大连恒峰皓物业管理有限公司,0.8,辽宁,1,二手房,1998
甘井子区迎客路郭东街一品蓝天公建14号,大连,鹏基,甘井子,20190907,38.958456949708726,121.556756277476,军休家园,1,13616,无物业管理服务,1,辽宁,1,二手房,1995
沙河口区杨树街4—2号,大连,无开发商,高新园区,20190907,38.88444587249751,121.55130620045541,龙江路（学府商圈）,5,14015,无物业管理服务,-,辽宁,0,二手房,1992
无门店信息,大连,芙蓉置业有限公司,甘井子,20190907,43.873634114640744,81.30301501416476,芙蓉公寓,16,8942,大连广丰物业管理有限公司,0.5,辽宁,0,二手房,2002
沙河口区五一路110-4号,大连,大连大重房屋开发有限公司,沙河口,20190907,38.913544290955585,121.59450670056631,星台花园二期,38,25066,大连大重房屋开发公司物业管理中心,0.4,辽宁,0,二手房,1995
甘井子区红旗中路143号1层4号,大连,大连红旗兴达房地产开发有限公司,甘井子,20190907,38.93169566676921,121.5426632438217,吉祥街,7,11581,大连金诚物业管理有限公司,0.2,辽宁,0,二手房,1996
无门店信息,大连,大连航宇房屋开发有限公司,甘井子,20190907,43.873634114640744,81.30301501416476,西郊棠梨园,15,12272,渤海吉祥物业管理有限公司,0.5,辽宁,1,二手房,2005
中山区民建街10号1单元1号,大连,无开发商,中山,20190907,38.925444479476894,121.66915026954452,39中民建街,16,20055,无物业管理服务,-,辽宁,1,二手房,1995
大连市金州区友谊街道南金华城25号1-2层1号,大连,大连金华房地产开发有限公司,金州,20190907,39.128677228885614,121.71356109978767,金华小区三期,12,9402,大连金华兴物业有限公司,1.2,辽宁,1,二手房,2006
沙河口区星海广场B3区14-9,大连,大连友谊合升房地产开发有限公司,沙河口,20190907,38.887408126588866,121.58732762887982,壹品星海二期,19,25781,暂无信息,1.9,辽宁,0,二手房,2007
开发区东北三街94号1层,大连,大连同济房地产开发有限公司,开发区,20190907,39.05723508011585,121.80570768630555,新东方公寓三期,90,6703,大连同济物业管理有限公司,1.5,辽宁,6,二手房,2005
沙河口区西南路643号,大连,无开发商,沙河口,20190907,38.943483429804665,121.5833555851182,恒达花园（沙河口）,12,11716,无物业管理服务,-,辽宁,1,二手房,1990
沙河口区黄河路883号,大连,无开发商,沙河口,20190907,38.919826721475204,121.57749657966676,西南路（辽师商圈）,4,11861,无物业管理服务,-,辽宁,0,二手房,1990
沙河口区连山街10号2-1-2,大连,大连宝嘉房地产有限公司,沙河口,20190907,38.89637522563413,121.57143690983219,星海名庭,9,22982,大连斌宏物业管理有限公司,0.6,辽宁,0,二手房,2005
大连市甘井子区银田北园14号,大连,亿达集团大连房地产开发有限公司,甘井子,20190907,38.9742441034389,121.47189841879823,亿达春田银杏园,88,18549,亿达物业管理有限公司,2.2,辽宁,2,二手房,2005
甘井子区迎客路郭东街一品蓝天公建14号,大连,沈阳军区后勤部,甘井子,20190907,38.958456949708726,121.556756277476,金寓花园三期,8,17615,大连瑞祥物业管理有限公司,1,辽宁,1,二手房,2008
大连市甘井子区张前路620-18号（第19幢1单元1跃2层14号）,大连,无开发商,甘井子,20190907,38.98764207496216,121.52409526893047,嘉安边防家园,12,12693,大连新型物业管理有限公司,1,辽宁,2,二手房,2006
中山区民建街10号1单元1号,大连,无开发商,中山,20190907,38.925444479476894,121.66915026954452,建华巷（三八广场）,6,14611,无物业管理服务,-,辽宁,2,二手房,1990
大连市沙河口区黄河路729号,大连,无开发商,沙河口,20190907,38.91710565765228,121.58954758972729,明阳花园小区,14,11584,无物业管理服务,-,辽宁,0,二手房,2000
大连市甘井子区椒房街24号楼2-104链家地产,大连,大连凯祥房地产开发有限公司,甘井子,20190907,38.985363789837166,121.61034055597686,椒金山庄,24,16866,大连凯祥物业管理有限公司,0.5,辽宁,5,二手房,2000
甘井子区甘井子路32号楼1单元1楼9号,大连,无开发商,甘井子,20190907,38.982488275116516,121.63345389253514,杨柳街,19,10452,街道办事处（居委会）代管物业,0.5,辽宁,3,二手房,1990
西岗区平等街21号1层2号,大连,"无开发商,大连永欣香榭里实业有限公司",西岗,20190907,38.92251066253164,121.63236845125735,香榭里,60,9936,大连金地物业管理有限公司,3.6,辽宁,4,二手房,2000
沙河口区沙能街101号1单元1层1号,大连,大连政府城区改造办公室,沙河口,20190907,38.9366316275348,121.59031205759763,新居佳园,16,13654,大连大力物业管理有限公司,1.5,辽宁,2,二手房,2010
中山区中南路226号,大连,大连国合嘉汇房地产开发有限公司,中山,20190907,38.90029610333926,121.68178899957817,枫合万嘉,27,23759,大连国合物业管理有限公司,1,辽宁,0,二手房,2005
甘井子区华龙南园34-5号34-库4号34-5号,大连,中信集团大连中信房地产开发公司,甘井子,20190907,38.98270467597865,121.6117222765123,惠丰小区,28,10410,大连中信物业管理有限公司,0.2,辽宁,2,二手房,1989
中山区武昌街武昌公寓6号公建,大连,无开发商,中山,20190907,38.912280913445784,121.64921130527547,麒麟东巷,4,11056,无物业管理服务,-,辽宁,1,二手房,1988
无门店信息,大连,大连金房置业代理有限公司,旅顺口,20190907,43.873634114640744,81.30301501416476,金川家园,30,11710,大连恒峰皓物业管理有限公司,-,辽宁,1,二手房,1994
中山区南山路59号1层4号,大连,无开发商,中山,20190907,38.91992239075882,121.6479206962747,昆明街（正阳街）,4,16782,无物业管理服务,-,辽宁,0,二手房,1980
甘井子区华东路33-5号,大连,无,甘井子,20190907,38.97497080220593,121.59479866243332,巾帼小区,30,12292,大连新华物业管理有限公司,-,辽宁,2,二手房,1993
中山区爱华街13号,大连,无开发商,中山,20190907,38.92541607518685,121.6535728031028,九中一德街,14,42752,无物业管理服务,-,辽宁,1,二手房,1970
大连经济技术开发区同和里7栋-9号,大连,无开发商,开发区,20190907,39.048933782970316,121.78832105502437,新月里,21,9756,街道办事处（居委会）代管物业,0.5,辽宁,3,二手房,1999
开发区安盛里5栋-4,大连,大连新苑房地产开发有限公司,开发区,20190907,23.112106678834838,113.27801046214822,绿色新苑,14,12894,大连利堃物业管理有限公司,0.8,辽宁,1,二手房,2001
西岗区鞍山路65-5号,大连,大连华阳房地产开发有限公司,沙河口,20190907,38.92701992456326,121.60258216167713,华阳风尚,18,17542,北京凯莱物业管理有限公司大连分公司,1.3,辽宁,2,二手房,2009
大连市金州新区中长街道碧海尚城5-4号1-2层,大连,无开发商,金州,20190907,39.1001690968934,121.73061017121415,于洼小区,66,7184,街道办事处（居委会）代管物业,0.1,辽宁,4,二手房,1980
沙河口区西南路40号楼,大连,大连昊东房地产开发有限公司,沙河口,20190907,38.94155650404125,121.5861259059117,星海国府,8,21706,大连戴德梁行物业管理有限公司,2.5,辽宁,0,二手房,1999
甘井子区锦城西园4#3-1-1,大连,大连锦绣房地产开发有限公司,甘井子,20190907,38.95286223185571,121.55129044777,锦城西园,32,19119,大连锦绣锦城园物业,0.6,辽宁,2,二手房,2006
中山区岭前街53-5,大连,大连铭泰房地产开发有限公司,中山,20190907,38.894816075499904,121.65794368822269,锦府桃源,18,24525,大连意美物业服务有限公司,1.2,辽宁,1,二手房,2008
沙河口区沙能街101号1单元1层1号,大连,大连大力置业有限公司,沙河口,20190907,38.9366316275348,121.59031205759763,机车佳苑,11,15125,大连大力物业管理有限公司,1.5,辽宁,0,二手房,2007
开发区松苑街23号,大连,大连众益神州地产开发有限公司,开发区,20190907,22.52087435807652,113.40156105086167,松海庄园二期,12,12929,大连万达物业管理有限公司,0.5,辽宁,1,二手房,2000
西岗区八一路102号,大连,无开发商,西岗,20190907,38.92047268927287,121.61862512554262,安泰巷,4,12593,无物业管理服务,-,辽宁,0,二手房,1990
开发区红梅小区19栋-2-1-1号,大连,大连开发区世元房地产开发有限公司,开发区,20190907,29.906498897603264,121.5913630631805,世元国际公寓,36,11446,大连世元物业管理有限公司,2,辽宁,4,二手房,2000
开发区金马路169-2-6号房屋,大连,大连亿锋集团有限公司,开发区,20190907,39.057398235688176,121.78261137849105,铜锣湾,42,10499,亿锋豪景物业管理有限公司,1.2,辽宁,2,二手房,2004
甘井子区西南路芳茗园30号楼,大连,大连泰华房地产开发有限公司,甘井子,20190907,38.961395177040636,121.59546002818708,泰华府邸,22,18791,大连华安物业管理有限公司,1.5,辽宁,1,二手房,2009
甘井子区红旗西路104-23,大连,大连鹏德房屋开发有限公司,甘井子,20190907,38.94013845868325,121.5282577714263,逸林派,32,15156,大连三和住邦物业管理有限公司,1.6,辽宁,1,二手房,2010
莲花山路89-3号,大连,"""浙江富园房地产开发有限公司",沙河口,20190907,38.902848261803356,121.6041720815823,美丽巷,4,13799,大连恒诚物业管理有限公司,-,辽宁,1,二手房,1985
中山区金城街26号一楼,大连,辽宁远大房屋开发有限公司,中山,20190907,38.922282529515634,121.65214466263014,远大大厦,42,10329,街道办事处（居委会）代管物业,2.5,辽宁,1,二手房,1997
无门店信息,大连,大连金石文化旅游投资有限公司,金州,20190907,43.873634114640744,81.30301501416476,大连金石天成,51,8753,大连万达物业管理有限公司,1.5,辽宁,1,二手房,2008
甘井子区甘井子路32号楼1单元1楼9号,大连,大连和华房地产开发有限公司,甘井子,20190907,38.982488275116516,121.63345389253514,万成御园,17,14569,大连银力物业管理有限公司,1.3,辽宁,3,二手房,2014
金州区五一路先进街道 陶然居2-2,大连,大连昌临房地产开发有限公司,金州,20190907,39.0830973395057,121.7630113583655,昌临家园,25,10321,金碧物业有限公司大连分公司,1.5,辽宁,0,二手房,2008
无门店信息,大连,大连泰达新城建设发展有限公司,甘井子,20190907,43.873634114640744,81.30301501416476,泰达青筑,52,11749,大连三和住邦物业管理有限公司,2.2,辽宁,1,二手房,2012
中山区东港龙湖水晶郦湾7-102,大连,恒大集团,中山,20190907,38.924700620463895,121.70344398518496,恒大四季上东,8,27669,金碧物业有限公司大连分公司,3.8,辽宁,0,二手房,2015
大连市高新园区七贤中路63号,大连,大连鑫亿房屋开发有限公司,高新园区,20190907,38.86053006357667,121.53273606963094,瑞丰园,12,14423,无物业管理服务,0.8,辽宁,1,二手房,1999
沙河口区杨树街4-4号公建,大连,无开发商,高新园区,20190907,38.88444587249751,121.55130620045541,育明高中,7,18830,无物业管理服务,-,辽宁,1,二手房,1995
西岗区中山路158号唐山街市场外14号,大连,"""苍南县中富房地产开发有限公司",西岗,20190907,38.91688106727098,121.63201298398174,34中松花街,17,28077,无物业管理服务,-,辽宁,1,二手房,1980
甘井子区甘井子路32号楼1单元1楼9号,大连,大连市建设控股有限公司,甘井子,20190907,38.982488275116516,121.63345389253514,胜景家园,15,12644,街道办事处（居委会）代管物业,0.9,辽宁,2,二手房,2008
沙河口区黑石礁街5号1层1号,大连,大连鹏生房地产开发有限公司,沙河口,20190907,38.879813345473714,121.56313742300513,鹏辉广场,16,18700,大连新兴物业管理有限公司,0.5,辽宁,3,二手房,2000
金州区鹏程家园53#-8,大连,大连软微房地产开发有限公司,开发区,20190907,39.03523987258615,121.80826248065051,深蓝半英里,17,9998,大连豪斯威物业管理有限公司,1.2,辽宁,0,二手房,2007
中山区中南路226号,大连,大连亿泰房屋开发有限公司,中山,20190907,38.90029610333926,121.68178899957817,亿泰庄园,15,14836,大连远洋基业物业管理有限公司,0.7,辽宁,1,二手房,1999
沙河口区富静街26号1单元1层5号,大连,大连大重房屋开发有限公司,沙河口,20190907,38.908727606250466,121.58667844684369,星河璞园,5,19780,大连大重房屋开发公司物业管理中心,0.5,辽宁,0,二手房,2002
沙河口区五一路219-1,大连,大连圣北房地产有限公司,沙河口,20190907,38.913544290955585,121.59450670056631,电业花园,9,14436,大连市沙河口房产物业管理有限公司,0.3,辽宁,1,二手房,1999
中山区金城街26号一楼,大连,无开发商,中山,20190907,38.922282529515634,121.65214466263014,39中白兰街（南山商圈）,7,25436,无物业管理服务,-,辽宁,0,二手房,1993
中山区三八广场5号,大连,无开发商,中山,20190907,38.92540000551715,121.6642911149562,捷胜街,4,14826,无物业管理服务,-,辽宁,0,二手房,1995
甘井子区促进路200号,大连,大连鼎新房地产开发有限公司,甘井子,20190907,38.95810188892782,121.58530036264898,鼎新鼎云都,4,16712,大连鼎新物业管理有限公司,0.6,辽宁,3,二手房,2008
中山区爱华街13号,大连,大连新世界广场国际有限公司,中山,20190907,38.92541607518685,121.6535728031028,曼哈顿大厦,52,14210,大连侨乐物业服务有限公司,3.5,辽宁,3,二手房,2001
中山区金城街26号一楼,大连,无开发商,中山,20190907,38.922282529515634,121.65214466263014,玉光街,4,17119,无物业管理服务,0.5,辽宁,1,二手房,1982
无门店信息,大连,无开发商,西岗,20190907,43.873634114640744,81.30301501416476,顺达海滨花园,5,23347,大连金田联义地产物业发展有限公司,0.5,辽宁,0,二手房,1999
中山区职工街96号1-3层公建,大连,无开发商,中山,20190907,38.92565613737007,121.66193575790903,警后大院（三八广场）,21,14647,无物业管理服务,-,辽宁,3,二手房,1992
大连市沙河口区西南路875号1层21号,大连,无开发商,沙河口,20190907,38.94485969061231,121.58418648447764,西南路（春柳商圈）,16,11651,大连三宝物业有限公司,0.5,辽宁,2,二手房,1980
中山区金城街26号一楼,大连,无开发商,中山,20190907,38.922282529515634,121.65214466263014,39中南山街,14,26239,无物业管理服务,-,辽宁,0,二手房,1985
沙河口区富国街34-3,大连,大连万达房地产开发有限公司,沙河口,20190907,38.90160386349964,121.58915317342193,星海自由港,19,21001,大连万景物业管理有限公司,1.2,辽宁,2,二手房,2002
沙河口区中山路417A-4号,大连,大连宝嘉房地产有限公司,沙河口,20190907,38.906939870156414,121.5941747326634,德源,9,26760,大连中和信邦物业管理有限公司,1.9,辽宁,0,二手房,2008
甘井子区海口路77—5号,大连,陕西亿润经贸有限公司,甘井子,20190907,38.960286398428124,121.60305183172997,鹏辉新世纪五期,8,19425,大连鹏辉物业管理有限公司,0.6,辽宁,3,二手房,2009
沙河口区知心园10号公建,大连,大连亿达房地产股份有限公司,高新园区,20190907,38.893977135945136,121.55667141994431,亿达康派公寓,23,17274,亿达物业管理有限公司,2.2,辽宁,4,二手房,2005
中山区益民街16号1层1号,大连,无开发商,中山,20190907,38.93092761298906,121.66470740073377,自强街（三八广场）,4,14960,无物业管理服务,-,辽宁,0,二手房,1993
大连市甘井子区逸林南园1-1号,大连,金州城建局，开发区城建局,甘井子,20190907,38.95800216293212,121.53151895549547,张前路辛寨子基地,4,10467,暂无信息,1.8,辽宁,0,二手房,1995
沙河口区新生路万客园3-7,大连,大连中海兴业房地产开发有限公司,沙河口,20190907,38.94412875710208,121.57006756704837,中海天赋山一期,23,23103,大连中海物业管理有限公司,2.8,辽宁,0,二手房,2015
沙河口区联合路133号,大连,亿达集团大连房地产开发有限公司,沙河口,20190907,38.91608561262676,121.60480987310456,21中亿达广场,3,18639,亿达物业管理有限公司,1.2,辽宁,0,二手房,1999
沙河口区中山路417A-4号,大连,大连新希望家园房地产有限公司,沙河口,20190907,38.906939870156414,121.5941747326634,新希望花园,31,20192,大连乾峰物业管理有限公司,1.3,辽宁,1,二手房,2002
中山区益民街16号1层1号,大连,无开发商,中山,20190907,38.93092761298906,121.66470740073377,丹东街（三八广场）,10,14201,无物业管理服务,-,辽宁,2,二手房,1995
甘井子区金家街17-7号,大连,大连新型房地产开发有限公司,甘井子,20190907,38.97493697764367,121.60110987128529,翰林苑,7,22747,大连新兴物业管理有限公司,2,辽宁,0,二手房,2014
中山区华乐街71号公建,大连,大连振屹房屋开发有限公司,中山,20190907,38.923187679200566,121.6843197903016,春华山小区,20,11016,无物业管理服务,-,辽宁,0,二手房,1985
大连市甘井子区丰收路3-5号,大连,大连亿海房地产开发有限公司,甘井子,20190907,38.965377255081755,121.58288415324094,亿海盛都,25,21107,街道办事处（居委会）代管物业,0.5,辽宁,2,二手房,2002
无门店信息,大连,无开发商,金州,20190907,43.873634114640744,81.30301501416476,香山翌景,23,7413,街道办事处（居委会）代管物业,0.5,辽宁,1,二手房,2000
沙河口区新生路万客园3-7,大连,中海地产,沙河口,20190907,38.94412875710208,121.57006756704837,中海天赋山二期,26,19785,大连中海物业管理有限公司,2.8,辽宁,2,二手房,2013
沙河口区连山街10号2-1-2,大连,大连国合嘉汇房地产开发有限公司,沙河口,20190907,38.89637522563413,121.57143690983219,嘉汇星海,4,19527,大连国合物业管理有限公司,0.5,辽宁,0,二手房,2004
甘井子区西南路979-7号公建,大连,大连祥盛房屋开发有限公司,甘井子,20190907,38.96275592929325,121.5958698791777,金盛家园,64,17606,大连宏华物业管理有限公司,0.5,辽宁,0,二手房,2001
沙河口区鞍山路65号美都园7号1单元1层4号公建,大连,远洋地产有限公司,沙河口,20190907,38.92755211283745,121.60306664748275,绿都园,18,14629,大连峰霖物业管理有限公司,0.6,辽宁,2,二手房,2000
开发区黄海西路201号107公建,大连,无开发商,开发区,20190907,39.04942604506828,121.80126318235419,岗林里,48,6903,大连经济技术开发区海青物业有限公司,0.5,辽宁,0,二手房,1995
中山区高尚路28-1号,大连,无开发商,中山,20190907,38.892673425111305,121.67148833870213,宪卫里,22,10615,无物业管理服务,0.5,辽宁,1,二手房,1990
无门店信息,大连,大连盈丰置业有限公司,金州,20190907,43.873634114640744,81.30301501416476,尚海华庭,40,9437,大连盈丰置业有限公司,1.3,辽宁,0,二手房,2005
大连经济技术开发区时代城4-3号1-2号,大连,重庆汇东房地产开发有限公司,开发区,20190907,39.0992481321252,121.83007860699459,摩宿公寓,74,7395,大连远洋基业物业管理有限公司,1.5,辽宁,4,二手房,2009
沙河口区星海广场B3区14-2号1层,大连,华润置地（大连）有限公司,沙河口,20190907,38.88693148294673,121.58735631267305,星海湾壹号,43,50974,华润物业（大连）有限公司,4.8,辽宁,1,二手房,2006
西岗区八一路196号2-1-12号,大连,大连欧美亚房地产开发有限公司,西岗,20190907,38.92047268927287,121.61862512554262,中华名城,42,19475,大连峰霖物业管理有限公司,1.5,辽宁,2,二手房,2002
"西岗区泰公街20号2层7号 西岗区久寿街22号1层14号""",大连,大连万达房地产开发有限公司,西岗,20190907,38.92600196862723,121.62141976476381,新春小区,5,15045,大连长青物业管理中心,0.2,辽宁,2,二手房,1995
无门店信息,大连,大连明和兆泰置业有限公司,开发区,20190907,43.873634114640744,81.30301501416476,知润山,18,11186,大连华安物业管理有限公司,1,辽宁,0,二手房,2005
高新园区红凌路732-4号,大连,大华集团大连房地产开发有限公司,高新园区,20190907,38.90204708664442,121.53244406374695,大华爱琴湾,57,21695,大连大华物业管理有限公司,1.8,辽宁,2,二手房,2010
大连开发区金马路169-2-8号,大连,大连德泰控股有限公司,开发区,20190907,39.057398235688176,121.78261137849105,德泰时代广场,35,13593,大连德泰物业管理有限公司,0.5,辽宁,7,二手房,2010
甘井子区惠泽南园3-7号,大连,大连利丰房地产开发有限公司,甘井子,20190907,38.93925504875288,121.52339009910513,国安宜居,9,18879,大连易明物业服务有限公司,2,辽宁,0,二手房,2014
金州区同济路44号,大连,大连金州金山房地产开发有限公司,金州,20190907,39.10476859984152,121.71234684495865,金山苑小区,25,9095,大连金山物业管理有限公司,-,辽宁,0,二手房,2000
沙河口区南沙街36号台二2号1-1-37,大连,大连三寰房屋开发有限公司,沙河口,20190907,38.90741410359388,121.57685699961822,南平花园,12,18221,大连上达物业管理有限公司,0.3,辽宁,0,二手房,2001
开发区金马路169-2-6号房屋,大连,无开发商,开发区,20190907,39.057398235688176,121.78261137849105,收获公寓,13,6807,街道办事处（居委会）代管物业,0.5,辽宁,1,二手房,2000
中山区民建街10号1单元1号,大连,无开发商,中山,20190907,38.925444479476894,121.66915026954452,39中爱阳街,30,20154,无物业管理服务,-,辽宁,1,二手房,1993
中山区东港龙湖水晶郦湾7-102,大连,大连盈盛房地产开发有限公司,中山,20190907,38.924700620463895,121.70344398518496,保利天禧二期 禧岸1903,33,28256,保利物业服务有限公司,4.8,辽宁,0,二手房,2018
甘井子区泉水B5区27-9,大连,大连万锦房地产开发有限公司,甘井子,20190907,39.014808383172415,121.60978022983026,万锦民悦一期,15,13569,大连瑞祥物业管理有限公司,0.5,辽宁,0,二手房,2007
西岗区八一路196号1-3,大连,无开发商,西岗,20190907,38.92047268927287,121.61862512554262,三环街（八一路商圈）,2,12140,无物业管理服务,-,辽宁,1,二手房,1990
中山区中南路226号,大连,大连澳南房屋开发有限公司,中山,20190907,38.90029610333926,121.68178899957817,伊顿山庄,9,24670,大连澳南物业管理有限公司,0.8,辽宁,1,二手房,1998
中山区南山路59号1层4号,大连,无开发商,中山,20190907,38.91992239075882,121.6479206962747,昆明街（独立街）,13,26075,无物业管理服务,-,辽宁,1,二手房,1988
中山区共建巷61号,大连,大连新型房地产开发总公司,中山,20190907,38.91828093658718,121.66259221532148,南山苑,10,32069,大连新型物业管理有限公司,1.5,辽宁,1,二手房,1990
大连市金州区友谊街道南金华城25号1-2层1号,大连,大连远城置业有限公司,金州,20190907,39.128677228885614,121.71356109978767,玉兰花园,26,12818,绿城物业服务集团有限公司大连分公司,0.1,辽宁,0,二手房,2010
甘井子区红韵路114号,大连,大连亿达美加房地产开发有限公司,甘井子,20190907,38.95800216293212,121.53151895549547,第五郡六号地,44,31548,亿达物业管理有限公司,3,辽宁,2,二手房,2009
中山区解放路471-22号,大连,大连青云天下房地产有限公司,中山,20190907,38.901309943567504,121.65419095766659,青云天下,12,24655,大连青云天下物业服务有限公司,4.3,辽宁,1,二手房,2015
甘井子区虹港路16号楼1层公建,大连,沈阳军区后勤部,甘井子,20190907,38.9645939333502,121.553851837474,金寓花园四期,9,19083,大连大管家物业管理有限公司,1,辽宁,2,二手房,2000
西岗区康平街2号（5号楼3-1-3号）,大连,大连振屹房屋开发有限公司,西岗,20190907,38.91044414697888,121.61980769264477,水仙名苑,11,23910,大连广信物业管理有限公司,0.5,辽宁,0,二手房,1997
中山区杏林街66—5号,大连,无开发商,中山,20190907,38.92440845067654,121.66285472444575,39中开源巷,8,29551,街道办事处（居委会）代管物业,0.5,辽宁,0,二手房,1982
沙河口区五四路207-1-9号,大连,无开发商,沙河口,20190907,38.913544290955585,121.59450670056631,集贤北街,7,14123,无物业管理服务,0.5,辽宁,1,二手房,1992
开发区东北三街94号1层,大连,大连同济房地产开发有限公司,开发区,20190907,39.05723508011585,121.80570768630555,新东方公寓二期,60,5774,大连同济物业管理有限公司,1.5,辽宁,2,二手房,2003
无门店信息,大连,大连康阳房屋开发有限公司,甘井子,20190907,43.873634114640744,81.30301501416476,南岭新城二期,51,15072,大连鸿诚物业管理有限公司,0.4,辽宁,0,二手房,2005
西岗区八一路102号,大连,无开发商,西岗,20190907,38.92047268927287,121.61862512554262,智勇西二巷,5,9776,无物业管理服务,-,辽宁,1,二手房,1993
甘井子区惠泽南园3-7号,大连,大连长鹭房屋开发有限公司,甘井子,20190907,38.93925504875288,121.52339009910513,长鹭晶品逸林,9,19242,大连旺宇物业有限公司,1.9,辽宁,0,二手房,2016
